Time (s),Altitude (m),Total velocity (m/s),Total acceleration (m/s),Position East of launch (m),Position North of launch (m),Gravitational acceleration (m/s),Angle of attack (rad),Roll rate (rpm),Pitch rate (rpm),Yaw rate (rpm),Mass (g),Longitudinal moment of inertia (kgm),CP location (cm),CG location (cm),Stability margin calibers (?),Mach number (?),Reynolds number (?),Thrust (N),Drag force (N),Drag coefficient (?),Axial drag coefficient (?),Friction drag coefficient (?),Pressure drag coefficient (?),Base drag coefficient (?),Normal force coefficient (?),Pitch moment coefficient (?),Yaw moment coefficient (?),Roll damping coefficient (?),Pitch damping coefficient (?),Vertical orientation (zenith) (rad),Air pressure (Pa)
0,0,0,7.3018,0,0,9.8221,1.7453,0,0,0,18553,6.611,NaN,199.83,NaN,0.023503,1465635,43.988,-0.0031601,0.80982,-0.0097128,0.57034,0.11941,0.12007,NaN,NaN,NaN,NaN,NaN,1.3963,101325
2e-3,0,0,2.5599,0,0,9.8221,1.7453,0,0,0,18553,6.611,NaN,199.83,NaN,0.023503,1465635,131.97,-0.0031601,0.80982,-0.0097128,0.57034,0.11941,0.12007,NaN,NaN,NaN,NaN,NaN,1.3963,101325
4e-3,0,0,2.1826,0,0,9.8221,1.7453,0,0,0,18552,6.6109,NaN,199.83,NaN,0.023503,1465635,219.94,-0.0031601,0.80982,-0.0097128,0.57034,0.11941,0.12007,NaN,NaN,NaN,NaN,NaN,1.3963,101325
6e-3,4.2998e-6,0.0043663,6.9257,7.5817e-7,0,9.8221,1.7448,0,0,0,18551,6.6107,NaN,199.83,NaN,0.0235,1465496,307.92,-0.0031316,0.80984,-0.0096268,0.57035,0.11941,0.12007,NaN,NaN,NaN,NaN,NaN,1.3963,101325
8e-3,2.6542e-5,0.018219,11.669,4.68e-6,0,9.8221,1.7431,0,0,0,18550,6.6106,NaN,199.82,NaN,0.023493,1465059,395.9,-0.0030421,0.80987,-0.0093573,0.57038,0.11941,0.12007,NaN,NaN,NaN,NaN,NaN,1.3963,101325
0.01,8.5412e-5,0.041559,16.413,1.506e-5,0,9.8221,1.7402,0,0,0,18549,6.6105,NaN,199.82,NaN,0.023482,1464332,483.87,-0.002895,0.80992,-0.0089137,0.57044,0.11941,0.12007,NaN,NaN,NaN,NaN,NaN,1.3963,101325
0.012,1.996e-4,0.074388,21.158,3.5194e-5,0,9.8221,1.7362,0,0,0,18548,6.6104,NaN,199.82,NaN,0.023466,1463330,571.85,-0.0026959,0.81,-0.0083121,0.57051,0.11941,0.12007,NaN,NaN,NaN,NaN,NaN,1.3963,101325
0.014,3.8779e-4,0.11671,25.903,6.8377e-5,0,9.8221,1.7309,0,0,0,18547,6.6102,NaN,199.82,NaN,0.023445,1462074,659.83,-0.0024525,0.81009,-0.0075747,0.57061,0.11941,0.12007,NaN,NaN,NaN,NaN,NaN,1.3963,101325
0.016,6.6867e-4,0.16851,30.648,1.1791e-4,0,9.8221,1.7245,0,0,0,18546,6.6101,NaN,199.82,NaN,0.023422,1460591,747.8,-0.0021743,0.8102,-0.0067291,0.57072,0.11941,0.12007,NaN,NaN,NaN,NaN,NaN,1.3963,101325
0.018,0.001061,0.22981,35.394,1.8707e-4,0,9.8221,1.7169,0,0,0,18545,6.61,NaN,199.82,NaN,0.023395,1458913,835.78,-0.0018724,0.81033,-0.005808,0.57084,0.11941,0.12007,NaN,NaN,NaN,NaN,NaN,1.3963,101325
0.02,0.0015833,0.30061,40.141,2.7918e-4,0,9.8221,1.7081,0,0,0,18544,6.6099,NaN,199.82,NaN,0.023365,1457081,923.76,-0.001559,0.81046,-0.004848,0.57098,0.11941,0.12007,NaN,NaN,NaN,NaN,NaN,1.3963,101325
0.022,0.0022545,0.38089,44.888,3.9752e-4,0,9.8221,1.6981,0,0,0,18543,6.6097,NaN,199.82,NaN,0.023334,1455141,1011.7,-0.001247,0.81061,-0.0038883,0.57113,0.11941,0.12007,NaN,NaN,NaN,NaN,NaN,1.3963,101325
0.024,0.0030931,0.47067,49.635,5.4539e-4,0,9.8221,1.6869,0,0,0,18542,6.6096,NaN,199.82,NaN,0.023302,1453145,1099.7,-9.4962e-4,0.81076,-0.0029691,0.57128,0.11941,0.12007,NaN,NaN,NaN,NaN,NaN,1.3963,101325
0.026,0.0041179,0.56995,54.383,7.261e-4,0,9.8221,1.6744,0,0,0,18541,6.6095,NaN,199.81,NaN,0.02327,1451151,1187.7,-6.7922e-4,0.81091,-0.0021295,0.57143,0.11941,0.12007,NaN,NaN,NaN,NaN,NaN,1.3963,101325
0.028,0.0053476,0.67872,59.132,9.4293e-4,0,9.8221,1.6607,0,0,0,18540,6.6094,NaN,199.81,NaN,0.023239,1449225,1275.7,-4.4688e-4,0.81105,-0.0014048,0.57157,0.11941,0.12007,NaN,NaN,NaN,NaN,NaN,1.3963,101325
0.03,0.0068009,0.79699,63.881,0.0011992,0,9.8221,1.6458,0,0,0,18539,6.6092,NaN,199.81,NaN,0.023211,1447440,1363.6,-2.6124e-4,0.81119,-8.2324e-4,0.57171,0.11941,0.12007,NaN,NaN,NaN,NaN,NaN,1.3963,101325
0.032,0.0084965,0.92476,68.63,0.0014982,0,9.8221,1.6297,0,0,0,18538,6.6091,NaN,199.81,NaN,0.023186,1445874,1451.6,-1.2728e-4,0.81131,-4.0196e-4,0.57182,0.11941,0.12007,NaN,NaN,NaN,NaN,NaN,1.3963,101325
0.034,0.010453,1.062,73.38,0.0018432,0,9.8221,1.6123,0,0,0,18537,6.609,NaN,199.81,NaN,0.023165,1444612,1539.6,-4.4969e-5,0.8114,-1.4227e-4,0.57192,0.11941,0.12007,NaN,NaN,NaN,NaN,NaN,1.3963,101325
0.036,0.012689,1.2088,78.131,0.0022375,0,9.8221,1.5937,0,0,0,18536,6.6089,NaN,199.81,NaN,0.023152,1443746,1627.6,-7.6238e-6,0.81147,-2.4148e-5,0.57199,0.11941,0.12007,NaN,NaN,NaN,NaN,NaN,1.3963,101325
0.038,0.015224,1.3651,83.044,0.0026844,0,9.8221,1.5739,0,0,0,18535,6.6087,NaN,199.81,NaN,0.023146,1443374,1718.6,-1.8446e-8,0.81149,-5.8455e-8,0.57201,0.11941,0.12007,NaN,NaN,NaN,NaN,NaN,1.3963,101325
0.04,0.018076,1.5312,88.933,0.0031874,0,9.8221,1.5528,0,0,0,18534,6.6086,NaN,199.81,NaN,0.023149,1443601,1827.6,3.7277e-6,0.81148,1.181e-5,0.572,0.11941,0.12007,NaN,NaN,NaN,NaN,NaN,1.3963,101325
0.042,0.021267,1.709,94.989,0.00375,0,9.8221,1.5302,0,0,0,18532,6.6083,NaN,199.8,NaN,0.023165,1444556,1939.6,4.205e-5,0.81141,1.3304e-4,0.57192,0.11941,0.12007,NaN,NaN,NaN,NaN,NaN,1.3963,101325
0.044,0.024821,1.899,101.05,0.0043765,0,9.8221,1.5062,0,0,0,18529,6.6079,NaN,199.8,NaN,0.023194,1446386,2051.6,1.6781e-4,0.81127,5.296e-4,0.57179,0.11941,0.12007,NaN,NaN,NaN,NaN,NaN,1.3963,101325
0.046,0.02876,2.1012,107.11,0.0050712,0,9.8221,1.4807,0,0,0,18527,6.6076,NaN,199.8,NaN,0.02324,1449248,2163.6,4.4971e-4,0.81105,0.0014136,0.57157,0.11941,0.12007,NaN,NaN,NaN,NaN,NaN,1.3963,101325
0.048,0.03311,2.3154,113.17,0.0058381,0,9.8221,1.4538,0,0,0,18524,6.6073,NaN,199.8,NaN,0.023305,1453306,2275.6,9.7317e-4,0.81075,0.003042,0.57126,0.11941,0.12007,NaN,NaN,NaN,NaN,NaN,1.3963,101325
0.05,0.037893,2.5418,119.24,0.0066816,0,9.8221,1.4255,0,0,0,18522,6.6069,NaN,199.79,NaN,0.023392,1458729,2387.7,0.0018409,0.81034,0.0057117,0.57086,0.11941,0.12007,NaN,NaN,NaN,NaN,NaN,1.3963,101325
0.052,0.043134,2.7803,125.31,0.0076057,0,9.8221,1.396,0,0,0,18519,6.6066,NaN,199.79,NaN,0.023504,1465692,2499.7,0.0031728,0.80982,0.0097511,0.57034,0.11941,0.12007,NaN,NaN,NaN,NaN,NaN,1.3963,101324
0.054,0.048857,3.031,131.37,0.0086148,0,9.8221,1.3654,0,0,0,18516,6.6063,NaN,199.79,NaN,0.023643,1474369,2611.7,0.0051061,0.80918,0.015508,0.56969,0.11941,0.12007,NaN,NaN,NaN,NaN,NaN,1.3963,101324
0.056,0.055086,3.2937,137.44,0.0097131,0,9.8221,1.3336,0,0,0,18514,6.6059,NaN,199.78,NaN,0.023812,1484938,2723.7,0.0077936,0.8084,0.023335,0.56892,0.11941,0.12007,NaN,NaN,NaN,NaN,NaN,1.3963,101324
0.058,0.061844,3.5687,142.87,0.010905,0,9.8221,1.3009,0,0,0,18511,6.6056,NaN,199.78,NaN,0.024015,1497573,2823.7,0.011403,0.80749,0.03357,0.568,0.11941,0.12007,NaN,NaN,NaN,NaN,NaN,1.3963,101324
0.06,0.069154,3.8544,144.4,0.012194,0,9.8221,1.2675,0,0,0,18508,6.6053,NaN,199.78,NaN,0.024252,1512373,2851.6,0.016093,0.80642,0.046452,0.56693,0.11941,0.12008,NaN,NaN,NaN,NaN,NaN,1.3963,101324
0.062,0.07703,4.1433,145.29,0.013583,0,9.8221,1.2345,0,0,0,18505,6.6048,NaN,199.77,NaN,0.024519,1529009,2867.6,0.021868,0.80525,0.061756,0.56575,0.11942,0.12008,NaN,NaN,NaN,NaN,NaN,1.3963,101324
0.064,0.085477,4.4339,146.18,0.015072,0,9.8221,1.202,0,0,0,18501,6.6044,NaN,199.77,NaN,0.024814,1547394,2883.5,0.028785,0.80396,0.07937,0.56447,0.11942,0.12008,NaN,NaN,NaN,NaN,NaN,1.3963,101324
0.066,0.094498,4.7263,147.07,0.016663,0,9.8221,1.1701,0,0,0,18498,6.6039,NaN,199.77,NaN,0.025136,1567501,2899.4,0.036909,0.80258,0.099176,0.56308,0.11942,0.12008,NaN,NaN,NaN,NaN,NaN,1.3963,101324
0.068,0.1041,5.0205,147.96,0.018355,0,9.8221,1.1389,0,0,0,18494,6.6034,NaN,199.76,NaN,0.025486,1589295,2915.3,0.046297,0.80111,0.12101,0.56161,0.11942,0.12008,NaN,NaN,NaN,NaN,NaN,1.3963,101324
0.07,0.11428,5.3165,148.85,0.02015,0,9.8221,1.1084,0,0,0,18491,6.603,NaN,199.76,NaN,0.025862,1612743,2931.2,0.056996,0.79956,0.14468,0.56005,0.11942,0.12009,NaN,NaN,NaN,NaN,NaN,1.3963,101324
0.072,0.12504,5.6142,149.74,0.022048,0,9.8221,1.0786,0,0,0,18487,6.6025,NaN,199.75,NaN,0.026264,1637805,2947.2,0.069048,0.79793,0.16995,0.55842,0.11942,0.12009,NaN,NaN,NaN,NaN,NaN,1.3963,101324
0.074,0.13639,5.9137,150.63,0.02405,0,9.8221,1.0495,0,0,0,18483,6.602,NaN,199.75,NaN,0.026691,1664441,2963.1,0.082486,0.79623,0.19658,0.55671,0.11942,0.12009,NaN,NaN,NaN,NaN,NaN,1.3963,101323
0.076,0.14834,6.2151,151.53,0.026156,0,9.8221,1.0212,0,0,0,18480,6.6016,NaN,199.75,NaN,0.027143,1692608,2979,0.097337,0.79447,0.22431,0.55495,0.11942,0.1201,NaN,NaN,NaN,NaN,NaN,1.3963,101323
0.078,0.16088,6.5182,152.42,0.028367,0,9.8221,0.99371,0,0,0,18476,6.6011,NaN,199.74,NaN,0.027618,1722262,2994.9,0.11362,0.79266,0.2529,0.55314,0.11943,0.1201,NaN,NaN,NaN,NaN,NaN,1.3963,101323
0.08,0.17402,6.8231,153.31,0.030684,0,9.8221,0.96701,0,0,0,18473,6.6007,NaN,199.74,NaN,0.028117,1753360,3010.8,0.13136,0.79081,0.2821,0.55128,0.11943,0.1201,NaN,NaN,NaN,NaN,NaN,1.3963,101323
0.082,0.18776,7.1297,154.2,0.033107,0,9.8221,0.94111,0,0,0,18469,6.6002,NaN,199.73,NaN,0.028638,1785855,3026.8,0.15056,0.78892,0.31167,0.54938,0.11943,0.12011,NaN,NaN,NaN,NaN,NaN,1.3963,101323
0.084,0.2021,7.4382,155.1,0.035636,0,9.8221,0.91601,0,0,0,18465,6.5997,NaN,199.73,NaN,0.029181,1819705,3042.7,0.17122,0.78699,0.34138,0.54745,0.11943,0.12011,NaN,NaN,NaN,NaN,NaN,1.3963,101323
0.086,0.21706,7.7484,155.99,0.038274,0,9.8221,0.8917,0,0,0,18462,6.5993,NaN,199.73,NaN,0.029745,1854864,3058.6,0.19336,0.78504,0.37104,0.54549,0.11943,0.12012,NaN,NaN,NaN,NaN,NaN,1.3963,101322
0.088,0.23263,8.0605,156.88,0.041019,0,9.8221,0.86818,0,0,0,18458,6.5988,NaN,199.72,NaN,0.030329,1891289,3074.5,0.21696,0.78307,0.40045,0.54351,0.11944,0.12012,NaN,NaN,NaN,NaN,NaN,1.3963,101322
0.09,0.24881,8.3743,157.78,0.043873,0,9.8221,0.84543,0,0,0,18455,6.5983,NaN,199.72,NaN,0.030933,1928938,3090.4,0.24204,0.78108,0.42947,0.54152,0.11944,0.12012,NaN,NaN,NaN,NaN,NaN,1.3963,101322
0.092,0.26562,8.6899,158.67,0.046836,0,9.8221,0.82344,0,0,0,18451,6.5979,NaN,199.71,NaN,0.031555,1967769,3106.4,0.26858,0.77908,0.45793,0.53951,0.11944,0.12013,NaN,NaN,NaN,NaN,NaN,1.3963,101322
0.094,0.28305,9.0073,159.56,0.049909,0,9.8221,0.8022,0,0,0,18447,6.5974,NaN,199.71,NaN,0.032196,2007742,3122.3,0.29657,0.77707,0.48573,0.5375,0.11944,0.12013,NaN,NaN,NaN,NaN,NaN,1.3963,101322
0.096,0.3011,9.3265,160.46,0.053092,0,9.8221,0.78168,0,0,0,18444,6.5969,NaN,199.71,NaN,0.032855,2048817,3138.2,0.32601,0.77507,0.51275,0.53548,0.11945,0.12014,NaN,NaN,NaN,NaN,NaN,1.3963,101321
0.098,0.31979,9.6474,161.35,0.056387,0,9.8221,0.76187,0,0,0,18440,6.5965,NaN,199.7,NaN,0.033531,2090958,3154.1,0.35689,0.77306,0.53892,0.53346,0.11945,0.12015,NaN,NaN,NaN,NaN,NaN,1.3963,101321
0.1,0.33911,9.9702,162.25,0.059794,0,9.8221,0.74274,0,0,0,18437,6.596,NaN,199.7,NaN,0.034223,2134129,3170,0.3892,0.77106,0.56417,0.53145,0.11945,0.12015,NaN,NaN,NaN,NaN,NaN,1.3963,101321
0.102,0.35906,10.295,163.14,0.063313,0,9.8221,0.72428,0,0,0,18433,6.5955,NaN,199.69,NaN,0.034932,2178295,3186,0.42292,0.76906,0.58845,0.52945,0.11945,0.12016,NaN,NaN,NaN,NaN,NaN,1.3963,101321
0.104,0.37966,10.621,164.04,0.066945,0,9.8221,0.70646,0,0,0,18429,6.5951,NaN,199.69,NaN,0.035655,2223422,3201.9,0.45805,0.76707,0.61171,0.52745,0.11946,0.12017,NaN,NaN,NaN,NaN,NaN,1.3963,101321
0.106,0.40091,10.949,164.94,0.07069,0,9.8221,0.68927,0,0,0,18426,6.5946,NaN,199.69,NaN,0.036394,2269481,3217.8,0.49457,0.7651,0.63394,0.52547,0.11946,0.12017,NaN,NaN,NaN,NaN,NaN,1.3963,101320
0.108,0.4228,11.279,165.83,0.07455,0,9.8221,0.67267,0,0,0,18422,6.5942,NaN,199.68,NaN,0.037147,2316440,3233.7,0.53246,0.76314,0.65513,0.52349,0.11946,0.12018,NaN,NaN,NaN,NaN,NaN,1.3963,101320
0.11,0.44534,11.611,166.73,0.078525,0,9.8221,0.65666,0,0,0,18419,6.5937,NaN,199.68,NaN,0.037914,2364271,3249.6,0.57172,0.76119,0.67526,0.52154,0.11947,0.12019,NaN,NaN,NaN,NaN,NaN,1.3963,101320
0.112,0.46854,11.944,167.63,0.082615,0,9.8221,0.6412,0,0,0,18415,6.5932,NaN,199.67,NaN,0.038695,2412948,3265.5,0.61234,0.75926,0.69435,0.5196,0.11947,0.12019,NaN,NaN,NaN,NaN,NaN,1.3963,101320
0.114,0.49239,12.28,168.52,0.086822,0,9.8221,0.62628,0,0,0,18411,6.5928,NaN,199.67,NaN,0.039489,2462445,3281.5,0.6543,0.75735,0.7124,0.51767,0.11948,0.1202,NaN,NaN,NaN,NaN,NaN,1.3963,101319
0.116,0.51691,12.617,169.44,0.091145,0,9.8221,0.61187,0,0,0,18408,6.5923,186.79,199.66,-1.2521,0.040295,2512737,3301.4,0.69759,0.75546,0.72943,0.51577,0.11948,0.12021,19.957,-53.138,3.1515e-4,0,0,1.3963,101319
0.119,0.55493,13.126,171,0.097863,0,9.8221,0.59071,0,-0.022429,0,18403,6.5917,187.27,199.66,-1.2056,0.041515,2588755,3331.2,0.76512,0.75269,0.75375,0.51298,0.11949,0.12022,19.24,-48.843,2.5067e-5,0,-2.8383e-4,1.3963,101318
0.1235,0.6148,13.897,173.33,0.10848,0,9.8221,0.56095,0,-0.054993,7.6219e-8,18396,6.5908,187.98,199.65,-1.1353,0.043394,2705948,3376,0.87184,0.74862,0.78609,0.50888,0.1195,0.12024,18.252,-42.898,-7.9733e-6,0,-0.0015618,1.3962,101318
0.13025,0.71104,15.07,176.83,0.12566,0,9.8221,0.52038,0.0012814,-0.10117,4.3739e-7,18386,6.5895,189.05,199.64,-1.0299,0.046321,2888411,3442.7,1.0439,0.74272,0.82603,0.50293,0.11951,0.12028,16.947,-35,3.5189e-5,0,-0.0046393,1.3962,101317
0.14025,0.86808,16.845,179.31,0.15391,0,9.8221,0.46806,0.12137,-0.16288,7.2176e-6,18371,6.5876,190.62,199.62,-0.87577,0.050873,3172212,3472.7,1.3242,0.73443,0.86879,0.49455,0.11954,0.12034,15.347,-25.236,-4.2036e-4,0,-0.0099683,1.396,101315
0.15025,1.0427,18.639,177.54,0.18555,0,9.8221,0.42402,0.48817,-0.2153,6.5668e-5,18353,6.5852,192.12,199.6,-0.72822,0.055591,3466390,3443.1,1.6298,0.72678,0.89548,0.48681,0.11957,0.1204,14.085,-17.447,-4.5637e-4,0,-0.014586,1.3958,101313
0.15685,1.1675,19.814,176.72,0.20831,0,9.8221,0.39905,0.88653,-0.24416,1.7434e-4,18337,6.5832,193.04,199.58,-0.63629,0.058729,3662013,3422.6,1.8408,0.72215,0.90623,0.48211,0.1196,0.12045,13.407,-13.223,-4.5936e-4,0,-0.016808,1.3957,101311
0.16158,1.2616,20.65,176.08,0.22552,0,9.8221,0.38284,1.2372,-0.26179,3.0717e-4,18326,6.5818,193.68,199.57,-0.57335,0.060984,3802572,3406.6,1.9961,0.71901,0.91134,0.47892,0.11961,0.12048,12.983,-10.563,-3.031e-4,0.13619,-0.017921,1.3956,101310
0.16572,1.3472,21.38,175.4,0.24122,0,9.8221,0.36965,1.5962,-0.27504,4.7181e-4,18318,6.5807,194.21,199.56,-0.52021,0.062963,3925932,3392.6,2.1347,0.71638,0.91435,0.47624,0.11963,0.12052,12.648,-8.4499,-3.647e-4,0.17021,-0.018556,1.3954,101309
0.16931,1.4237,22.009,174.81,0.25529,0,9.8221,0.35891,1.9493,-0.28477,6.5777e-4,18310,6.5797,194.67,199.55,-0.47559,0.064678,4032840,3380.4,2.2567,0.71419,0.91601,0.474,0.11964,0.12054,12.381,-6.7647,4.2637e-4,0.20237,-0.018852,1.3953,101308
0.17251,1.4939,22.57,174.28,0.26823,8.0072e-9,9.8221,0.34982,2.2988,-0.29207,8.6318e-4,18304,6.5789,195.06,199.55,-0.43681,0.06621,4128400,3369.3,2.3671,0.71229,0.91685,0.47206,0.11965,0.12057,12.16,-5.3608,-4.4287e-4,0.23315,-0.018922,1.3952,101307
0.17543,1.5595,23.079,173.78,0.28033,1.2353e-8,9.8221,0.34192,2.6386,-0.29783,0.0010857,18298,6.5781,195.4,199.54,-0.40233,0.067608,4215507,3358.9,2.4688,0.71061,0.91713,0.47035,0.11967,0.12059,11.819,-4.7364,2.1868e-4,0.2621,-0.018872,1.3952,101307
0.17825,1.6242,23.569,173.29,0.29229,1.8299e-8,9.8221,0.33461,2.9766,-0.30301,0.0013345,18293,6.5774,195.73,199.53,-0.36982,0.068958,4299635,3348.9,2.568,0.70902,0.91703,0.46873,0.11968,0.12062,11.492,-4.2314,4.6311e-4,0.28992,-0.018777,1.3951,101306
0.181,1.6885,24.045,172.8,0.30418,2.6239e-8,9.8221,0.32779,3.3144,-0.30768,0.00161,18287,6.5767,196.04,199.53,-0.33891,0.070269,4381415,3339.1,2.6654,0.70752,0.9166,0.46719,0.11969,0.12064,11.19,-3.7741,3.0737e-5,0.31682,-0.018644,1.395,101305
0.18367,1.7523,24.507,172.33,0.316,3.6585e-8,9.8221,0.3214,3.652,-0.31188,0.0019115,18282,6.5761,196.34,199.52,-0.30947,0.071547,4461026,3329.5,2.7611,0.7061,0.91591,0.46573,0.1197,0.12067,10.909,-3.3573,-1.0166e-4,0.34289,-0.018479,1.3949,101304
0.18628,1.8156,24.956,171.86,0.32777,4.9791e-8,9.8221,0.31541,3.9893,-0.31566,0.0022383,18277,6.5754,196.62,199.52,-0.28137,0.072792,4538627,3320.2,2.8551,0.70474,0.915,0.46434,0.11971,0.12069,10.647,-2.977,-1.5088e-4,0.36819,-0.018287,1.3948,101304
0.18882,1.8786,25.394,171.41,0.33948,6.6345e-8,9.8221,0.30976,4.3264,-0.31903,0.0025895,18272,6.5748,196.89,199.51,-0.25449,0.074007,4614360,3311.1,2.9477,0.70344,0.91391,0.46301,0.11972,0.12071,10.402,-2.6295,-3.8466e-4,0.39278,-0.018071,1.3947,101303
0.19131,1.9413,25.82,170.97,0.35114,8.6771e-8,9.8221,0.30443,4.6634,-0.32203,0.0029642,18268,6.5742,197.15,199.5,-0.22873,0.075194,4688354,3302.2,3.0389,0.7022,0.91266,0.46173,0.11973,0.12074,10.173,-2.3094,3.9416e-4,0.41673,-0.017836,1.3946,101302
0.19375,2.0037,26.237,170.53,0.36275,1.1163e-7,9.8221,0.29939,5.0001,-0.32468,0.0033622,18263,6.5736,197.4,199.5,-0.20402,0.076355,4760721,3293.5,3.1287,0.70102,0.9113,0.46051,0.11975,0.12076,9.9572,-2.0138,-2.1219e-4,0.44006,-0.017584,1.3946,101302
0.19614,2.0657,26.644,170.1,0.37433,1.4151e-7,9.8221,0.29461,5.3367,-0.327,0.0037825,18258,6.573,197.64,199.49,-0.18026,0.077492,4831565,3285,3.2173,0.69987,0.90981,0.45934,0.11976,0.12078,9.754,-1.7409,4.6845e-4,0.46284,-0.017317,1.3945,101301
0.19848,2.1275,27.043,169.69,0.38587,1.7705e-7,9.8221,0.29006,5.6732,-0.32902,0.0042243,18254,6.5724,197.87,199.49,-0.1574,0.078605,4900980,3276.6,3.3042,0.69878,0.9081,0.45821,0.11977,0.1208,9.5621,-1.4883,1.1894e-4,0.48509,-0.017038,1.3944,101300
0.20078,2.1891,27.433,169.27,0.39737,2.1889e-7,9.8221,0.28573,6.0095,-0.33074,0.0046869,18249,6.5718,198.09,199.48,-0.13536,0.079698,4969051,3268.4,3.3895,0.69772,0.9062,0.45712,0.11978,0.12083,9.3805,-1.2535,4.4992e-4,0.50685,-0.016748,1.3943,101299
0.20304,2.2505,27.816,168.87,0.40885,2.6773e-7,9.8221,0.2816,6.3457,-0.3322,0.0051701,18245,6.5712,198.31,199.48,-0.1141,0.080769,5035856,3260.3,3.4734,0.6967,0.90415,0.45607,0.11979,0.12085,9.2082,-1.0343,3.4424e-4,0.52815,-0.01645,1.3942,101299
0.20526,2.3116,28.191,168.47,0.4203,3.2428e-7,9.8221,0.27765,6.6817,-0.33339,0.0056731,18241,6.5707,198.51,199.47,-0.093553,0.081822,5101465,3252.3,3.5559,0.69572,0.90197,0.45505,0.1198,0.12087,9.0444,-0.83016,4.2944e-4,0.54901,-0.016145,1.3942,101298
0.20744,2.3726,28.559,168.08,0.43173,3.8928e-7,9.8221,0.27387,7.0177,-0.33433,0.006195,18237,6.5702,198.71,199.47,-0.073682,0.082857,5165943,3244.5,3.6372,0.69477,0.89969,0.45407,0.11981,0.12089,8.8886,-0.63897,-3.7106e-4,0.56946,-0.015834,1.3941,101297
0.2096,2.4334,28.921,167.69,0.44314,4.6353e-7,9.8221,0.27025,7.3535,-0.33504,0.0067356,18233,6.5696,198.9,199.46,-0.054444,0.083874,5229351,3236.7,3.7173,0.69385,0.89734,0.45312,0.11982,0.12091,8.74,-0.46064,4.9297e-4,0.58953,-0.015518,1.394,101296
0.21172,2.494,29.277,167.31,0.45452,5.4781e-7,9.8221,0.26678,7.6893,-0.33553,0.0072938,18228,6.5691,199.09,199.46,-0.035799,0.084875,5291743,3229.1,3.7963,0.69297,0.89494,0.4522,0.11983,0.12094,8.5982,-0.29267,3.5982e-4,0.60922,-0.015198,1.3939,101296
0.21381,2.5545,29.626,166.93,0.4659,6.4296e-7,9.8221,0.26344,8.0249,-0.3358,0.0078689,18224,6.5686,199.27,199.46,-0.017712,0.085861,5353172,3221.6,3.8743,0.6921,0.89249,0.4513,0.11984,0.12096,8.4625,-0.13505,-3.5178e-4,0.62857,-0.014875,1.3939,101295
0.21587,2.6149,29.971,166.56,0.47726,7.4985e-7,9.8221,0.26022,8.3605,-0.33587,0.0084611,18221,6.5681,199.45,199.45,-1.5204e-4,0.086832,5413683,3214.2,3.9514,0.69127,0.89001,0.45043,0.11985,0.12098,8.3326,0.013196,-1.6826e-4,0.64759,-0.01455,1.3938,101294
0.2179,2.6752,30.31,166.19,0.48861,8.6935e-7,9.8221,0.25713,8.6959,-0.33573,0.0090693,18217,6.5676,199.62,199.45,0.016912,0.087789,5473321,3206.9,4.0277,0.69045,0.88752,0.44959,0.11986,0.121,8.208,0.15267,-1.0416e-4,0.66628,-0.014223,1.3937,101294
0.21991,2.7354,30.644,165.83,0.49995,1.0024e-6,9.8221,0.25414,9.0313,-0.33541,0.0096927,18213,6.5671,199.79,199.44,0.033506,0.088733,5532127,3199.7,4.1031,0.68966,0.88501,0.44877,0.11987,0.12102,8.0884,0.28537,3.2851e-4,0.68468,-0.013895,1.3936,101293
0.2219,2.7955,30.973,165.47,0.51129,1.1499e-6,9.8221,0.25126,9.3666,-0.33491,0.010331,18209,6.5666,199.95,199.44,0.049657,0.089664,5590139,3192.6,4.1777,0.6889,0.8825,0.44797,0.11988,0.12105,7.9735,0.40992,-5.4861e-5,0.70279,-0.013567,1.3936,101292
0.22386,2.8555,31.298,165.27,0.52262,1.3128e-6,9.8221,0.24848,9.7019,-0.33423,0.010983,18205,6.5661,200.11,199.43,0.065386,0.090583,5647393,3188.3,4.2517,0.68815,0.88,0.44719,0.11989,0.12107,7.8629,0.52771,9.8461e-5,0.72062,-0.01324,1.3935,101292
0.2258,2.9155,31.618,165.26,0.53395,1.4922e-6,9.8221,0.24578,10.037,-0.33338,0.01165,18202,6.5656,200.26,199.43,0.080719,0.091491,5703973,3187.6,4.325,0.68742,0.8775,0.44642,0.11991,0.12109,7.7563,0.63883,7.438e-5,0.73818,-0.012912,1.3934,101291
0.22772,2.9754,31.935,165.26,0.54527,1.6891e-6,9.8221,0.24317,10.372,-0.33236,0.012329,18198,6.5651,200.41,199.42,0.095689,0.092389,5.76e6,3186.9,4.3979,0.68671,0.87502,0.44568,0.11992,0.12111,7.6533,0.74474,-2.7559e-4,0.75547,-0.012585,1.3934,101290
0.22962,3.0353,32.249,165.25,0.5566,1.9045e-6,9.8221,0.24063,10.707,-0.33119,0.013022,18195,6.5647,200.55,199.42,0.11032,0.093279,5815420,3186.2,4.4703,0.68601,0.87254,0.44495,0.11993,0.12113,7.5538,0.84581,-3.6446e-4,0.7725,-0.012259,1.3933,101289
0.2315,3.0951,32.56,165.24,0.56793,2.1396e-6,9.8221,0.23816,11.042,-0.32986,0.013725,18191,6.5643,200.7,199.42,0.12464,0.09416,5870333,3185.5,4.5422,0.68533,0.87007,0.44424,0.11994,0.12115,7.4575,0.94138,3.8827e-4,0.78928,-0.011934,1.3932,101289
0.23336,3.1549,32.867,165.23,0.57926,2.3955e-6,9.8221,0.23577,11.377,-0.32838,0.01444,18188,6.5638,200.84,199.41,0.13864,0.095033,5924734,3184.9,4.6138,0.68466,0.86763,0.44354,0.11995,0.12117,7.3642,1.0324,-2.9635e-4,0.80582,-0.011611,1.3932,101288
0.2352,3.2147,33.172,165.23,0.59059,2.6733e-6,9.8221,0.23344,11.712,-0.32675,0.015166,18185,6.5634,200.98,199.41,0.15236,0.095899,5978642,3184.2,4.685,0.68401,0.8652,0.44286,0.11996,0.1212,7.2739,1.1191,-4.6992e-4,0.82212,-0.01129,1.3931,101287
0.23703,3.2745,33.474,165.22,0.60193,2.9743e-6,9.8221,0.23117,12.047,-0.32498,0.015903,18181,6.563,201.11,199.41,0.16579,0.096756,6032076,3183.6,4.7559,0.68337,0.8628,0.44219,0.11997,0.12122,7.1862,1.2025,3.7062e-4,0.8382,-0.010971,1.393,101287
0.23884,3.3342,33.772,165.21,0.61328,3.2996e-6,9.8221,0.22896,12.382,-0.32307,0.016649,18178,6.5625,201.24,199.4,0.17895,0.097607,6085053,3182.9,4.8265,0.68275,0.86042,0.44153,0.11998,0.12124,7.1012,1.2817,4.0167e-4,0.85407,-0.010655,1.393,101286
0.24063,3.394,34.069,165.21,0.62463,3.6505e-6,9.8221,0.22681,12.717,-0.32103,0.017403,18175,6.5621,201.37,199.4,0.19186,0.09845,6137591,3182.3,4.8967,0.68213,0.85806,0.44088,0.11999,0.12126,7.0186,1.3573,1.8367e-4,0.86972,-0.010341,1.3929,101285
0.24241,3.4538,34.363,165.2,0.636,4.0282e-6,9.8221,0.22472,13.051,-0.31885,0.018166,18172,6.5617,201.5,199.39,0.20451,0.099286,6189705,3181.7,4.9667,0.68153,0.85572,0.44025,0.12,0.12128,6.9384,1.4288,1.4806e-5,0.88517,-0.01003,1.3929,101284
0.24417,3.5136,34.654,165.19,0.64737,4.434e-6,9.8221,0.22267,13.386,-0.31655,0.018936,18168,6.5613,201.62,199.39,0.21693,0.10012,6241411,3181.1,5.0364,0.68094,0.85341,0.43963,0.12001,0.1213,6.8605,1.4978,2.2823e-4,0.90042,-0.009722,1.3928,101284
0.24592,3.5733,34.943,165.18,0.65875,4.8693e-6,9.8221,0.22067,13.721,-0.31411,0.019714,18165,6.5609,201.74,199.39,0.22912,0.10094,6292722,3180.4,5.1059,0.68036,0.85113,0.43902,0.12002,0.12132,6.7846,1.5642,-1.6147e-5,0.91547,-0.0094175,1.3928,101283
0.24766,3.6332,35.23,165.18,0.67014,5.3353e-6,9.8221,0.21872,14.055,-0.31155,0.020498,18162,6.5605,201.86,199.38,0.24109,0.10176,6343654,3179.8,5.1752,0.67979,0.84887,0.43842,0.12003,0.12135,6.7108,1.6266,3.5533e-4,0.93034,-0.0091165,1.3927,101282
0.24938,3.693,35.514,165.17,0.68155,5.8335e-6,9.8221,0.21682,14.39,-0.30888,0.021288,18159,6.56,201.98,199.38,0.25285,0.10257,6394218,3179.2,5.2442,0.67924,0.84664,0.43783,0.12004,0.12137,6.6389,1.6876,-2.3701e-4,0.94503,-0.0088191,1.3926,101282
0.25109,3.7529,35.796,165.16,0.69296,6.3652e-6,9.8221,0.21496,14.724,-0.30608,0.022084,18156,6.5596,202.09,199.38,0.2644,0.10337,6444428,3178.6,5.313,0.67869,0.84444,0.43725,0.12005,0.12139,6.5688,1.7453,5.3666e-5,0.95955,-0.0085255,1.3926,101281
0.25279,3.8128,36.077,165.16,0.7044,6.9318e-6,9.8221,0.21314,15.059,-0.30316,0.022885,18153,6.5592,202.21,199.37,0.27575,0.10418,6494295,3178,5.3817,0.67815,0.84227,0.43668,0.12006,0.12141,6.5005,1.8006,-2.2202e-4,0.97389,-0.0082358,1.3925,101280
0.25447,3.8727,36.355,165.15,0.71584,7.5349e-6,9.8221,0.21136,15.393,-0.30013,0.023689,18150,6.5588,202.32,199.37,0.28692,0.10497,6543832,3177.4,5.4502,0.67762,0.84012,0.43611,0.12007,0.12143,6.4339,1.8539,-5.3393e-4,0.98806,-0.0079501,1.3925,101280
0.25615,3.9327,36.632,165.14,0.72731,8.1758e-6,9.8221,0.20961,15.728,-0.29698,0.024498,18147,6.5585,202.43,199.37,0.29791,0.10576,6593048,3176.8,5.5185,0.6771,0.838,0.43556,0.12008,0.12145,6.3689,1.9047,-4.7594e-5,1.0021,-0.0076685,1.3924,101279
0.25781,3.9928,36.906,165.14,0.73878,8.856e-6,9.8221,0.20791,16.062,-0.29373,0.025309,18144,6.5581,202.54,199.36,0.30871,0.10655,6641956,3176.2,5.5867,0.67659,0.8359,0.43502,0.12009,0.12148,6.3055,1.9544,5.0535e-5,1.0159,-0.0073912,1.3924,101278
0.25946,4.0529,37.179,165.13,0.75028,9.5772e-6,9.8221,0.20624,16.397,-0.29036,0.026123,18141,6.5577,202.64,199.36,0.31935,0.10733,6690564,3175.6,5.6548,0.67608,0.83383,0.43448,0.1201,0.1215,6.2435,2.0014,1.2851e-4,1.0296,-0.0071181,1.3923,101277
0.2611,4.1131,37.45,165.12,0.76179,1.0341e-5,9.8221,0.2046,16.731,-0.28689,0.026939,18138,6.5573,202.75,199.35,0.32982,0.1081,6738882,3175.1,5.7227,0.67559,0.83179,0.43395,0.12011,0.12152,6.183,2.0461,3.8581e-4,1.0432,-0.0068495,1.3923,101277
0.26273,4.1733,37.72,165.12,0.77333,1.1148e-5,9.8221,0.20299,17.065,-0.28331,0.027756,18135,6.5569,202.85,199.35,0.34013,0.10887,6786921,3174.5,5.7906,0.6751,0.82978,0.43343,0.12013,0.12154,6.1238,2.0892,-1.1748e-4,1.0566,-0.0065853,1.3922,101276
0.26436,4.2336,37.987,165.11,0.78488,1.2001e-5,9.8221,0.20142,17.4,-0.27962,0.028573,18132,6.5565,202.95,199.35,0.35029,0.10964,6834688,3173.9,5.8583,0.67462,0.82779,0.43292,0.12014,0.12156,6.066,2.1317,-3.7848e-4,1.0698,-0.0063257,1.3922,101275
0.26597,4.294,38.254,165.1,0.79645,1.2902e-5,9.8221,0.19988,17.734,-0.27583,0.029391,18129,6.5561,203.05,199.34,0.3603,0.1104,6882193,3173.3,5.9259,0.67414,0.82582,0.43241,0.12015,0.12158,6.0093,2.1716,2.3452e-4,1.0829,-0.0060707,1.3921,101275
0.26757,4.3544,38.518,165.09,0.80805,1.3851e-5,9.8221,0.19836,18.068,-0.27194,0.030207,18126,6.5558,203.15,199.34,0.37017,0.11116,6929444,3172.8,5.9935,0.67367,0.82388,0.43191,0.12016,0.12161,5.9539,2.2094,7.2737e-5,1.0959,-0.0058204,1.3921,101274
0.26917,4.415,38.782,165.09,0.81966,1.4851e-5,9.8221,0.19687,18.403,-0.26795,0.031022,18123,6.5554,203.24,199.34,0.3799,0.11192,6976449,3172.2,6.061,0.67321,0.82197,0.43142,0.12017,0.12163,5.8997,2.2471,-2.4715e-4,1.1088,-0.0055748,1.392,101273
0.27075,4.4756,39.044,165.08,0.8313,1.5903e-5,9.8221,0.19541,18.737,-0.26386,0.031836,18120,6.555,203.34,199.33,0.38949,0.11267,7023215,3171.6,6.1285,0.67276,0.82008,0.43093,0.12018,0.12165,5.8466,2.2828,-5.4078e-4,1.1215,-0.0053341,1.392,101273
0.27233,4.5363,39.304,165.07,0.84296,1.7009e-5,9.8221,0.19398,19.071,-0.25967,0.032647,18117,6.5546,203.43,199.33,0.39895,0.11341,7069750,3171.1,6.1958,0.67231,0.81822,0.43045,0.12019,0.12167,5.7945,2.3166,-4.4698e-4,1.134,-0.0050982,1.392,101272
0.2739,4.5971,39.563,165.07,0.85465,1.817e-5,9.8221,0.19257,19.405,-0.25538,0.033455,18115,6.5543,203.52,199.33,0.40829,0.11416,7116061,3170.5,6.2632,0.67187,0.81638,0.42998,0.1202,0.12169,5.7435,2.3501,2.8907e-4,1.1465,-0.0048672,1.3919,101271
0.27546,4.658,39.821,165.06,0.86636,1.9389e-5,9.8221,0.19119,19.739,-0.251,0.034259,18112,6.5539,203.62,199.32,0.4175,0.1149,7162155,3170,6.3305,0.67144,0.81456,0.42951,0.12021,0.12172,5.6935,2.3814,-3.0879e-4,1.1588,-0.0046412,1.3919,101270
0.27702,4.719,40.078,165.05,0.87809,2.0668e-5,9.8221,0.18982,20.073,-0.24652,0.035059,18109,6.5535,203.71,199.32,0.42659,0.11563,7208039,3169.4,6.3977,0.67101,0.81276,0.42905,0.12022,0.12174,5.6445,2.4127,-1.1304e-4,1.171,-0.0044202,1.3918,101270
0.27857,4.7801,40.333,165.05,0.88985,2.2007e-5,9.8221,0.18849,20.407,-0.24195,0.035853,18106,6.5532,203.8,199.32,0.43557,0.11637,7253720,3168.9,6.465,0.67058,0.81099,0.42859,0.12023,0.12176,5.5964,2.4423,-5.4776e-4,1.1831,-0.0042042,1.3918,101269
0.28011,4.8413,40.588,165.04,0.90164,2.341e-5,9.8221,0.18717,20.742,-0.23728,0.036641,18103,6.5528,203.88,199.31,0.44444,0.1171,7299202,3168.3,6.5322,0.67017,0.80924,0.42814,0.12024,0.12178,5.5491,2.4703,-4.3307e-4,1.1951,-0.0039932,1.3917,101268
0.28164,4.9026,40.841,165.03,0.91345,2.4877e-5,9.8221,0.18587,21.076,-0.23252,0.037423,18101,6.5525,203.97,199.31,0.4532,0.11782,7344493,3167.8,6.5994,0.66975,0.80752,0.42769,0.12025,0.1218,5.5028,2.4979,3.2103e-5,1.207,-0.0037874,1.3917,101268
0.28317,4.9641,41.093,165.03,0.92529,2.6412e-5,9.8221,0.1846,21.41,-0.22767,0.038197,18098,6.5521,204.06,199.31,0.46185,0.11855,7389599,3167.2,6.6667,0.66934,0.80581,0.42725,0.12026,0.12183,5.4573,2.5243,-5.5037e-4,1.2187,-0.0035868,1.3917,101267
0.28469,5.0256,41.344,165.02,0.93716,2.8014e-5,9.8221,0.18334,21.744,-0.22272,0.038964,18095,6.5517,204.14,199.3,0.4704,0.11927,7434524,3166.7,6.7339,0.66894,0.80413,0.42682,0.12027,0.12185,5.4126,2.5498,1.15e-4,1.2303,-0.0033913,1.3916,101266
0.2862,5.0873,41.594,165.01,0.94906,2.9688e-5,9.8221,0.18211,22.078,-0.21769,0.039722,18092,6.5514,204.22,199.3,0.47885,0.11999,7479275,3166.2,6.8011,0.66854,0.80246,0.42639,0.12029,0.12187,5.3687,2.574,-5.7585e-4,1.2419,-0.003201,1.3916,101265
0.28771,5.1491,41.843,165.01,0.96098,3.1434e-5,9.8221,0.18089,22.412,-0.21256,0.040471,18090,6.551,204.31,199.3,0.4872,0.1207,7523857,3165.6,6.8684,0.66815,0.80082,0.42596,0.1203,0.12189,5.3255,2.5981,-1.5503e-4,1.2533,-0.003016,1.3916,101265
0.28921,5.211,42.091,165,0.97294,3.3255e-5,9.8221,0.17969,22.746,-0.20735,0.04121,18087,6.5507,204.39,199.3,0.49546,0.12142,7568274,3165.1,6.9356,0.66776,0.79919,0.42554,0.12031,0.12192,5.2831,2.6199,-2.4557e-4,1.2646,-0.0028363,1.3915,101264
0.29071,5.2731,42.338,164.99,0.98493,3.5153e-5,9.8221,0.17851,23.08,-0.20205,0.041938,18084,6.5503,204.47,199.29,0.50363,0.12213,7612533,3164.6,7.0029,0.66738,0.79759,0.42512,0.12032,0.12194,5.2414,2.6421,-3.0803e-4,1.2758,-0.0026618,1.3915,101263
0.2922,5.3352,42.584,164.99,0.99695,3.7129e-5,9.8221,0.17734,23.414,-0.19666,0.042655,18082,6.55,204.55,199.29,0.5117,0.12284,7656637,3164,7.0703,0.667,0.79601,0.42471,0.12033,0.12196,5.2004,2.6636,-1.6994e-4,1.2869,-0.0024927,1.3915,101262
0.29369,5.3976,42.829,164.98,1.009,3.9186e-5,9.8221,0.1762,23.747,-0.19118,0.043359,18079,6.5496,204.63,199.29,0.5197,0.12354,7700592,3163.5,7.1376,0.66663,0.79444,0.4243,0.12034,0.12198,5.16,2.6842,-2.8745e-4,1.2979,-0.0023289,1.3914,101262
0.29517,5.46,43.073,164.97,1.0211,4.1326e-5,9.8221,0.17506,24.081,-0.18561,0.044051,18076,6.5493,204.71,199.28,0.5276,0.12425,7744402,3163,7.205,0.66626,0.79289,0.4239,0.12035,0.12201,5.1203,2.7032,-4.3823e-4,1.3089,-0.0021705,1.3914,101261
0.29665,5.5226,43.317,164.97,1.0332,4.3551e-5,9.8221,0.17395,24.415,-0.17996,0.04473,18074,6.5489,204.78,199.28,0.53543,0.12495,7788071,3162.5,7.2725,0.66589,0.79136,0.4235,0.12036,0.12203,5.0812,2.7231,-2.9499e-4,1.3197,-0.0020175,1.3914,101260
0.29812,5.5854,43.56,164.96,1.0453,4.5864e-5,9.8221,0.17284,24.749,-0.17422,0.045394,18071,6.5486,204.86,199.28,0.54318,0.12565,7831605,3161.9,7.34,0.66553,0.78985,0.4231,0.12037,0.12205,5.0427,2.7407,-7.8685e-5,1.3304,-0.0018699,1.3914,101259
0.29958,5.6483,43.801,164.95,1.0575,4.8266e-5,9.8221,0.17176,25.083,-0.1684,0.046043,18068,6.5482,204.94,199.27,0.55085,0.12634,7875006,3161.4,7.4076,0.66517,0.78836,0.42271,0.12038,0.12208,5.0048,2.759,-2.4085e-4,1.341,-0.0017278,1.3913,101259
0.30105,5.7113,44.043,164.95,1.0697,5.0759e-5,9.8221,0.17068,25.417,-0.16249,0.046676,18066,6.5479,205.01,199.27,0.55844,0.12704,7918279,3160.9,7.4773,0.665,0.7871,0.42251,0.1204,0.1221,4.9675,2.7758,1.2601e-4,1.3516,-0.0015911,1.3913,101258
0.3025,5.7745,44.283,164.94,1.082,5.3347e-5,9.8221,0.16962,25.751,-0.1565,0.047292,18063,6.5475,205.09,199.27,0.56596,0.12773,7961428,3160.4,7.5493,0.66503,0.78609,0.4225,0.12041,0.12212,4.9307,2.7923,-2.9952e-4,1.362,-0.0014599,1.3913,101257
0.30396,5.8379,44.523,164.93,1.0943,5.603e-5,9.8221,0.16858,26.084,-0.15042,0.047891,18060,6.5472,205.16,199.26,0.57341,0.12842,8004458,3159.9,7.6215,0.66506,0.78509,0.42249,0.12042,0.12214,4.8945,2.808,-3.2302e-5,1.3724,-0.0013342,1.3913,101257
0.30541,5.9014,44.762,164.93,1.1066,5.8812e-5,9.8221,0.16755,26.418,-0.14426,0.048473,18058,6.5469,205.23,199.26,0.58079,0.12911,8047371,3159.4,7.6937,0.66508,0.7841,0.42249,0.12043,0.12217,4.8588,2.8227,-7.1015e-5,1.3826,-0.0012141,1.3912,101256
0.30685,5.965,45,164.92,1.119,6.1694e-5,9.8221,0.16653,26.752,-0.13801,0.049035,18055,6.5465,205.3,199.26,0.5881,0.1298,8090171,3158.9,7.766,0.66511,0.78311,0.42248,0.12044,0.12219,4.8235,2.8381,-2.1369e-4,1.3928,-0.0010995,1.3912,101255
0.30829,6.0289,45.238,164.91,1.1314,6.468e-5,9.8221,0.16552,27.086,-0.13168,0.049578,18053,6.5462,205.38,199.25,0.59534,0.13048,8132862,3158.3,7.8385,0.66514,0.78214,0.42247,0.12045,0.12221,4.7888,2.852,1.525e-4,1.4029,-9.9045e-4,1.3912,101254
0.30973,6.0929,45.475,164.91,1.1438,6.7771e-5,9.8221,0.16452,27.42,-0.12527,0.050099,18050,6.5458,205.45,199.25,0.60252,0.13117,8175448,3157.8,7.9111,0.66516,0.78118,0.42246,0.12046,0.12224,4.7546,2.8654,-4.1206e-4,1.4129,-8.8701e-4,1.3912,101254
0.31117,6.1571,45.712,164.9,1.1563,7.0969e-5,9.8221,0.16354,27.753,-0.11877,0.050599,18047,6.5455,205.52,199.25,0.60964,0.13185,8217931,3157.3,7.9839,0.66519,0.78023,0.42246,0.12047,0.12226,4.7208,2.8793,-4.8551e-4,1.4229,-7.8917e-4,1.3912,101253
0.3126,6.2214,45.947,164.89,1.1688,7.4278e-5,9.8221,0.16256,28.087,-0.11219,0.051077,18045,6.5452,205.59,199.25,0.6167,0.13253,8260316,3156.8,8.0568,0.66522,0.77929,0.42245,0.12049,0.12228,4.6875,2.8912,-1.9256e-4,1.4327,-6.9697e-4,1.3911,101252
0.31402,6.286,46.183,164.89,1.1813,7.7699e-5,9.8221,0.1616,28.421,-0.10553,0.051532,18042,6.5448,205.65,199.24,0.6237,0.13321,8302605,3156.3,8.1298,0.66524,0.77836,0.42244,0.1205,0.12231,4.6546,2.9038,-3.8361e-4,1.4425,-6.1039e-4,1.3911,101251
0.31545,6.3507,46.418,164.88,1.1939,8.1235e-5,9.8221,0.16065,28.755,-0.09879,0.051962,18040,6.5445,205.72,199.24,0.63064,0.13389,8344802,3155.8,8.2029,0.66527,0.77744,0.42243,0.12051,0.12233,4.6222,2.9156,2.1556e-4,1.4522,-5.2948e-4,1.3911,101251
0.31687,6.4156,46.652,164.87,1.2066,8.4889e-5,9.8221,0.15971,29.088,-0.091965,0.052368,18037,6.5441,205.79,199.24,0.63752,0.13457,8386909,3155.3,8.2763,0.6653,0.77653,0.42243,0.12052,0.12235,4.5901,2.9264,-6.5393e-5,1.4618,-4.5425e-4,1.3911,101250
0.31828,6.4807,46.886,164.86,1.2192,8.8662e-5,9.8221,0.15878,29.422,-0.085059,0.052749,18035,6.5438,205.86,199.23,0.64435,0.13524,8428930,3154.8,8.3497,0.66533,0.77563,0.42242,0.12053,0.12238,4.5585,2.9377,-5.2941e-4,1.4713,-3.8472e-4,1.3911,101249
0.3197,6.5459,47.119,164.86,1.232,9.2558e-5,9.8221,0.15786,29.756,-0.078072,0.053103,18032,6.5435,205.92,199.23,0.65112,0.13591,8470868,3154.3,8.4233,0.66535,0.77474,0.42241,0.12054,0.1224,4.5273,2.9477,1.3184e-4,1.4807,-3.2091e-4,1.3911,101248
0.32111,6.6114,47.351,164.85,1.2447,9.6579e-5,9.8221,0.15695,30.089,-0.071003,0.05343,18029,6.5431,205.99,199.23,0.65784,0.13659,8512725,3153.8,8.4971,0.66538,0.77386,0.4224,0.12055,0.12243,4.4964,2.9583,-1.8541e-4,1.4901,-2.6282e-4,1.3911,101247
0.32252,6.677,47.584,164.84,1.2575,1.0073e-4,9.8221,0.15605,30.423,-0.063854,0.053727,18027,6.5428,206.06,199.22,0.66451,0.13726,8554504,3153.3,8.5711,0.66541,0.77298,0.42239,0.12057,0.12245,4.4659,2.9674,-2.3688e-4,1.4994,-2.1049e-4,1.391,101247
0.32393,6.7429,47.816,164.84,1.2703,1.05e-4,9.8221,0.15516,30.757,-0.056624,0.053996,18024,6.5425,206.12,199.22,0.67113,0.13793,8596209,3152.8,8.6452,0.66544,0.77212,0.42239,0.12058,0.12247,4.4358,2.977,-5.8587e-4,1.5086,-1.6392e-4,1.391,101246
0.32533,6.8089,48.047,164.83,1.2832,1.0942e-4,9.8221,0.15428,31.09,-0.049314,0.054235,18022,6.5422,206.19,199.22,0.6777,0.1386,8637842,3152.3,8.7195,0.66547,0.77126,0.42238,0.12059,0.1225,4.4061,2.9856,-1.2373e-4,1.5178,-1.2313e-4,1.391,101245
0.32673,6.8751,48.278,164.82,1.2962,1.1396e-4,9.8221,0.1534,31.424,-0.041922,0.054442,18019,6.5418,206.25,199.22,0.68422,0.13926,8679405,3151.8,8.7939,0.66549,0.77041,0.42237,0.1206,0.12252,4.3766,2.9947,-1.5451e-4,1.5269,-8.8133e-5,1.391,101244
0.32813,6.9416,48.509,164.82,1.3091,1.1864e-4,9.8221,0.15254,31.757,-0.034451,0.054617,18017,6.5415,206.31,199.21,0.6907,0.13993,8720901,3151.3,8.8686,0.66552,0.76957,0.42236,0.12061,0.12255,4.3476,3.0033,6.9507e-6,1.5359,-5.8951e-5,1.391,101244
0.32953,7.0082,48.739,164.81,1.3222,1.2347e-4,9.8221,0.15168,32.091,-0.026899,0.054759,18014,6.5412,206.38,199.21,0.69713,0.1406,8762333,3150.8,8.9434,0.66555,0.76874,0.42236,0.12062,0.12257,4.3188,3.0106,2.245e-4,1.5448,-3.56e-5,1.391,101243
0.33092,7.0751,48.969,164.8,1.3352,1.2843e-4,9.8221,0.15083,32.425,-0.019268,0.054867,18012,6.5408,206.44,199.21,0.70352,0.14126,8803703,3150.3,9.0184,0.66558,0.76791,0.42235,0.12064,0.12259,4.2904,3.0184,6.8186e-5,1.5537,-1.8095e-5,1.391,101242
0.33231,7.1422,49.198,164.79,1.3483,1.3355e-4,9.8221,0.14999,32.758,-0.011557,0.05494,18009,6.5405,206.5,199.2,0.70987,0.14192,8845013,3149.8,9.0936,0.66561,0.7671,0.42234,0.12065,0.12262,4.2623,3.0259,-5.1915e-4,1.5625,-6.4493e-6,1.391,101241
0.3337,7.2095,49.427,164.79,1.3615,1.3881e-4,9.8221,0.14915,33.092,-0.0037673,0.054977,18007,6.5402,206.56,199.2,0.71617,0.14259,8886266,3149.3,9.169,0.66563,0.76629,0.42233,0.12066,0.12264,4.2345,3.0323,-3.6554e-4,1.5712,-6.7892e-7,1.391,101240
0.33509,7.277,49.656,164.78,1.3747,1.4422e-4,9.8221,0.14833,33.425,0.0041021,0.054977,18004,6.5398,206.62,199.2,0.72243,0.14325,8927465,3148.8,9.2446,0.66566,0.76549,0.42232,0.12067,0.12267,4.2069,3.0394,2.7695e-4,1.5798,7.9755e-7,1.391,101240
0.33648,7.3447,49.884,164.77,1.3879,1.4978e-4,9.8221,0.14751,33.759,0.01205,0.054939,18002,6.5395,206.69,199.19,0.72866,0.14391,8968611,3148.3,9.3203,0.66569,0.76469,0.42232,0.12068,0.12269,4.1797,3.0455,1.2038e-4,1.5884,6.8187e-6,1.391,101239
0.33786,7.4126,50.113,164.77,1.4012,1.555e-4,9.8221,0.1467,34.092,0.020077,0.054861,17999,6.5392,206.75,199.19,0.73484,0.14457,9009707,3147.8,9.3963,0.66572,0.76391,0.42231,0.1207,0.12272,4.1528,3.0519,7.1286e-5,1.597,1.8756e-5,1.391,101238
0.33925,7.4808,50.34,164.76,1.4146,1.6138e-4,9.8221,0.14589,34.426,0.028182,0.054742,17997,6.5389,206.81,199.19,0.74099,0.14523,9050755,3147.4,9.4725,0.66575,0.76313,0.4223,0.12071,0.12274,4.1261,3.0571,3.5377e-4,1.6054,3.6625e-5,1.391,101237
0.34063,7.5492,50.568,164.75,1.428,1.6742e-4,9.8221,0.1451,34.76,0.036367,0.054583,17994,6.5385,206.87,199.19,0.74709,0.14589,9091757,3146.9,9.5489,0.66578,0.76236,0.42229,0.12072,0.12277,4.0997,3.0629,-1.7362e-4,1.6138,6.0435e-5,1.391,101236
0.34201,7.6178,50.795,164.74,1.4414,1.7362e-4,9.8221,0.14431,35.093,0.04463,0.05438,17992,6.5382,206.93,199.18,0.75317,0.14655,9132716,3146.4,9.6255,0.66581,0.76159,0.42228,0.12073,0.12279,4.0736,3.0677,4.3363e-5,1.6221,9.0204e-5,1.391,101236
0.34339,7.6866,51.022,164.74,1.4549,1.8e-4,9.8221,0.14352,35.427,0.05297,0.054135,17989,6.5379,206.98,199.18,0.7592,0.1472,9173633,3145.9,9.7023,0.66584,0.76083,0.42227,0.12074,0.12282,4.0477,3.0725,-1.3882e-4,1.6304,1.2594e-4,1.391,101235
0.34476,7.7557,51.249,164.73,1.4685,1.8654e-4,9.8221,0.14274,35.76,0.061388,0.053845,17987,6.5376,207.04,199.18,0.76521,0.14786,9214510,3145.4,9.7793,0.66587,0.76008,0.42227,0.12076,0.12284,4.022,3.0776,-3.5897e-4,1.6386,1.6765e-4,1.391,101234
0.34614,7.8251,51.476,164.72,1.4821,1.9325e-4,9.8221,0.14197,36.094,0.069884,0.053509,17984,6.5372,207.1,199.17,0.77118,0.14852,9255350,3144.9,9.8566,0.66589,0.75934,0.42226,0.12077,0.12287,3.9967,3.082,3.4811e-4,1.6467,2.1535e-4,1.391,101233
0.34751,7.8946,51.702,164.72,1.4957,2.0014e-4,9.8221,0.14121,36.427,0.078458,0.053127,17982,6.5369,207.16,199.17,0.77711,0.14917,9296154,3144.4,9.9341,0.66592,0.7586,0.42225,0.12078,0.12289,3.9715,3.0862,9.8525e-5,1.6548,2.6905e-4,1.3911,101232
0.34889,7.9644,51.928,164.71,1.5094,2.0721e-4,9.8221,0.14045,36.761,0.087109,0.052696,17979,6.5366,207.22,199.17,0.78302,0.14983,9336925,3143.9,10.012,0.66595,0.75787,0.42224,0.12079,0.12292,3.9466,3.0899,-4.5493e-5,1.6628,3.2876e-4,1.3911,101232
0.35026,8.0345,52.154,164.7,1.5232,2.1445e-4,9.8221,0.13969,37.094,0.095838,0.052216,17977,6.5363,207.28,199.17,0.78889,0.15048,9377664,3143.4,10.09,0.66598,0.75714,0.42223,0.12081,0.12294,3.9219,3.0933,1.8752e-5,1.6708,3.9449e-4,1.3911,101231
0.35163,8.1048,52.38,164.69,1.537,2.2188e-4,9.8221,0.13894,37.427,0.10464,0.051685,17974,6.5359,207.33,199.16,0.79474,0.15114,9418373,3143,10.168,0.66601,0.75642,0.42222,0.12082,0.12297,3.8974,3.0973,1.2871e-4,1.6787,4.6624e-4,1.3911,101230
0.353,8.1753,52.606,164.69,1.5508,2.295e-4,9.8221,0.1382,37.761,0.11352,0.051103,17972,6.5356,207.39,199.16,0.80055,0.15179,9459054,3142.5,10.246,0.66604,0.75571,0.42222,0.12083,0.123,3.8732,3.0999,-2.9844e-4,1.6865,5.4403e-4,1.3911,101229
0.35437,8.2461,52.831,164.68,1.5647,2.373e-4,9.8221,0.13746,38.094,0.12248,0.050468,17970,6.5353,207.45,199.16,0.80634,0.15244,9499709,3142,10.325,0.66607,0.755,0.42221,0.12084,0.12302,3.8491,3.1035,-4.6938e-4,1.6943,6.2785e-4,1.3911,101228
0.35573,8.3172,53.056,164.67,1.5787,2.4529e-4,9.8221,0.13673,38.428,0.13152,0.049779,17967,6.535,207.5,199.15,0.8121,0.1531,9540340,3141.5,10.404,0.6661,0.7543,0.4222,0.12086,0.12305,3.8253,3.1062,-4.1591e-4,1.702,7.1773e-4,1.3912,101227
0.3571,8.3885,53.281,164.66,1.5927,2.5348e-4,9.8221,0.136,38.761,0.14063,0.049035,17965,6.5347,207.56,199.15,0.81783,0.15375,9580948,3141,10.483,0.66613,0.75361,0.42219,0.12087,0.12307,3.8017,3.1078,1.0678e-4,1.7097,8.1366e-4,1.3912,101227
0.35847,8.4601,53.506,164.66,1.6068,2.6186e-4,9.8221,0.13528,39.095,0.14981,0.048233,17962,6.5343,207.61,199.15,0.82353,0.1544,9621535,3140.5,10.562,0.66616,0.75292,0.42218,0.12088,0.1231,3.7782,3.1102,-4.2433e-4,1.7173,9.1563e-4,1.3912,101226
0.35983,8.5319,53.731,164.65,1.6209,2.7045e-4,9.8221,0.13456,39.428,0.15907,0.047375,17960,6.534,207.67,199.15,0.82921,0.15505,9662103,3140,10.642,0.66619,0.75223,0.42217,0.12089,0.12313,3.755,3.1129,3.1006e-4,1.7248,0.0010237,1.3912,101225
0.3612,8.604,53.956,164.64,1.6351,2.7923e-4,9.8221,0.13385,39.762,0.16841,0.046457,17957,6.5337,207.72,199.14,0.83486,0.15571,9702654,3139.6,10.722,0.66622,0.75155,0.42217,0.12091,0.12315,3.732,3.115,-2.1284e-4,1.7323,0.0011377,1.3912,101224
0.36256,8.6764,54.18,164.63,1.6494,2.8822e-4,9.8221,0.13314,40.095,0.17782,0.045478,17955,6.5334,207.78,199.14,0.84049,0.15636,9743188,3139.1,10.802,0.66626,0.75088,0.42216,0.12092,0.12318,3.7091,3.116,-3.6243e-5,1.7397,0.0012579,1.3913,101223
0.36393,8.749,54.405,164.63,1.6637,2.9741e-4,9.8221,0.13244,40.428,0.1873,0.044438,17952,6.533,207.83,199.14,0.8461,0.15701,9783709,3138.6,10.882,0.66629,0.75021,0.42215,0.12093,0.1232,3.6864,3.1181,1.5492e-4,1.7471,0.0013841,1.3913,101222
0.36529,8.822,54.629,164.62,1.6781,3.0681e-4,9.8221,0.13174,40.762,0.19686,0.043334,17950,6.5327,207.89,199.13,0.85168,0.15766,9824216,3138.1,10.963,0.66632,0.74955,0.42214,0.12095,0.12323,3.6639,3.119,2.7035e-4,1.7544,0.0015164,1.3913,101222
0.36665,8.8952,54.854,164.61,1.6925,3.1643e-4,9.8221,0.13105,41.095,0.20649,0.042165,17947,6.5324,207.94,199.13,0.85724,0.15831,9864713,3137.6,11.044,0.66635,0.74889,0.42213,0.12096,0.12326,3.6416,3.1198,-5.4072e-4,1.7617,0.0016547,1.3913,101221
0.36801,8.9686,55.078,164.6,1.707,3.2625e-4,9.8221,0.13036,41.428,0.21619,0.040931,17945,6.5321,208,199.13,0.86278,0.15896,9905200,3137.1,11.125,0.66638,0.74824,0.42212,0.12097,0.12328,3.6194,3.1209,-5.3532e-4,1.7689,0.001799,1.3914,101220
0.36938,9.0424,55.302,164.6,1.7215,3.363e-4,9.8221,0.12967,41.762,0.22597,0.039629,17942,6.5317,208.05,199.12,0.86829,0.15961,9945680,3136.7,11.206,0.66641,0.74759,0.42211,0.12098,0.12331,3.5974,3.122,2.375e-4,1.7761,0.0019494,1.3914,101219
0.37074,9.1164,55.526,164.59,1.7361,3.4656e-4,9.8221,0.12899,42.095,0.23582,0.038258,17940,6.5314,208.1,199.12,0.87379,0.16026,9986153,3136.2,11.288,0.66644,0.74695,0.4221,0.121,0.12334,3.5755,3.1226,-3.8823e-4,1.7832,0.0021059,1.3914,101218
0.3721,9.1907,55.75,164.58,1.7508,3.5704e-4,9.8221,0.12831,42.429,0.24574,0.036818,17938,6.5311,208.16,199.12,0.87926,0.16091,10026620,3135.7,11.37,0.66647,0.74631,0.4221,0.12101,0.12337,3.5539,3.1221,9.1328e-5,1.7902,0.0022684,1.3915,101217
0.37346,9.2653,55.975,164.59,1.7655,3.6775e-4,9.8221,0.12764,42.762,0.25573,0.035305,17935,6.5308,208.21,199.12,0.88472,0.16156,10067085,3135.5,11.452,0.6665,0.74568,0.42209,0.12102,0.12339,3.5323,3.1225,4.9026e-5,1.7972,0.0024369,1.3915,101216
0.37482,9.3403,56.199,164.61,1.7803,3.7868e-4,9.8221,0.12697,43.095,0.2658,0.03372,17933,6.5305,208.26,199.11,0.89015,0.16221,10107551,3135.4,11.535,0.66654,0.74505,0.42208,0.12104,0.12342,3.5109,3.1222,-1.1097e-4,1.8041,0.0026114,1.3915,101215
0.37618,9.4155,56.423,164.62,1.7951,3.8984e-4,9.8221,0.1263,43.429,0.27593,0.032059,17930,6.5302,208.32,199.11,0.89556,0.16286,10148022,3135.3,11.618,0.66657,0.74442,0.42207,0.12105,0.12345,3.4897,3.1225,-2.6846e-5,1.811,0.0027919,1.3916,101215
0.37754,9.4909,56.647,164.63,1.81,4.0123e-4,9.8221,0.12564,43.762,0.28614,0.030322,17928,6.5298,208.37,199.11,0.90095,0.16351,10188499,3135.2,11.701,0.6666,0.7438,0.42206,0.12106,0.12348,3.4686,3.1222,3.6198e-4,1.8179,0.0029784,1.3916,101214
0.37891,9.5667,56.871,164.64,1.825,4.1285e-4,9.8221,0.12498,44.095,0.29641,0.028508,17926,6.5295,208.42,199.1,0.90632,0.16417,10228983,3135.1,11.785,0.66663,0.74319,0.42205,0.12108,0.1235,3.4476,3.1216,-3.2855e-4,1.8247,0.0031709,1.3917,101213
0.38027,9.6428,57.095,164.66,1.8401,4.247e-4,9.8221,0.12432,44.429,0.30676,0.026616,17923,6.5292,208.47,199.1,0.91168,0.16482,10269475,3135,11.868,0.66666,0.74258,0.42204,0.12109,0.12353,3.4268,3.1203,-4.0419e-4,1.8314,0.0033693,1.3917,101212
0.38163,9.7192,57.319,164.67,1.8552,4.3679e-4,9.8221,0.12367,44.762,0.31717,0.024642,17921,6.5289,208.53,199.1,0.91703,0.16547,1.031e7,3134.9,11.952,0.6667,0.74197,0.42203,0.1211,0.12356,3.4061,3.1198,-1.0231e-4,1.8381,0.0035736,1.3918,101211
0.38299,9.796,57.543,164.68,1.8703,4.4912e-4,9.8221,0.12302,45.095,0.32765,0.022586,17918,6.5286,208.58,199.1,0.92235,0.16612,1.035e7,3134.8,12.037,0.66673,0.74137,0.42202,0.12112,0.12359,3.3856,3.1192,-8.399e-5,1.8447,0.0037838,1.3918,101210
0.38435,9.873,57.768,164.7,1.8856,4.6168e-4,9.8221,0.12237,45.429,0.3382,0.020445,17916,6.5283,208.63,199.09,0.92767,0.16677,10391015,3134.7,12.122,0.66676,0.74077,0.42201,0.12113,0.12362,3.3651,3.1178,-1.0742e-4,1.8513,0.0039999,1.3918,101209
0.38571,9.9503,57.992,164.71,1.9009,4.7449e-4,9.8221,0.12173,45.762,0.34881,0.018219,17914,6.528,208.68,199.09,0.93296,0.16742,10431553,3134.6,12.207,0.6668,0.74018,0.42201,0.12115,0.12364,3.3448,3.1161,-3.3185e-4,1.8578,0.0042219,1.3919,101208
0.38708,10.028,58.216,164.72,1.9162,4.8753e-4,9.8221,0.12109,46.095,0.35949,0.015906,17911,6.5277,208.73,199.09,0.93825,0.16807,10472106,3134.5,12.292,0.66683,0.73959,0.422,0.12116,0.12367,3.3246,3.1146,-4.5132e-4,1.8643,0.0044496,1.3919,101207
0.38844,10.106,58.441,164.73,1.9317,5.0082e-4,9.8221,0.12045,46.428,0.37023,0.013504,17909,6.5273,208.78,199.08,0.94352,0.16873,10512674,3134.4,12.378,0.66686,0.739,0.42199,0.12117,0.1237,3.3046,3.1135,3.9258e-4,1.8707,0.0046832,1.392,101206
0.3898,10.184,58.665,164.75,1.9472,5.1436e-4,9.8221,0.11981,46.762,0.38104,0.011012,17907,6.527,208.84,199.08,0.94878,0.16938,10553260,3134.3,12.464,0.66689,0.73842,0.42198,0.12119,0.12373,3.2846,3.1118,2.1985e-4,1.8771,0.0049225,1.3921,101206
0.39116,10.263,58.89,164.76,1.9627,5.2814e-4,9.8221,0.11918,47.095,0.39192,0.0084271,17904,6.5267,208.89,199.08,0.95402,0.17003,10593863,3134.2,12.55,0.66693,0.73784,0.42197,0.1212,0.12376,3.2648,3.1095,-1.0636e-4,1.8835,0.0051676,1.3921,101205
0.39253,10.342,59.115,164.77,1.9784,5.4217e-4,9.8221,0.11855,47.428,0.40285,0.0057485,17902,6.5264,208.94,199.08,0.95925,0.17069,10634486,3134.1,12.636,0.66696,0.73727,0.42196,0.12122,0.12379,3.2451,3.1078,-3.2469e-4,1.8898,0.0054183,1.3922,101204
0.39389,10.421,59.339,164.79,1.9941,5.5645e-4,9.8221,0.11793,47.762,0.41385,0.0029741,17899,6.5261,208.99,199.07,0.96447,0.17134,10675129,3134,12.723,0.667,0.7367,0.42195,0.12123,0.12382,3.2255,3.1054,-2.965e-4,1.896,0.0056746,1.3922,101203
0.39526,10.501,59.564,164.8,2.0098,5.7097e-4,9.8221,0.1173,48.095,0.42491,1.021e-4,17897,6.5258,209.04,199.07,0.96968,0.17199,10715793,3133.9,12.811,0.66703,0.73613,0.42194,0.12124,0.12385,3.2059,3.1024,-3.0182e-4,1.9022,0.0059366,1.3923,101202
0.39662,10.581,59.789,164.81,2.0257,5.8575e-4,9.8221,0.11668,48.428,0.43603,-0.0028685,17895,6.5255,209.09,199.07,0.97488,0.17265,10756480,3133.8,12.898,0.66706,0.73557,0.42193,0.12126,0.12387,3.1865,3.1006,4.4094e-4,1.9083,0.0062041,1.3923,101201
0.39799,10.661,60.014,164.82,2.0416,6.0077e-4,9.8221,0.11606,48.761,0.44721,-0.005941,17892,6.5251,209.14,199.06,0.98007,0.1733,10797191,3133.7,12.986,0.6671,0.73501,0.42192,0.12127,0.1239,3.1672,3.098,-1.6922e-4,1.9144,0.0064771,1.3924,101200
0.39936,10.741,60.24,164.84,2.0576,6.1605e-4,9.8221,0.11544,49.095,0.45845,-0.0091159,17890,6.5248,209.19,199.06,0.98524,0.17396,10837926,3133.6,13.075,0.66713,0.73445,0.42191,0.12129,0.12393,3.148,3.0947,-4.3313e-4,1.9205,0.0067556,1.3925,101199
0.40072,10.822,60.465,164.85,2.0736,6.3158e-4,9.8221,0.11483,49.428,0.46975,-0.012395,17888,6.5245,209.24,199.06,0.99041,0.17461,10878688,3133.5,13.163,0.66717,0.7339,0.4219,0.1213,0.12396,3.1289,3.0916,-2.3935e-4,1.9265,0.0070395,1.3925,101198
0.40209,10.904,60.691,164.86,2.0898,6.4736e-4,9.8221,0.11422,49.761,0.4811,-0.015782,17885,6.5242,209.29,199.06,0.99557,0.17527,10919475,3133.4,13.252,0.6672,0.73335,0.42189,0.12132,0.12399,3.1099,3.0888,2.6147e-5,1.9325,0.0073287,1.3926,101197
0.40346,10.985,60.916,164.88,2.106,6.6339e-4,9.8221,0.11361,50.094,0.49251,-0.019276,17883,6.5239,209.34,199.05,1.0007,0.17592,1.096e7,3133.3,13.342,0.66724,0.7328,0.42188,0.12133,0.12402,3.091,3.0852,-1.501e-4,1.9384,0.0076231,1.3927,101196
0.40483,11.067,61.142,164.89,2.1222,6.7967e-4,9.8221,0.113,50.428,0.50397,-0.02288,17880,6.5236,209.39,199.05,1.0059,0.17658,11001136,3133.2,13.432,0.66727,0.73226,0.42187,0.12135,0.12405,3.0722,3.0824,2.9129e-4,1.9442,0.0079228,1.3927,101195
0.4062,11.15,61.368,164.9,2.1386,6.962e-4,9.8221,0.11239,50.761,0.51548,-0.026597,17878,6.5233,209.44,199.05,1.011,0.17724,11042010,3133.1,13.522,0.66731,0.73172,0.42186,0.12136,0.12408,3.0535,3.0787,3.1401e-4,1.9501,0.0082277,1.3928,101194
0.40757,11.232,61.594,164.91,2.155,7.1299e-4,9.8221,0.11179,51.094,0.52705,-0.030428,17876,6.5229,209.49,199.04,1.0161,0.1779,11082916,3133,13.612,0.66734,0.73119,0.42185,0.12137,0.12411,3.0348,3.0748,2.9952e-4,1.9558,0.0085376,1.3929,101193
0.40894,11.315,61.82,164.93,2.1715,7.3002e-4,9.8221,0.11119,51.427,0.53867,-0.034376,17873,6.5226,209.54,199.04,1.0212,0.17855,11123853,3132.9,13.703,0.66738,0.73065,0.42184,0.12139,0.12414,3.0163,3.071,-4.5687e-4,1.9616,0.0088525,1.393,101192
0.41031,11.399,62.047,164.94,2.1881,7.473e-4,9.8221,0.11059,51.761,0.55034,-0.03844,17871,6.5223,209.59,199.04,1.0263,0.17921,11164823,3132.8,13.794,0.66741,0.73012,0.42183,0.1214,0.12418,2.9978,3.0676,-2.1627e-4,1.9673,0.0091724,1.393,101191
0.41169,11.482,62.273,164.95,2.2047,7.6483e-4,9.8221,0.10999,52.094,0.56205,-0.042625,17868,6.522,209.64,199.04,1.0314,0.17987,11205826,3132.7,13.886,0.66745,0.7296,0.42182,0.12142,0.12421,2.9794,3.064,6.7704e-5,1.9729,0.0094971,1.3931,101190
0.41306,11.566,62.5,164.96,2.2214,7.826e-4,9.8221,0.1094,52.427,0.57382,-0.046931,17866,6.5217,209.69,199.03,1.0365,0.18053,11246865,3132.6,13.978,0.66748,0.72907,0.42181,0.12143,0.12424,2.9611,3.0594,4.9797e-4,1.9785,0.0098266,1.3932,101189
0.41444,11.651,62.727,164.98,2.2382,8.0062e-4,9.8221,0.1088,52.76,0.58562,-0.051361,17864,6.5214,209.74,199.03,1.0416,0.18119,11287939,3132.5,14.07,0.66752,0.72856,0.4218,0.12145,0.12427,2.9429,3.0557,-3.3119e-4,1.9841,0.010161,1.3933,101188
0.41582,11.736,62.954,164.99,2.2551,8.1888e-4,9.8221,0.10821,53.093,0.59748,-0.055916,17861,6.5211,209.79,199.03,1.0467,0.18185,11329049,3132.4,14.163,0.66756,0.72804,0.42179,0.12146,0.1243,2.9247,3.0505,-1.6254e-4,1.9896,0.010499,1.3934,101187
0.41719,11.821,63.181,165,2.2721,8.3738e-4,9.8221,0.10762,53.427,0.60937,-0.0606,17859,6.5207,209.84,199.02,1.0518,0.18252,1.137e7,3132.3,14.256,0.66759,0.72752,0.42178,0.12148,0.12433,2.9067,3.0467,1.3292e-4,1.9951,0.010843,1.3935,101186
0.41857,11.907,63.409,165.01,2.2891,8.5612e-4,9.8221,0.10703,53.76,0.62131,-0.065415,17856,6.5204,209.89,199.02,1.0569,0.18318,11411384,3132.2,14.349,0.66763,0.72701,0.42177,0.12149,0.12436,2.8887,3.0422,3.5319e-4,2.0005,0.01119,1.3936,101185
0.41995,11.993,63.637,165.03,2.3062,8.751e-4,9.8221,0.10644,54.093,0.63329,-0.070362,17854,6.5201,209.94,199.02,1.0619,0.18384,11452609,3132.1,14.443,0.66767,0.72651,0.42176,0.12151,0.12439,2.8707,3.0373,1.5125e-4,2.0059,0.011542,1.3936,101184
0.42133,12.079,63.865,165.04,2.3234,8.9431e-4,9.8221,0.10586,54.426,0.6453,-0.075443,17852,6.5198,209.98,199.02,1.067,0.18451,11493875,3132,14.537,0.6677,0.726,0.42175,0.12153,0.12443,2.8529,3.032,6.6099e-4,2.0113,0.011898,1.3937,101183
0.42272,12.166,64.093,165.05,2.3407,9.1374e-4,9.8221,0.10527,54.759,0.65735,-0.080661,17849,6.5195,210.03,199.01,1.072,0.18517,11535182,3131.9,14.632,0.66774,0.7255,0.42174,0.12154,0.12446,2.8351,3.0273,-1.3643e-4,2.0166,0.012258,1.3938,101182
0.4241,12.253,64.321,165.06,2.358,9.334e-4,9.8221,0.10469,55.093,0.66943,-0.086018,17847,6.5191,210.08,199.01,1.0771,0.18584,11576530,3131.8,14.727,0.66778,0.725,0.42173,0.12156,0.12449,2.8174,3.0222,2.4513e-4,2.0218,0.012622,1.3939,101181
0.42548,12.34,64.55,165.08,2.3754,9.5329e-4,9.8221,0.10411,55.426,0.68155,-0.091515,17844,6.5188,210.13,199.01,1.0822,0.1865,11617922,3131.7,14.822,0.66781,0.7245,0.42172,0.12157,0.12452,2.7997,3.0167,5.4661e-4,2.0271,0.01299,1.394,101180
0.42687,12.428,64.779,165.09,2.3929,9.7339e-4,9.8221,0.10353,55.759,0.69369,-0.097155,17842,6.5185,210.18,199,1.0872,0.18717,11659356,3131.6,14.918,0.66785,0.72401,0.42171,0.12159,0.12455,2.7822,3.0111,6.5648e-4,2.0323,0.013361,1.3941,101179
0.42826,12.517,65.008,165.1,2.4105,9.9371e-4,9.8221,0.10295,56.092,0.70587,-0.10294,17839,6.5182,210.23,199,1.0922,0.18784,11700836,3131.5,15.014,0.66789,0.72352,0.4217,0.1216,0.12459,2.7646,3.006,-5.2971e-5,2.0374,0.013736,1.3942,101178
0.42965,12.605,65.237,165.11,2.4282,0.0010142,9.8221,0.10238,56.425,0.71807,-0.10887,17837,6.5179,210.28,199,1.0973,0.1885,11742360,3131.4,15.111,0.66793,0.72303,0.42169,0.12162,0.12462,2.7472,3.0008,6.0524e-4,2.0425,0.014115,1.3943,101177
0.43104,12.694,65.467,165.13,2.446,0.001035,9.8221,0.1018,56.759,0.73029,-0.11496,17835,6.5175,210.33,199,1.1023,0.18917,11783930,3131.3,15.208,0.66797,0.72255,0.42168,0.12164,0.12465,2.7298,2.9945,7.5879e-4,2.0476,0.014496,1.3944,101176
0.43243,12.784,65.696,165.14,2.4638,0.0010559,9.8221,0.10123,57.092,0.74254,-0.12119,17832,6.5172,210.38,198.99,1.1074,0.18984,11825547,3131.2,15.305,0.668,0.72206,0.42167,0.12165,0.12469,2.7125,2.9892,4.4808e-4,2.0526,0.014881,1.3945,101175
0.43382,12.874,65.926,165.15,2.4817,0.001077,9.8221,0.10065,57.425,0.75481,-0.12758,17830,6.5169,210.42,198.99,1.1124,0.19051,11867211,3131.1,15.403,0.66804,0.72158,0.42166,0.12167,0.12472,2.6952,2.9833,7.4515e-4,2.0576,0.015269,1.3947,101174
0.43522,12.964,66.157,165.16,2.4997,0.0010983,9.8221,0.10008,57.758,0.76709,-0.13413,17827,6.5166,210.47,198.99,1.1174,0.19118,11908924,3131,15.502,0.66808,0.72111,0.42164,0.12168,0.12475,2.678,2.9769,5.6995e-4,2.0625,0.015659,1.3948,101173
0.43661,13.055,66.387,165.18,2.5178,0.0011198,9.8221,0.099509,58.091,0.77939,-0.14083,17825,6.5163,210.52,198.98,1.1225,0.19186,11950685,3130.9,15.6,0.66812,0.72063,0.42163,0.1217,0.12479,2.6608,2.9709,0.0010052,2.0675,0.016053,1.3949,101172
0.43801,13.146,66.618,165.19,2.536,0.0011414,9.8221,0.09894,58.424,0.7917,-0.1477,17822,6.5159,210.57,198.98,1.1275,0.19253,11992497,3130.8,15.7,0.66816,0.72016,0.42162,0.12172,0.12482,2.6437,2.9646,1.6032e-4,2.0723,0.016448,1.395,101171
0.43941,13.237,66.849,165.2,2.5542,0.0011632,9.8221,0.098371,58.758,0.80402,-0.15473,17820,6.5156,210.62,198.98,1.1325,0.1932,12034358,3130.7,15.799,0.6682,0.71969,0.42161,0.12173,0.12485,2.6267,2.958,8.8501e-4,2.0772,0.016846,1.3951,101170
0.44081,13.329,67.081,165.21,2.5726,0.0011852,9.8221,0.097804,59.091,0.81635,-0.16192,17818,6.5153,210.67,198.97,1.1375,0.19388,12076272,3130.6,15.899,0.66824,0.71922,0.4216,0.12175,0.12489,2.6097,2.9516,8.8399e-4,2.082,0.017246,1.3952,101169
0.44221,13.422,67.312,165.23,2.591,0.0012073,9.8221,0.097237,59.424,0.82868,-0.16928,17815,6.515,210.72,198.97,1.1426,0.19455,12118237,3130.5,16,0.66828,0.71876,0.42159,0.12177,0.12492,2.5927,2.9445,0.0010329,2.0867,0.017648,1.3954,101168
0.44361,13.515,67.544,165.24,2.6096,0.0012296,9.8221,0.096672,59.757,0.84102,-0.17682,17813,6.5147,210.77,198.97,1.1476,0.19523,1.216e7,3130.4,16.1,0.66832,0.7183,0.42158,0.12178,0.12495,2.5758,2.9378,9.4647e-4,2.0914,0.018052,1.3955,101166
0.44502,13.608,67.776,165.25,2.6282,0.0012519,9.8221,0.096108,60.09,0.85335,-0.18452,17810,6.5143,210.81,198.97,1.1526,0.1959,12202325,3130.3,16.202,0.66836,0.71784,0.42157,0.1218,0.12499,2.559,2.9307,0.0010999,2.0961,0.018457,1.3956,101165
0.44643,13.702,68.009,165.26,2.6469,0.0012744,9.8221,0.095544,60.423,0.86568,-0.19241,17808,6.514,210.86,198.96,1.1577,0.19658,12244450,3130.2,16.304,0.6684,0.71738,0.42156,0.12182,0.12502,2.5422,2.9245,0.0010538,2.1008,0.018863,1.3957,101164
0.44783,13.796,68.241,165.28,2.6656,0.001297,9.8221,0.094982,60.756,0.878,-0.20047,17805,6.5137,210.91,198.96,1.1627,0.19726,12286630,3130.1,16.406,0.66844,0.71693,0.42154,0.12183,0.12506,2.5255,2.9166,5.8413e-4,2.1054,0.019271,1.3959,101163
0.44924,13.89,68.475,165.29,2.6845,0.0013197,9.8221,0.09442,61.09,0.89031,-0.20871,17803,6.5134,210.96,198.96,1.1677,0.19794,12328865,3130,16.508,0.66848,0.71648,0.42153,0.12185,0.12509,2.5088,2.91,7.6701e-4,2.1099,0.019679,1.396,101162
0.45066,13.985,68.708,165.3,2.7035,0.0013425,9.8221,0.09386,61.423,0.90261,-0.21713,17800,6.513,211.01,198.95,1.1727,0.19862,12371156,3129.9,16.612,0.66852,0.71603,0.42152,0.12187,0.12513,2.4921,2.9027,0.0013201,2.1145,0.020088,1.3961,101161
0.45207,14.08,68.942,165.31,2.7225,0.0013653,9.8221,0.0933,61.756,0.9149,-0.22574,17798,6.5127,211.06,198.95,1.1778,0.1993,12413503,3129.8,16.715,0.66856,0.71558,0.42151,0.12188,0.12516,2.4755,2.8948,7.5093e-4,2.119,0.020498,1.3963,101160
0.45348,14.176,69.175,165.33,2.7417,0.0013882,9.8221,0.092741,62.089,0.92716,-0.23454,17795,6.5124,211.11,198.95,1.1828,0.19999,12455908,3129.7,16.819,0.6686,0.71514,0.4215,0.1219,0.1252,2.459,2.8872,0.0011124,2.1234,0.020908,1.3964,101159
0.4549,14.273,69.41,165.34,2.7609,0.0014112,9.8221,0.092183,62.422,0.93939,-0.24352,17793,6.5121,211.16,198.94,1.1878,0.20067,12498371,3129.6,16.924,0.66864,0.7147,0.42149,0.12192,0.12523,2.4425,2.8803,0.0014178,2.1279,0.021317,1.3965,101158
0.45632,14.369,69.644,165.35,2.7802,0.0014342,9.8221,0.091625,62.755,0.95161,-0.2527,17790,6.5117,211.2,198.94,1.1929,0.20135,12540892,3129.4,17.029,0.66868,0.71426,0.42148,0.12194,0.12527,2.426,2.8721,0.0020139,2.1323,0.021727,1.3967,101156
0.45774,14.466,69.879,165.36,2.7997,0.0014572,9.8221,0.091069,63.088,0.96378,-0.26208,17788,6.5114,211.25,198.94,1.1979,0.20204,12583473,3129.3,17.134,0.66872,0.71382,0.42146,0.12195,0.12531,2.4096,2.8647,0.0014653,2.1366,0.022135,1.3968,101155
0.45916,14.564,70.114,165.37,2.8192,0.0014801,9.8221,0.090513,63.422,0.97593,-0.27164,17785,6.5111,211.3,198.94,1.2029,0.20273,12626113,3129.2,17.24,0.66877,0.71339,0.42145,0.12197,0.12534,2.3932,2.8566,0.0017485,2.1409,0.022543,1.397,101154
0.46059,14.662,70.35,165.39,2.8388,0.0015031,9.8221,0.089958,63.755,0.98803,-0.28142,17783,6.5107,211.35,198.93,1.208,0.20341,12668813,3129.1,17.346,0.66881,0.71296,0.42144,0.12199,0.12538,2.3769,2.8487,0.0018087,2.1452,0.02295,1.3971,101153
0.46201,14.761,70.586,165.4,2.8585,0.001526,9.8221,0.089404,64.088,1.0001,-0.29139,17780,6.5104,211.4,198.93,1.213,0.2041,12711575,3129,17.453,0.66885,0.71253,0.42143,0.12201,0.12542,2.3606,2.8396,0.0017783,2.1495,0.023356,1.3972,101152
