Time (s),Altitude (m),Total velocity (m/s),Total acceleration (m/s),Position East of launch (m),Position North of launch (m),Gravitational acceleration (m/s),Angle of attack (rad),Roll rate (rpm),Pitch rate (rpm),Yaw rate (rpm),Mass (g),Longitudinal moment of inertia (kgm),CP location (cm),CG location (cm),Stability margin calibers (?),Mach number (?),Reynolds number (?),Thrust (N),Drag force (N),Drag coefficient (?),Axial drag coefficient (?),Friction drag coefficient (?),Pressure drag coefficient (?),Base drag coefficient (?),Normal force coefficient (?),Pitch moment coefficient (?),Yaw moment coefficient (?),Roll damping coefficient (?),Pitch damping coefficient (?),Vertical orientation (zenith) (rad),Air pressure (Pa)
0,0,0,35.761,0,0,9.8257,1.3963,0,0,0,18553,6.611,NaN,199.83,NaN,0.0088134,549613,843,5.1245e-4,0.93384,0.0112,0.69445,0.11938,0.12001,NaN,NaN,NaN,NaN,NaN,1.3963,101325
2e-3,7.0436e-5,0.071523,115.28,1.242e-5,0,9.8257,1.3729,0,0,0,18553,6.611,NaN,199.83,NaN,0.0088524,552039,2318.2,7.4172e-4,0.9332,0.016069,0.6938,0.11938,0.12001,NaN,NaN,NaN,NaN,NaN,1.3963,101325
4e-3,4.3838e-4,0.3021,126.65,7.7298e-5,0,9.8257,1.2991,0,0,0,18551,6.6107,NaN,199.83,NaN,0.0090101,561874,2529,0.001885,0.93062,0.03942,0.69123,0.11938,0.12001,NaN,NaN,NaN,NaN,NaN,1.3963,101325
6e-3,0.0012829,0.55543,126.67,2.262e-4,0,9.8257,1.2214,0,0,0,18549,6.6104,NaN,199.82,NaN,0.0092376,576066,2529,0.0039686,0.92701,0.078956,0.68761,0.11938,0.12001,NaN,NaN,NaN,NaN,NaN,1.3963,101325
8e-3,0.0026264,0.8088,126.69,4.631e-4,0,9.8257,1.1479,0,0,0,18546,6.6101,NaN,199.82,NaN,0.0095182,593561,2529,0.0070334,0.92271,0.1318,0.68332,0.11938,0.12001,NaN,NaN,NaN,NaN,NaN,1.3963,101325
0.01,0.0044689,1.0622,126.71,7.88e-4,0,9.8257,1.0789,0,0,0,18543,6.6097,NaN,199.82,NaN,0.0098472,614076,2529,0.011147,0.91788,0.19516,0.67848,0.11938,0.12001,NaN,NaN,NaN,NaN,NaN,1.3963,101325
0.012,0.0068107,1.3157,126.73,0.0012009,0,9.8257,1.0146,0,0,0,18540,6.6093,NaN,199.81,NaN,0.01022,637324,2529,0.016336,0.91266,0.26554,0.67326,0.11938,0.12001,NaN,NaN,NaN,NaN,NaN,1.3963,101325
0.014,0.0096517,1.5692,126.75,0.0017019,0,9.8257,0.95509,0,0,0,18537,6.6089,NaN,199.81,NaN,0.010632,663017,2529,0.022599,0.90717,0.33942,0.66777,0.11938,0.12001,NaN,NaN,NaN,NaN,NaN,1.3963,101325
0.016,0.012992,1.8227,126.77,0.0022908,0,9.8257,0.90017,0,0,0,18534,6.6086,NaN,199.81,NaN,0.011079,690884,2529,0.029913,0.90152,0.41375,0.66212,0.11939,0.12002,NaN,NaN,NaN,NaN,NaN,1.3963,101325
0.018,0.016832,2.0763,126.79,0.0029679,0,9.8257,0.84965,0,0,0,18531,6.6082,NaN,199.8,NaN,0.011557,720675,2529,0.03824,0.8958,0.4861,0.6564,0.11939,0.12002,NaN,NaN,NaN,NaN,NaN,1.3963,101325
0.02,0.021171,2.3299,126.81,0.003733,0,9.8257,0.80324,0,0,0,18529,6.6078,NaN,199.8,NaN,0.012061,752162,2529,0.047536,0.89008,0.55473,0.65068,0.11939,0.12002,NaN,NaN,NaN,NaN,NaN,1.3963,101325
0.022,0.02601,2.5836,126.83,0.0045862,0,9.8257,0.76063,0,0,0,18526,6.6075,NaN,199.8,NaN,0.01259,785144,2529,0.057752,0.88442,0.61853,0.64502,0.11939,0.12002,NaN,NaN,NaN,NaN,NaN,1.3963,101325
0.024,0.031348,2.8373,126.85,0.0055275,0,9.8257,0.72152,0,0,0,18523,6.6071,NaN,199.79,NaN,0.01314,819440,2529,0.06884,0.87886,0.67686,0.63945,0.11939,0.12002,NaN,NaN,NaN,NaN,NaN,1.3963,101325
0.026,0.037186,3.091,126.87,0.006557,0,9.8257,0.6856,0,0,0,18520,6.6067,NaN,199.79,NaN,0.013709,854893,2529,0.080751,0.87341,0.72948,0.634,0.11939,0.12002,NaN,NaN,NaN,NaN,NaN,1.3963,101325
0.028,0.043525,3.3448,126.9,0.0076745,0,9.8257,0.65256,0,0,0,18517,6.6064,NaN,199.79,NaN,0.014294,891368,2529,0.093438,0.86811,0.77643,0.62869,0.11939,0.12003,NaN,NaN,NaN,NaN,NaN,1.3963,101324
0.03,0.050362,3.5986,126.92,0.0088803,0,9.8257,0.62216,0,0,0,18514,6.606,NaN,199.78,NaN,0.014893,928743,2529,0.10686,0.86296,0.81791,0.62354,0.11939,0.12003,NaN,NaN,NaN,NaN,NaN,1.3963,101324
0.032,0.0577,3.8525,126.94,0.010174,0,9.8257,0.59412,0,0,0,18511,6.6056,NaN,199.78,NaN,0.015505,966917,2529,0.12097,0.85798,0.85427,0.61855,0.11939,0.12003,NaN,NaN,NaN,NaN,NaN,1.3963,101324
0.034,0.065538,4.1064,126.96,0.011556,0,9.8257,0.56823,0,0,0,18508,6.6053,NaN,199.78,NaN,0.016129,1005799,2529,0.13574,0.85315,0.88589,0.61373,0.11939,0.12003,NaN,NaN,NaN,NaN,NaN,1.3963,101324
0.036,0.073876,4.3603,126.98,0.013026,0,9.8257,0.54428,0,0,0,18506,6.6049,NaN,199.78,NaN,0.016762,1045312,2529,0.15113,0.84849,0.91318,0.60906,0.1194,0.12004,NaN,NaN,NaN,NaN,NaN,1.3963,101324
0.038,0.082715,4.6143,127,0.014585,0,9.8257,0.52207,0,0,0,18503,6.6045,NaN,199.77,NaN,0.017405,1085386,2529,0.16712,0.844,0.93657,0.60456,0.1194,0.12004,NaN,NaN,NaN,NaN,NaN,1.3963,101324
0.04,0.092053,4.8684,127.02,0.016231,0,9.8257,0.50146,0,0,0,18500,6.6042,NaN,199.77,NaN,0.018056,1125964,2529,0.18367,0.83966,0.95647,0.60022,0.1194,0.12004,NaN,NaN,NaN,NaN,NaN,1.3963,101324
0.042,0.10189,5.1224,127.04,0.017966,0,9.8257,0.48229,0,0,0,18497,6.6038,NaN,199.77,NaN,0.018714,1166993,2529,0.20076,0.83547,0.97324,0.59603,0.1194,0.12005,NaN,NaN,NaN,NaN,NaN,1.3963,101324
0.044,0.11223,5.3765,127.06,0.019789,0,9.8257,0.46442,0,0,0,18494,6.6034,NaN,199.76,NaN,0.019378,1208428,2529,0.21836,0.83143,0.98724,0.59198,0.1194,0.12005,NaN,NaN,NaN,NaN,NaN,1.3963,101324
0.046,0.12307,5.6307,127.08,0.021701,0,9.8257,0.44774,0,0,0,18491,6.6031,NaN,199.76,NaN,0.020049,1250230,2529,0.23647,0.82754,0.99879,0.58808,0.1194,0.12005,NaN,NaN,NaN,NaN,NaN,1.3963,101324
0.048,0.13441,5.8849,127.1,0.023701,0,9.8257,0.43214,0,0,0,18488,6.6027,NaN,199.76,NaN,0.020724,1292364,2529,0.25505,0.82377,1.0082,0.58431,0.1194,0.12006,NaN,NaN,NaN,NaN,NaN,1.3963,101323
0.05,0.14625,6.1391,127.12,0.025788,0,9.8257,0.41752,0,0,0,18486,6.6023,NaN,199.75,NaN,0.021405,1334800,2529,0.2741,0.82014,1.0157,0.58068,0.11941,0.12006,NaN,NaN,NaN,NaN,NaN,1.3963,101323
0.052,0.1586,6.3934,127.14,0.027965,0,9.8257,0.40381,0,0,0,18483,6.602,NaN,199.75,NaN,0.02209,1377509,2529,0.29359,0.81664,1.0215,0.57716,0.11941,0.12006,NaN,NaN,NaN,NaN,NaN,1.3963,101323
0.054,0.17144,6.6477,127.16,0.030229,0,9.8257,0.39092,0,0,0,18480,6.6016,NaN,199.75,NaN,0.022779,1420469,2529,0.31352,0.81325,1.0259,0.57377,0.11941,0.12007,NaN,NaN,NaN,NaN,NaN,1.3963,101323
0.056,0.18478,6.902,127.18,0.032582,0,9.8257,0.37879,0,0,0,18477,6.6012,NaN,199.74,NaN,0.023471,1463657,2529,0.33387,0.80997,1.0289,0.57049,0.11941,0.12007,NaN,NaN,NaN,NaN,NaN,1.3963,101323
0.058,0.19863,7.1564,127.2,0.035023,0,9.8257,0.36735,0,0,0,18474,6.6009,NaN,199.74,NaN,0.024167,1507055,2529,0.35464,0.8068,1.0309,0.56731,0.11941,0.12008,NaN,NaN,NaN,NaN,NaN,1.3963,101323
0.06,0.21297,7.4108,127.22,0.037553,0,9.8257,0.35656,0,0,0,18471,6.6005,NaN,199.74,NaN,0.024866,1550646,2529,0.37581,0.80374,1.0319,0.56424,0.11942,0.12008,NaN,NaN,NaN,NaN,NaN,1.3963,101323
0.062,0.22782,7.6653,127.24,0.040171,0,9.8257,0.34635,0,0,0,18468,6.6001,NaN,199.73,NaN,0.025568,1594415,2529,0.39737,0.80077,1.032,0.56126,0.11942,0.12008,NaN,NaN,NaN,NaN,NaN,1.3963,101322
0.064,0.24317,7.9198,127.26,0.042877,0,9.8257,0.33669,0,0,0,18466,6.5998,NaN,199.73,NaN,0.026273,1638347,2529,0.41932,0.79789,1.0314,0.55838,0.11942,0.12009,NaN,NaN,NaN,NaN,NaN,1.3963,101322
0.066,0.25902,8.1744,127.28,0.045672,0,9.8257,0.32753,0,0,0,18463,6.5994,NaN,199.73,NaN,0.02698,1682431,2529,0.44165,0.7951,1.0301,0.55559,0.11942,0.12009,NaN,NaN,NaN,NaN,NaN,1.3963,101322
0.068,0.27537,8.429,127.3,0.048555,0,9.8257,0.31884,0,0,0,18460,6.599,NaN,199.72,NaN,0.027689,1726656,2529,0.46435,0.7924,1.0283,0.55287,0.11943,0.1201,NaN,NaN,NaN,NaN,NaN,1.3963,101322
0.07,0.29222,8.6836,127.32,0.051527,0,9.8257,0.31059,0,0,0,18457,6.5986,NaN,199.72,NaN,0.0284,1771012,2529,0.48742,0.78978,1.026,0.55024,0.11943,0.1201,NaN,NaN,NaN,NaN,NaN,1.3963,101322
0.072,0.30958,8.9383,127.34,0.054587,0,9.8257,0.30273,0,0,0,18454,6.5983,NaN,199.72,NaN,0.029113,1815489,2529,0.51085,0.78723,1.0233,0.54769,0.11943,0.12011,NaN,NaN,NaN,NaN,NaN,1.3963,101321
0.074,0.32743,9.193,127.36,0.057735,0,9.8257,0.29525,0,0,0,18451,6.5979,NaN,199.71,NaN,0.029829,1860079,2529,0.53463,0.78475,1.0202,0.5452,0.11943,0.12012,NaN,NaN,NaN,NaN,NaN,1.3963,101321
0.076,0.34579,9.4477,127.38,0.060972,0,9.8257,0.28812,0,0,0,18448,6.5975,NaN,199.71,NaN,0.030545,1904776,2529,0.5586,0.78235,1.0165,0.54279,0.11944,0.12012,NaN,NaN,NaN,NaN,NaN,1.3963,101321
0.078,0.36465,9.7025,127.4,0.064297,0,9.8257,0.28132,0,0,0,18446,6.5972,NaN,199.71,NaN,0.031264,1949572,2529,0.58272,0.78001,1.0122,0.54044,0.11944,0.12013,NaN,NaN,NaN,NaN,NaN,1.3963,101321
0.08,0.38401,9.9574,127.42,0.067711,0,9.8257,0.27482,0,0,0,18443,6.5968,NaN,199.7,NaN,0.031984,1994461,2529,0.607,0.77773,1.0074,0.53816,0.11944,0.12013,NaN,NaN,NaN,NaN,NaN,1.3963,101320
0.082,0.40387,10.212,127.44,0.071214,0,9.8257,0.26861,0,0,0,18440,6.5964,NaN,199.7,NaN,0.032705,2039437,2529,0.63146,0.77552,1.0023,0.53594,0.11944,0.12014,NaN,NaN,NaN,NaN,NaN,1.3963,101320
0.084,0.42424,10.467,127.46,0.074805,0,9.8257,0.26266,0,0,0,18437,6.5961,NaN,199.7,NaN,0.033428,2084495,2529,0.65611,0.77336,0.99691,0.53377,0.11945,0.12015,NaN,NaN,NaN,NaN,NaN,1.3963,101320
0.086,0.44511,10.722,127.48,0.078484,0,9.8257,0.25697,0,0,0,18434,6.5957,NaN,199.69,NaN,0.034152,2129631,2529,0.68098,0.77126,0.9913,0.53166,0.11945,0.12015,NaN,NaN,NaN,NaN,NaN,1.3963,101320
0.088,0.46648,10.977,127.5,0.082252,0,9.8257,0.25151,0,0,0,18431,6.5953,NaN,199.69,NaN,0.034877,2174840,2529,0.70608,0.76921,0.98555,0.5296,0.11945,0.12016,NaN,NaN,NaN,NaN,NaN,1.3963,101320
0.09,0.48835,11.232,127.52,0.086109,0,9.8257,0.24627,0,0,0,18428,6.595,NaN,199.69,NaN,0.035603,2220118,2529,0.73142,0.76722,0.97969,0.52759,0.11946,0.12016,NaN,NaN,NaN,NaN,NaN,1.3963,101319
0.092,0.51072,11.487,127.55,0.090054,0,9.8257,0.24124,0,0,0,18426,6.5946,200.5,199.68,0.079467,0.03633,2265461,2529,0.757,0.76527,0.97378,0.52564,0.11946,0.12017,7.5744,0.60195,-1.6305e-4,0,0,1.3963,101319
0.095,0.54522,11.87,127.57,0.096144,0,9.8257,0.23438,0,2.645e-4,0,18422,6.5941,200.9,199.68,0.11872,0.037425,2333766,2529,0.7962,0.76243,0.96512,0.52278,0.11947,0.12018,7.3069,0.86728,4.5397e-4,0,4.857e-8,1.3963,101319
0.0995,0.59909,12.444,127.61,0.10568,0,9.8257,0.22481,0,8.6995e-4,-8.2694e-8,18417,6.5934,201.47,199.67,0.17473,0.039072,2436442,2529,0.85623,0.75835,0.95225,0.51868,0.11947,0.1202,6.9383,1.2126,2.2776e-4,0,4.8207e-7,1.3963,101318
0.10625,0.68466,13.306,127.66,0.12087,0,9.8257,0.21186,0,0.0022525,5.8138e-8,18409,6.5924,202.26,199.67,0.25284,0.041549,2590889,2529,0.94923,0.75262,0.93357,0.51291,0.11949,0.12022,6.4489,1.6302,2.4893e-4,0,2.8581e-6,1.3963,101317
0.11625,0.82194,14.583,127.74,0.14534,0,9.8257,0.19526,0,0.0053604,-2.1981e-7,18397,6.5909,203.32,199.65,0.35715,0.045232,2820517,2529,1.0939,0.74486,0.90781,0.50509,0.11951,0.12027,5.8368,2.085,-1.2691e-4,0,1.3657e-5,1.3963,101315
0.12625,0.97178,15.861,127.84,0.17216,0,9.8257,0.18113,0,0.0097554,-3.0808e-7,18382,6.589,204.26,199.64,0.45006,0.048929,3050961,2529,1.2473,0.73785,0.88461,0.49801,0.11953,0.12031,5.3298,2.3982,3.9753e-4,0,3.8657e-5,1.3963,101314
0.13625,1.1342,17.14,127.94,0.20133,0,9.8257,0.16896,0,0.015458,-5.2532e-7,18368,6.5872,205.1,199.62,0.53317,0.052636,3282090,2529,1.4096,0.73147,0.86391,0.49156,0.11955,0.12036,4.9032,2.6143,-2.3193e-4,0,8.3869e-5,1.3962,101312
0.14625,1.3092,18.421,128.04,0.23285,0,9.8257,0.15837,0,0.022489,-5.256e-7,18354,6.5853,205.85,199.6,0.60797,0.056353,3513801,2529,1.5812,0.72563,0.84548,0.48564,0.11958,0.12041,4.5396,2.7595,-3.5207e-4,0,1.5487e-4,1.3962,101310
0.15625,1.4968,19.702,128.13,0.26671,0,9.8257,0.14905,0,0.030866,6.923e-8,18339,6.5835,206.53,199.59,0.6757,0.060078,3746018,2529,1.7623,0.72026,0.82906,0.48018,0.11961,0.12047,4.2261,2.8555,4.3078e-4,0,2.5669e-4,1.3962,101307
0.16625,1.6969,20.984,128.23,0.30292,0,9.8257,0.1408,0,0.04061,8.3271e-7,18325,6.5816,207.15,199.57,0.73734,0.06381,3978680,2529,1.9528,0.71529,0.8144,0.47513,0.11963,0.12053,3.9531,2.9148,3.0052e-5,0,3.9388e-4,1.3962,101305
0.17625,1.9097,22.267,128.33,0.34148,0,9.8257,0.13343,0,0.051735,1.5168e-6,18311,6.5798,207.71,199.55,0.79375,0.06755,4211742,2529,2.153,0.71068,0.80125,0.47042,0.11967,0.12059,3.713,2.9462,-4.7365e-4,0,5.7043e-4,1.3961,101303
0.18625,2.1351,23.551,128.42,0.38238,0,9.8257,0.1268,0,0.064259,1.4292e-6,18296,6.5779,208.23,199.54,0.8456,0.071295,4445164,2529,2.3629,0.70638,0.78941,0.46602,0.1197,0.12066,3.5002,2.9585,5.1928e-6,0,7.8999e-4,1.396,101300
0.19625,2.3732,24.836,128.52,0.42562,0,9.8257,0.1208,0,0.078195,1.9275e-6,18282,6.5761,208.71,199.52,0.8935,0.075045,4678919,2529,2.5824,0.70236,0.7787,0.4619,0.11973,0.12073,3.3102,2.9565,1.6698e-4,0,0.0010558,1.396,101297
0.20625,2.6238,26.122,128.62,0.47122,0,9.8257,0.11534,0,0.093558,1.9818e-6,18268,6.5742,209.15,199.51,0.93793,0.078801,4912979,2529,2.8118,0.69859,0.76898,0.45801,0.11977,0.12081,3.1393,2.9434,-4.5868e-4,0,0.0013708,1.3959,101294
0.21625,2.8872,27.409,128.71,0.51915,0,9.8257,0.11034,0,0.11036,6.4242e-7,18254,6.5723,209.56,199.49,0.97931,0.082562,5147326,2529,3.0509,0.69505,0.76011,0.45435,0.11981,0.12089,2.9846,2.921,3.8764e-4,0,0.0017375,1.3958,101291
0.22625,3.1632,28.697,128.81,0.56944,0,9.8257,0.10575,0,0.12861,1.5483e-7,18239,6.5705,209.94,199.47,1.018,0.086327,5381942,2529,3.2997,0.6917,0.75199,0.45089,0.11985,0.12097,2.8439,2.8934,-3.8578e-4,0,0.0021584,1.3956,101288
0.23625,3.4518,29.986,128.9,0.62207,0,9.8257,0.1015,0,0.14832,-4.1584e-7,18225,6.5686,210.29,199.46,1.0544,0.090097,5616812,2529,3.5584,0.68855,0.74452,0.4476,0.11989,0.12106,2.7151,2.8602,2.9759e-4,0,0.0026355,1.3955,101285
0.24625,3.7532,31.276,128.99,0.67704,0,9.8257,0.097551,0,0.16949,-7.2874e-7,18211,6.5668,210.63,199.44,1.0886,0.09387,5851925,2529,3.8269,0.68556,0.73763,0.44448,0.11993,0.12115,2.5965,2.8237,-3.6559e-4,0,0.0031706,1.3953,101281
0.25625,4.0672,32.567,129.09,0.73437,0,9.8257,0.093871,0,0.19214,-7.4183e-8,18196,6.5649,210.95,199.42,1.121,0.097648,6087269,2529,4.1051,0.68272,0.73125,0.4415,0.11998,0.12124,2.4869,2.7842,4.0772e-4,0,0.0037654,1.3951,101277
0.26625,4.3939,33.858,129.18,0.79404,0,9.8257,0.090425,0,0.21627,6.0652e-8,18182,6.5631,211.25,199.41,1.1518,0.10143,6322836,2529,4.3931,0.68003,0.72532,0.43866,0.12003,0.12134,2.3851,2.7424,2.9983e-4,0,0.0044212,1.3949,101273
0.27625,4.7333,35.151,129.27,0.85607,0,9.8257,0.087183,0,0.24186,2.8436e-6,18168,6.5612,211.53,199.39,1.1811,0.10522,6558618,2529,4.6909,0.67746,0.71979,0.43595,0.12008,0.12144,2.2901,2.6995,-3.6641e-4,0,0.0051389,1.3947,101269
0.28625,5.0855,36.445,129.37,0.92045,0,9.8257,0.084123,0,0.26893,4.8823e-6,18153,6.5593,211.8,199.37,1.209,0.109,6794606,2529,4.9985,0.67502,0.71462,0.43335,0.12013,0.12154,2.201,2.6553,3.7433e-4,0,0.0059198,1.3944,101265
0.29625,5.4503,37.739,129.46,0.98718,0,9.8257,0.081223,0,0.29748,5.8723e-6,18139,6.5575,212.06,199.36,1.2359,0.1128,7030796,2529,5.3159,0.67269,0.70978,0.43085,0.12018,0.12165,2.1172,2.6101,4.7431e-4,0,0.0067644,1.3941,101261
0.30625,5.8279,39.034,129.55,1.0563,-5.4917e-9,9.8257,0.078464,0,0.32749,4.4179e-6,18125,6.5556,212.31,199.34,1.2617,0.11659,7267182,2529,5.643,0.67046,0.70522,0.42846,0.12023,0.12177,2.038,2.5632,-1.0812e-4,0,0.007673,1.3938,101257
0.31625,6.2183,40.331,129.64,1.1277,-7.075e-9,9.8257,0.07583,0,0.35895,3.7987e-6,18110,6.5537,212.55,199.32,1.2866,0.12039,7503758,2529,5.9799,0.66833,0.70092,0.42615,0.12029,0.12188,1.9629,2.5164,-1.3282e-4,0,0.0086453,1.3934,101252
0.32625,6.6214,41.628,129.74,1.2016,-9.0554e-9,9.8257,0.073306,0,0.39184,5.3114e-6,18096,6.5519,212.78,199.31,1.3107,0.1242,7740520,2529,6.3265,0.66629,0.69686,0.42393,0.12035,0.12201,1.8913,2.4691,2.8664e-4,0,0.0096812,1.3931,101247
0.33625,7.0372,42.926,129.83,1.2778,-1.1505e-8,9.8257,0.07088,0,0.42615,3.3787e-6,18082,6.55,213,199.29,1.3341,0.128,7977464,2529,6.6899,0.66504,0.69376,0.4225,0.12041,0.12213,1.823,2.4213,2.1812e-4,0,0.01078,1.3926,101242
0.34625,7.4658,44.225,129.92,1.3563,-1.4493e-8,9.8257,0.06854,0,0.46186,7.4017e-7,18068,6.5481,213.22,199.27,1.3569,0.13181,8214584,2529,7.078,0.66519,0.69222,0.42246,0.12047,0.12226,1.7574,2.373,-5.1196e-5,0,0.011941,1.3922,101237
0.35625,7.9072,45.525,130,1.4373,-1.8043e-8,9.8257,0.066276,0,0.49893,-2.8546e-7,18053,6.5463,213.43,199.26,1.3792,0.13563,8451877,2529,7.4773,0.66534,0.69077,0.42241,0.12054,0.12239,1.6944,2.3234,1.0789e-4,0,0.013162,1.3917,101232
0.36625,8.3614,46.826,130.09,1.5207,-2.2161e-8,9.8257,0.064079,0,0.53732,-2.3881e-6,18039,6.5444,213.64,199.24,1.401,0.13944,8689339,2529,7.8881,0.6655,0.68941,0.42237,0.1206,0.12253,1.6335,2.2738,-2.9388e-4,0,0.014442,1.3911,101227
0.37625,8.8283,48.128,130.18,1.6064,-2.6839e-8,9.8257,0.061939,0,0.57701,-1.796e-6,18025,6.5425,213.84,199.22,1.4224,0.14326,8926966,2529,8.3102,0.66566,0.68814,0.42232,0.12067,0.12267,1.5745,2.2235,1.7405e-4,0,0.015778,1.3905,101221
0.38625,9.3081,49.431,130.27,1.6946,-3.2047e-8,9.8257,0.059851,0,0.61793,-3.0316e-6,18010,6.5406,214.04,199.21,1.4434,0.14708,9164757,2529,8.7438,0.66583,0.68693,0.42228,0.12074,0.12281,1.5173,2.1726,-2.6867e-4,0,0.017168,1.3899,101216
0.39625,9.8007,50.734,130.36,1.7851,-3.7734e-8,9.8257,0.057806,0,0.66005,-7.4989e-6,17996,6.5388,214.24,199.19,1.4642,0.15091,9402707,2529,9.1888,0.666,0.6858,0.42223,0.12081,0.12296,1.4615,2.1213,-3.3124e-4,0,0.018607,1.3892,101210
0.40625,10.306,52.038,130.45,1.8781,-4.3811e-8,9.8256,0.0558,0,0.70329,-7.8374e-6,17982,6.5369,214.43,199.17,1.4847,0.15474,9640816,2529,9.6452,0.66618,0.68473,0.42218,0.12089,0.12311,1.4071,2.0687,3.7533e-4,0,0.020093,1.3885,101204
0.41625,10.824,53.344,130.53,1.9735,-5.0141e-8,9.8256,0.053825,0,0.7476,-7.6364e-6,17967,6.535,214.63,199.15,1.505,0.15857,9879079,2529,10.113,0.66636,0.68371,0.42213,0.12096,0.12327,1.3538,2.0155,1.9229e-4,0,0.021621,1.3878,101198
0.42625,11.355,54.65,130.62,2.0714,-5.6603e-8,9.8256,0.051878,0,0.7929,-1.0497e-5,17953,6.5331,214.82,199.14,1.5252,0.1624,10117494,2529,10.593,0.66655,0.68275,0.42208,0.12104,0.12343,1.3014,1.9613,4.2608e-4,0,0.023186,1.387,101192
0.43625,11.899,55.957,130.7,2.1717,-6.3039e-8,9.8256,0.049954,0,0.83909,-9.2252e-6,17939,6.5313,215.01,199.12,1.5453,0.16624,10356060,2529,11.083,0.66674,0.68184,0.42202,0.12112,0.12359,1.25,1.9071,1.0241e-4,0,0.024781,1.3861,101185
0.44625,12.456,57.264,130.79,2.2745,-6.9262e-8,9.8256,0.048049,0,0.88609,-1.2365e-5,17925,6.5294,215.19,199.1,1.5653,0.17008,10594773,2529,11.586,0.66693,0.68097,0.42197,0.1212,0.12376,1.1993,1.8505,2.9333e-4,0,0.026401,1.3852,101179
0.45625,13.025,58.573,130.88,2.3797,-7.507e-8,9.8256,0.046159,0,0.93378,-1.983e-5,17910,6.5275,215.38,199.09,1.5853,0.17392,10833632,2529,12.1,0.66713,0.68015,0.42191,0.12129,0.12393,1.1492,1.7936,9.9445e-5,0,0.028039,1.3842,101172
0.46625,13.608,59.883,130.96,2.4875,-8.0193e-8,9.8256,0.044281,0,0.98207,-1.7744e-5,17896,6.5256,215.57,199.07,1.6052,0.17777,11072634,2529,12.626,0.66733,0.67938,0.42185,0.12137,0.12411,1.0997,1.7353,-3.8083e-4,0,0.029687,1.3832,101165
0.47625,14.203,61.193,131.04,2.5978,-8.4333e-8,9.8256,0.042412,0,1.0308,-2.0744e-5,17882,6.5237,215.76,199.05,1.6252,0.18162,11311777,2529,13.163,0.66754,0.67865,0.4218,0.12146,0.12429,1.0507,1.6759,4.8722e-4,0,0.031337,1.3822,101158
0.48625,14.811,62.504,131.13,2.7106,-8.717e-8,9.8256,0.04055,0,1.0799,-2.8968e-5,17867,6.5219,215.95,199.03,1.6452,0.18547,11551059,2529,13.713,0.66776,0.67796,0.42174,0.12155,0.12447,1.0021,1.6159,-1.8575e-4,0,0.032979,1.3811,101151
0.49625,15.432,63.816,131.21,2.8259,-8.8322e-8,9.8256,0.038692,0,1.1292,-2.3873e-5,17853,6.52,216.14,199.02,1.6653,0.18932,1.179e7,2529,14.274,0.66797,0.67731,0.42167,0.12164,0.12466,0.95381,1.5541,-3.903e-4,0,0.034605,1.3799,101144
0.50625,16.066,65.129,131.3,2.9438,-8.7378e-8,9.8256,0.036837,0,1.1785,-2.0144e-5,17839,6.5181,216.33,199,1.6855,0.19318,1.203e7,2529,14.847,0.6682,0.6767,0.42161,0.12173,0.12485,0.90584,1.4902,1.9897e-5,0,0.036204,1.3787,101137
0.51625,16.713,66.443,131.38,3.0643,-8.4e-8,9.8256,0.034984,0,1.2277,-1.7629e-5,17824,6.5162,216.52,198.98,1.7057,0.19704,1.227e7,2529,15.432,0.66842,0.67613,0.42155,0.12183,0.12505,0.85813,1.4263,-3.6546e-5,0,0.037764,1.3775,101129
0.52625,17.372,67.757,131.46,3.1874,-7.7959e-8,9.8256,0.03313,0,1.2765,-1.3199e-5,17810,6.5143,216.71,198.97,1.726,0.2009,1.251e7,2529,16.029,0.66866,0.6756,0.42148,0.12193,0.12525,0.81064,1.3602,-4.0595e-6,0,0.039276,1.3761,101121
0.53625,18.045,69.072,131.54,3.3131,-6.9077e-8,9.8256,0.031276,0,1.3249,-1.597e-5,17796,6.5124,216.9,198.95,1.7465,0.20477,12749474,2529,16.639,0.66889,0.67511,0.42142,0.12202,0.12545,0.76337,1.2923,4.8592e-4,0,0.040727,1.3748,101113
0.54625,18.73,70.388,131.62,3.4414,-5.7182e-8,9.8256,0.02942,0,1.3725,-2.2138e-5,17781,6.5105,217.1,198.93,1.7671,0.20864,1.299e7,2529,17.26,0.66913,0.67466,0.42135,0.12213,0.12566,0.71628,1.2234,4.3435e-4,0,0.042103,1.3734,101105
0.55625,19.428,71.705,131.71,3.5724,-4.2031e-8,9.8256,0.027562,0,1.4193,-2.414e-5,17767,6.5087,217.29,198.91,1.7878,0.21251,1.323e7,2529,17.895,0.66938,0.67426,0.42128,0.12223,0.12587,0.66939,1.153,-4.8062e-4,0,0.043394,1.3719,101097
0.56625,20.14,73.022,131.79,3.7062,-2.3334e-8,9.8256,0.025703,0,1.4648,-2.5028e-5,17753,6.5068,217.49,198.9,1.8086,0.21638,1.347e7,2529,18.541,0.66963,0.67389,0.42121,0.12233,0.12609,0.62268,1.0821,1.9862e-4,0,0.044586,1.3704,101089
0.57625,20.864,74.341,131.87,3.8426,0,9.8256,0.023843,0,1.509,-3.0258e-5,17739,6.5049,217.69,198.88,1.8296,0.22026,1.371e7,2529,19.201,0.66989,0.67357,0.42114,0.12244,0.12631,0.57617,1.0089,-4.9192e-5,0,0.045667,1.3688,101080
0.58625,21.601,75.66,131.95,3.9818,2.5713e-8,9.8256,0.021983,0,1.5516,-2.7386e-5,17724,6.503,217.89,198.86,1.8506,0.22414,13951020,2529,19.873,0.67015,0.67329,0.42107,0.12255,0.12653,0.52987,0.93398,-1.098e-5,0,0.046622,1.3672,101072
0.59625,22.351,76.98,132.03,4.1238,5.6689e-8,9.8256,0.020123,0,1.5922,-2.3271e-5,17710,6.5011,218.09,198.84,1.8718,0.22802,14191678,2529,20.558,0.67041,0.67306,0.42099,0.12266,0.12676,0.48382,0.85767,2.7412e-5,0,0.047439,1.3656,101063
0.60625,23.113,78.3,132.1,4.2685,9.2285e-8,9.8256,0.018265,0,1.6306,-2.0589e-5,17696,6.4992,218.29,198.83,1.893,0.2319,14432445,2529,21.257,0.67068,0.67287,0.42092,0.12277,0.12699,0.43804,0.78131,-6.6502e-5,0,0.048106,1.3639,101054
0.61625,23.889,79.621,132.18,4.4161,1.3259e-7,9.8256,0.01641,0,1.6667,-2.7683e-5,17681,6.4973,218.49,198.81,1.9144,0.23579,14673320,2529,21.969,0.67095,0.67273,0.42084,0.12289,0.12723,0.39256,0.70293,3.4803e-4,0,0.048613,1.3622,101045
0.62625,24.678,80.943,132.26,4.5666,1.777e-7,9.8256,0.01456,0,1.7,-2.8924e-5,17667,6.4954,218.69,198.79,1.9358,0.23968,14914299,2529,22.694,0.67123,0.67264,0.42076,0.12301,0.12747,0.34744,0.62322,-3.9552e-4,0,0.048947,1.3604,101036
0.63625,25.479,82.266,132.34,4.72,2.2768e-7,9.8256,0.012718,0,1.7302,-3.3841e-5,17653,6.4935,218.89,198.77,1.9572,0.24357,15155379,2529,23.433,0.67152,0.6726,0.42068,0.12312,0.12771,0.30273,0.54372,-4.6976e-4,0,0.049098,1.3586,101026
0.64625,26.294,83.589,132.42,4.8763,2.8262e-7,9.8256,0.010886,0,1.7571,-1.1881e-5,17638,6.4916,219.1,198.76,1.9786,0.24746,15396558,2529,24.186,0.67181,0.6726,0.4206,0.12325,0.12796,0.25847,0.46199,-3.8606e-5,0,0.049058,1.3568,101017
0.65625,27.121,84.913,132.49,5.0356,3.4235e-7,9.8256,0.0090671,0,1.7804,-1.8783e-7,17624,6.4897,219.3,198.74,2,0.25136,15637831,2529,24.954,0.6721,0.67265,0.42052,0.12337,0.12821,0.21475,0.3804,5.3325e-5,0,0.048819,1.3549,101007
0.66625,27.961,86.238,132.57,5.1978,4.0633e-7,9.8256,0.0072638,0,1.7998,-9.7271e-7,17610,6.4878,219.5,198.72,2.0213,0.25525,15879197,2529,25.735,0.6724,0.67275,0.42043,0.12349,0.12847,0.17161,0.29868,-2.8102e-4,0,0.048375,1.3531,100997
0.67625,28.814,87.563,132.65,5.3631,4.739e-7,9.8256,0.0054799,0,1.8149,1.339e-5,17596,6.4859,219.7,198.7,2.0425,0.25916,16120651,2529,26.531,0.6727,0.6729,0.42035,0.12362,0.12873,0.12915,0.21652,-2.2304e-4,0,0.047722,1.3512,100987
0.68625,29.68,88.889,132.72,5.5315,5.4429e-7,9.8256,0.0037189,0,1.8255,2.9563e-5,17581,6.484,219.9,198.69,2.0636,0.26306,16362191,2529,27.341,0.67301,0.6731,0.42026,0.12375,0.129,0.087439,0.13369,-3.5861e-4,0,0.046859,1.3493,100977
0.69625,30.559,90.216,132.8,5.703,6.1656e-7,9.8256,0.0019849,0,1.8312,4.8773e-5,17567,6.4821,220.1,198.67,2.0845,0.26696,16603813,2529,28.166,0.67332,0.67335,0.42018,0.12388,0.12927,0.046558,0.051674,-3.6432e-4,0,0.045786,1.3474,100967
0.70625,31.451,91.543,132.87,5.8776,6.8981e-7,9.8256,2.8199e-4,0,1.8319,4.1395e-4,17553,6.4802,220.29,198.65,2.1052,0.27087,16845514,2529,29.006,0.67364,0.67364,0.42009,0.12401,0.12954,0.006599,-0.030381,2.6208e-4,0,0.044507,1.3454,100956
0.71625,32.356,92.871,132.94,6.0554,7.6304e-7,9.8256,0.0013854,0,-1.8272,9.3108e-5,17538,6.4783,220.17,198.63,2.0952,0.27478,17087290,2529,29.861,0.67396,0.67397,0.42,0.12415,0.12982,0.03248,0.11096,9.2101e-6,0,-0.043029,1.3435,100946
0.72625,33.274,94.2,133.02,6.2365,8.3535e-7,9.8256,0.0030127,0,-1.8169,3.369e-5,17524,6.4763,219.99,198.61,2.0795,0.27869,17329139,2529,30.731,0.67429,0.67435,0.4199,0.12429,0.1301,0.070811,0.18868,-4.7054e-4,0,-0.041363,1.3416,100935
0.73625,34.204,95.529,133.09,6.4208,9.0578e-7,9.8256,0.004595,0,-1.8011,3.2779e-5,17510,6.4744,219.82,198.6,2.0645,0.28261,17571057,2529,31.616,0.67462,0.67476,0.41981,0.12442,0.13038,0.10827,0.26313,2.6844e-4,0,-0.039527,1.3397,100924
0.74625,35.148,96.858,133.16,6.6083,9.7332e-7,9.8256,0.0061277,0,-1.7795,1.6719e-5,17495,6.4725,219.65,198.58,2.05,0.28652,17813040,2529,32.517,0.67496,0.67521,0.41972,0.12457,0.13067,0.14474,0.33427,-1.2167e-4,0,-0.037539,1.3378,100913
0.75625,36.104,98.188,133.23,6.7993,1.037e-6,9.8256,0.0076059,0,-1.7522,2.3571e-5,17481,6.4706,219.49,198.56,2.0363,0.29044,18055087,2529,33.432,0.6753,0.67569,0.41962,0.12471,0.13097,0.18008,0.40164,-2.6853e-6,0,-0.035422,1.336,100902
0.76625,37.073,99.519,133.3,6.9935,1.0957e-6,9.8256,0.0090249,0,-1.7191,2.634e-5,17467,6.4687,219.34,198.54,2.0232,0.29436,18297192,2529,34.362,0.67564,0.67619,0.41952,0.12485,0.13126,0.21416,0.46699,2.2709e-4,0,-0.033196,1.3342,100890
0.77625,38.055,100.85,133.37,7.1912,1.1487e-6,9.8256,0.01038,0,-1.6802,1.2837e-5,17452,6.4668,219.2,198.52,2.011,0.29828,18539355,2529,35.307,0.67599,0.67672,0.41943,0.125,0.13157,0.24686,0.52685,3.9042e-4,0,-0.030882,1.3324,100879
0.78625,39.05,102.18,133.44,7.3924,1.1948e-6,9.8256,0.011667,0,-1.6355,6.8033e-6,17438,6.4649,219.06,198.51,1.9995,0.3022,18781571,2529,36.267,0.67635,0.67727,0.41933,0.12515,0.13187,0.27803,0.58484,4.0081e-4,0,-0.028509,1.3307,100867
0.79625,40.058,103.51,133.51,7.597,1.233e-6,9.8256,0.012881,0,-1.5851,-1.4983e-5,17424,6.463,218.93,198.49,1.9888,0.30613,19023839,2529,37.241,0.67671,0.67783,0.41923,0.1253,0.13218,0.30756,0.63818,3.2639e-4,0,-0.026097,1.329,100855
0.80625,41.079,104.85,133.58,7.8052,1.2617e-6,9.8256,0.014017,0,-1.5291,2.2754e-6,17410,6.461,218.81,198.47,1.979,0.31005,19266155,2529,38.23,0.67708,0.67839,0.41912,0.12546,0.1325,0.33531,0.68685,4.7993e-4,0,-0.023673,1.3273,100843
0.81625,42.113,106.18,133.64,8.0169,1.2796e-6,9.8256,0.015072,0,-1.4674,8.5239e-6,17395,6.4591,218.7,198.45,1.9701,0.31398,19508518,2529,39.234,0.67745,0.67897,0.41902,0.12561,0.13282,0.36117,0.73232,-3.8292e-4,0,-0.021261,1.3258,100831
0.82625,43.159,107.51,133.71,8.2322,1.2854e-6,9.8255,0.016041,0,-1.4004,7.8613e-6,17381,6.4572,218.61,198.43,1.9622,0.31791,19750924,2529,40.251,0.67782,0.67954,0.41891,0.12577,0.13314,0.38502,0.77477,-4.2512e-4,0,-0.018887,1.3243,100819
0.83625,44.219,108.85,133.78,8.4511,1.2781e-6,9.8255,0.016921,0,-1.328,1.7438e-5,17367,6.4553,218.52,198.42,1.9552,0.32185,19993373,2529,41.283,0.6782,0.68011,0.41881,0.12593,0.13347,0.40673,0.81218,-6.7485e-5,0,-0.016573,1.3228,100806
0.84625,45.291,110.18,133.84,8.6736,1.257e-6,9.8255,0.017708,0,-1.2505,4.8587e-6,17352,6.4533,218.44,198.4,1.9492,0.32578,20235862,2529,42.328,0.67859,0.68068,0.4187,0.12609,0.1338,0.42622,0.8448,-4.7359e-4,0,-0.014343,1.3215,100794
0.85625,46.376,111.52,133.9,8.8999,1.2212e-6,9.8255,0.018398,0,-1.1681,3.084e-6,17338,6.4514,218.37,198.38,1.9443,0.32972,20478389,2529,43.387,0.67898,0.68123,0.41859,0.12625,0.13413,0.44338,0.87388,-9.8367e-5,0,-0.012218,1.3202,100781
0.86625,47.474,112.86,133.97,9.1299,1.1699e-6,9.8255,0.01899,0,-1.0811,1.6968e-5,17324,6.4495,218.31,198.36,1.9404,0.33365,20720954,2529,44.459,0.67937,0.68177,0.41848,0.12642,0.13447,0.45811,0.89957,3.1714e-5,0,-0.01022,1.319,100768
0.87625,48.585,114.19,134.03,9.3636,1.1023e-6,9.8255,0.019479,0,-0.98967,3.4248e-6,17309,6.4476,218.26,198.34,1.9375,0.33759,20963556,2529,45.544,0.67977,0.68229,0.41837,0.12659,0.13482,0.47034,0.91946,-1.1119e-4,0,-0.0083663,1.318,100755
0.88625,49.709,115.53,134.09,9.601,1.0177e-6,9.8255,0.019863,0,-0.8942,1.34e-5,17295,6.4456,218.22,198.32,1.9358,0.34153,21206192,2529,46.641,0.68018,0.6828,0.41826,0.12676,0.13516,0.48,0.93614,-3.0363e-4,0,-0.0066735,1.317,100742
0.89625,50.846,116.87,134.15,9.8423,9.1555e-7,9.8255,0.020141,0,-0.795,2.1974e-5,17281,6.4437,218.2,198.31,1.9352,0.34548,21448862,2529,47.752,0.68059,0.68328,0.41814,0.12693,0.13552,0.48703,0.94772,-5.3828e-5,0,-0.0051554,1.3161,100729
0.90625,51.995,118.2,134.21,10.087,7.9565e-7,9.8255,0.020312,0,-0.69249,3.9609e-5,17267,6.4418,218.19,198.29,1.9357,0.34942,21691566,2529,48.875,0.681,0.68374,0.41802,0.1271,0.13587,0.49138,0.95529,-4.8801e-4,0,-0.0038239,1.3153,100715
0.91625,53.158,119.54,134.26,10.336,6.582e-7,9.8255,0.020373,0,-0.58703,3.6598e-5,17252,6.4399,218.18,198.27,1.9373,0.35337,21934303,2529,50.01,0.68142,0.68418,0.41791,0.12728,0.13623,0.49302,0.95765,4.4164e-4,0,-0.0026869,1.3146,100702
0.92625,54.333,120.88,134.32,10.589,5.0362e-7,9.8255,0.020324,0,-0.47909,5.6429e-6,17238,6.4379,218.19,198.25,1.9401,0.35731,22177072,2529,51.158,0.68184,0.68459,0.41779,0.12746,0.1366,0.49193,0.95581,2.5971e-4,0,-0.0017504,1.3141,100688
0.93625,55.521,122.22,134.37,10.846,3.3189e-7,9.8255,0.020166,0,-0.3692,5.2169e-6,17224,6.436,218.22,198.23,1.944,0.36126,2.242e7,2529,52.317,0.68227,0.68498,0.41767,0.12764,0.13697,0.4881,0.95013,-1.3718e-4,0,-0.0010169,1.3136,100674
0.94625,56.722,123.56,134.43,11.106,1.4278e-7,9.8255,0.019898,0,-0.25784,4.0337e-6,17209,6.4341,218.25,198.21,1.949,0.36522,22662705,2529,53.489,0.68271,0.68535,0.41755,0.12782,0.13734,0.48155,0.93913,3.3948e-4,0,-4.8533e-4,1.3133,100660
0.95625,57.936,124.9,134.48,11.37,-6.3894e-8,9.8255,0.019522,0,-0.14565,-3.4414e-6,17195,6.4321,218.29,198.2,1.9552,0.36917,22905568,2529,54.673,0.68315,0.68569,0.41742,0.12801,0.13772,0.47231,0.92321,2.9667e-4,0,-1.5158e-4,1.3131,100646
0.96625,59.163,126.24,134.53,11.639,-2.8839e-7,9.8255,0.019038,0,-0.033206,-3.8838e-5,17181,6.4302,218.35,198.18,1.9625,0.37312,23148461,2529,55.869,0.68359,0.68602,0.4173,0.12819,0.1381,0.46041,0.90394,-4.7496e-4,0,-7.7124e-6,1.313,100631
0.97625,60.402,127.59,134.58,11.911,-5.312e-7,9.8255,0.01845,0,0.078877,-4.3386e-5,17166,6.4282,218.42,198.16,1.9709,0.37708,23391385,2529,57.077,0.68404,0.68632,0.41717,0.12838,0.13848,0.44592,0.87851,8.4865e-5,0,4.2609e-5,1.313,100617
0.98625,61.655,128.93,134.62,12.187,-7.9334e-7,9.8255,0.01776,0,0.18986,-4.8195e-5,17152,6.4263,218.5,198.14,1.9803,0.38104,23634338,2529,58.298,0.68449,0.68661,0.41705,0.12857,0.13887,0.42893,0.84966,1.4475e-4,0,2.4176e-4,1.3132,100602
0.99625,62.92,130.27,134.67,12.467,-1.0761e-6,9.8255,0.016971,0,0.29896,-8.495e-5,17138,6.4244,218.59,198.12,1.9908,0.385,23877319,2529,59.532,0.68495,0.68689,0.41692,0.12876,0.13927,0.40952,0.8146,1.5506e-4,0,5.8722e-4,1.3134,100587
1.0063,64.198,131.62,134.71,12.75,-1.381e-6,9.8255,0.016088,0,0.40545,-1.2765e-4,17124,6.4224,218.69,198.1,2.0023,0.38896,2.412e7,2529,60.778,0.68542,0.68716,0.41679,0.12896,0.13967,0.38782,0.77568,1.8824e-4,0,0.0010582,1.3138,100572
1.0163,65.49,132.96,134.76,13.038,-1.7106e-6,9.8255,0.015116,0,0.5085,-1.5011e-4,17109,6.4205,218.8,198.08,2.0148,0.39292,24363361,2529,62.038,0.68589,0.68743,0.41666,0.12916,0.14007,0.36398,0.7321,-4.7214e-4,0,0.0016311,1.3143,100557
1.0263,66.794,134.31,134.8,13.329,-2.0679e-6,9.8255,0.01406,0,0.6072,-1.2266e-4,17095,6.4185,218.91,198.06,2.0281,0.39689,24606420,2529,63.312,0.68636,0.6877,0.41653,0.12936,0.14048,0.33813,0.68389,-1.6129e-4,0,0.0022796,1.3149,100542
1.0363,68.111,135.65,134.84,13.625,-2.4558e-6,9.8255,0.012927,0,0.70076,-1.2127e-4,17081,6.4166,219.04,198.05,2.0423,0.40086,2.485e7,2529,64.599,0.68684,0.68798,0.41639,0.12956,0.14089,0.31047,0.63111,4.9958e-4,0,0.0029765,1.3155,100526
1.0463,69.441,137,134.88,13.924,-2.8764e-6,9.8255,0.011725,0,0.78833,-1.7343e-4,17066,6.4146,219.18,198.03,2.0573,0.40482,25092602,2529,65.902,0.68732,0.68826,0.41626,0.12976,0.1413,0.28119,0.57503,-6.8833e-5,0,0.0036934,1.3163,100511
1.0563,70.784,138.34,134.91,14.227,-3.3324e-6,9.8255,0.010461,0,0.86904,-2.0785e-4,17052,6.4127,219.32,198.01,2.073,0.4088,25335720,2529,67.22,0.68781,0.68856,0.41612,0.12997,0.14172,0.25048,0.51502,8.084e-7,0,0.0044018,1.3172,100495
1.0663,72.14,139.69,134.95,14.533,-3.8267e-6,9.8255,0.0091438,0,0.94204,-2.3978e-4,17038,6.4108,219.47,197.99,2.0893,0.41277,25578854,2529,68.553,0.68831,0.68888,0.41598,0.13017,0.14215,0.2186,0.45122,-1.6369e-4,0,0.0050735,1.3181,100479
1.0763,73.509,141.04,134.98,14.844,-4.3624e-6,9.8255,0.0077834,0,1.0065,-2.6412e-4,17023,6.4088,219.62,197.97,2.1061,0.41674,25821999,2529,69.903,0.6888,0.68922,0.41584,0.13038,0.14258,0.18576,0.38523,-3.6927e-4,0,0.0056818,1.3192,100463
1.0863,74.891,142.39,135.02,15.158,-4.9426e-6,9.8255,0.0063896,0,1.0616,-2.9876e-4,17009,6.4069,219.78,197.95,2.1234,0.42072,26065151,2529,71.269,0.68931,0.68959,0.4157,0.1306,0.14301,0.15223,0.31748,2.7027e-4,0,0.0062027,1.3202,100447
1.0963,76.286,143.74,135.05,15.475,-5.5695e-6,9.8254,0.0049731,0,1.1067,-3.9041e-4,16995,6.4049,219.94,197.93,2.1409,0.42469,26308308,2529,72.653,0.68982,0.68999,0.41556,0.13081,0.14345,0.11828,0.24698,-1.3276e-4,0,0.0066154,1.3214,100430
1.1063,77.693,145.09,135.08,15.797,-6.245e-6,9.8254,0.0035451,0,1.1411,-4.996e-4,16980,6.4029,220.1,197.91,2.1586,0.42867,26551465,2529,74.055,0.69033,0.69042,0.41542,0.13103,0.14389,0.084166,0.17454,-4.6987e-4,0,0.0069026,1.3226,100414
1.1163,79.114,146.44,135.11,16.122,-6.9705e-6,9.8254,0.0021174,0,1.164,-8.2091e-4,16966,6.401,220.27,197.89,2.1764,0.43265,26794618,2529,75.474,0.69085,0.69088,0.41527,0.13125,0.14433,0.05018,0.1018,-4.7136e-5,0,0.007052,1.3238,100397
1.1263,80.548,147.79,135.14,16.45,-7.7468e-6,9.8254,7.0181e-4,0,1.1752,-0.0023907,16952,6.399,220.43,197.88,2.1942,0.43663,27037762,2529,76.911,0.69137,0.69138,0.41512,0.13147,0.14478,0.016603,0.029513,-3.4478e-4,0,0.0070572,1.325,100380
1.1363,81.995,149.14,135.17,16.782,-8.5736e-6,9.8254,6.8969e-4,0,-1.1748,-0.0023891,16938,6.3971,220.44,197.86,2.1967,0.44061,27280894,2529,78.367,0.6919,0.69191,0.41498,0.13169,0.14524,0.016321,0.042724,-4.3585e-5,0,-0.0069261,1.3262,100363
1.1463,83.455,150.49,135.2,17.118,-9.4508e-6,9.8254,0.0020446,0,-1.1611,-7.8057e-4,16923,6.3951,220.29,197.84,2.1845,0.4446,27524008,2529,79.842,0.69244,0.69247,0.41483,0.13191,0.1457,0.048497,0.11248,1.4059e-5,0,-0.0066449,1.3274,100346
1.1563,84.929,151.84,135.23,17.457,-1.0378e-5,9.8254,0.0033503,0,-1.135,-4.6824e-4,16909,6.3932,220.15,197.82,2.1728,0.44858,27767100,2529,81.334,0.69298,0.69306,0.41468,0.13214,0.14616,0.079642,0.17938,-4.8964e-4,0,-0.0062371,1.3286,100329
1.1663,86.415,153.19,135.26,17.799,-1.1355e-5,9.8254,0.0045948,0,-1.0965,-3.1259e-4,16895,6.3912,220.02,197.8,2.1619,0.45257,2.801e7,2529,82.845,0.69352,0.69367,0.41452,0.13237,0.14663,0.10946,0.24239,-1.8255e-4,0,-0.0057199,1.3298,100311
1.1763,87.914,154.55,135.28,18.145,-1.238e-5,9.8254,0.0057665,0,-1.0461,-2.3473e-4,16880,6.3892,219.9,197.78,2.1518,0.45656,28253204,2529,84.373,0.69407,0.6943,0.41437,0.1326,0.1471,0.13765,0.30088,-2.757e-4,0,-0.0051155,1.3309,100294
1.1863,89.427,155.9,135.31,18.494,-1.3454e-5,9.8254,0.0068547,0,-0.98415,-1.5547e-4,16866,6.3873,219.79,197.76,2.1427,0.46054,28496207,2529,85.919,0.69462,0.69495,0.41422,0.13284,0.14757,0.16393,0.35539,5.6873e-5,0,-0.0044498,1.332,100276
1.1963,90.952,157.25,135.34,18.847,-1.4576e-5,9.8254,0.0078493,0,-0.91108,-1.4497e-4,16852,6.3853,219.68,197.74,2.1346,0.46453,28739173,2529,87.481,0.69518,0.69561,0.41406,0.13307,0.14805,0.18805,0.40472,-2.2627e-4,0,-0.0037484,1.333,100258
1.2063,92.491,158.61,135.36,19.203,-1.5747e-5,9.8254,0.0087407,0,-0.82764,-1.4804e-4,16837,6.3833,219.59,197.72,2.1276,0.46852,28982100,2529,89.06,0.69575,0.69628,0.4139,0.13331,0.14854,0.20975,0.4496,3.6901e-4,0,-0.0030409,1.3339,100240
1.2163,94.043,159.96,135.39,19.562,-1.6964e-5,9.8254,0.0095208,0,-0.7345,-1.6372e-4,16823,6.3814,219.52,197.7,2.1219,0.47251,29224984,2529,90.654,0.69632,0.69695,0.41374,0.13355,0.14903,0.2288,0.48798,-3.3503e-4,0,-0.0023548,1.3347,100222
1.2263,95.608,161.31,135.41,19.924,-1.8227e-5,9.8254,0.010182,0,-0.63258,-1.607e-4,16809,6.3794,219.45,197.68,2.1175,0.47651,29467823,2529,92.263,0.69689,0.69761,0.41358,0.13379,0.14952,0.245,0.52087,3.2592e-4,0,-0.0017175,1.3354,100204
1.2363,97.186,162.67,135.44,20.289,-1.9532e-5,9.8254,0.010718,0,-0.52285,-1.4453e-4,16795,6.3774,219.4,197.66,2.1143,0.4805,29710615,2529,93.887,0.69747,0.69827,0.41342,0.13404,0.15001,0.25819,0.54707,-3.2426e-4,0,-0.001154,1.336,100185
1.2463,98.777,164.02,135.46,20.658,-2.0874e-5,9.8254,0.011125,0,-0.40642,-1.7704e-4,16780,6.3755,219.36,197.64,2.1126,0.48449,29953360,2529,95.524,0.69806,0.69892,0.41326,0.13428,0.15052,0.26823,0.56733,-3.4901e-4,0,-6.8584e-4,1.3365,100167
1.2563,100.38,165.38,135.49,21.03,-2.225e-5,9.8254,0.011397,0,-0.28439,-1.2893e-4,16766,6.3735,219.34,197.62,2.1123,0.48849,30196055,2529,97.175,0.69865,0.69955,0.41309,0.13453,0.15102,0.275,0.58072,-2.85e-5,0,-3.3036e-4,1.3369,100148
1.2663,102,166.73,135.51,21.404,-2.3654e-5,9.8254,0.011533,0,-0.15808,-6.6251e-5,16752,6.3715,219.33,197.6,2.1134,0.49248,30438701,2529,98.84,0.69924,0.70017,0.41293,0.13478,0.15153,0.27844,0.58832,-1.3929e-4,0,-1.0043e-4,1.3371,100129
1.2763,103.63,168.09,135.54,21.783,-2.5083e-5,9.8254,0.011533,0,-0.028773,-2.6407e-5,16737,6.3695,219.34,197.59,2.116,0.49648,30681295,2529,100.52,0.69984,0.70077,0.41276,0.13503,0.15204,0.27852,0.58951,-1.0241e-4,0,-3.2738e-6,1.3372,100110
1.2863,105.27,169.45,135.56,22.164,-2.6535e-5,9.8254,0.011395,0,0.10214,-3.9531e-5,16723,6.3676,219.36,197.57,2.12,0.50048,30923838,2529,102.21,0.70044,0.70135,0.41259,0.13529,0.15256,0.27525,0.5832,-1.6778e-4,0,4.0604e-5,1.3372,100090
1.2963,106.93,170.8,135.58,22.548,-2.801e-5,9.8254,0.011123,0,0.23303,3.9821e-6,16709,6.3656,219.4,197.55,2.1255,0.50447,31166330,2529,103.91,0.70105,0.70192,0.41242,0.13555,0.15308,0.26867,0.57126,4.4718e-4,0,2.08e-4,1.337,100071
1.3063,108.6,172.16,135.6,22.935,-2.9506e-5,9.8253,0.010721,0,0.3624,-7.6296e-6,16694,6.3636,219.45,197.53,2.1324,0.50847,31408769,2529,105.63,0.70167,0.70247,0.41225,0.13581,0.15361,0.25888,0.55204,-2.0341e-4,0,4.9521e-4,1.3367,100051
1.3163,110.29,173.52,135.63,23.326,-3.1024e-5,9.8253,0.010192,0,0.48854,-3.2148e-5,16680,6.3616,219.51,197.51,2.1407,0.51247,31651155,2529,107.36,0.70229,0.70302,0.41208,0.13607,0.15414,0.24603,0.52584,4.0497e-4,0,8.8598e-4,1.3363,100032
1.3263,111.98,174.87,135.65,23.72,-3.2561e-5,9.8253,0.0095447,0,0.60974,-8.7235e-5,16666,6.3596,219.59,197.49,2.1504,0.51648,31893487,2529,109.1,0.70291,0.70355,0.4119,0.13633,0.15468,0.23027,0.49334,2.5794e-4,0,0.0013588,1.3357,100012
1.3363,113.69,176.23,135.67,24.116,-3.4115e-5,9.8253,0.0087872,0,0.7244,-1.1771e-4,16651,6.3577,219.68,197.47,2.1613,0.52048,32135764,2529,110.86,0.70354,0.70409,0.41173,0.1366,0.15522,0.21184,0.45567,-3.3333e-4,0,0.0018886,1.335,99992
1.3463,115.42,177.59,135.69,24.517,-3.5683e-5,9.8253,0.0079293,0,0.83094,-1.0603e-4,16637,6.3557,219.79,197.45,2.1733,0.52448,32377983,2529,112.64,0.70418,0.70462,0.41155,0.13687,0.15576,0.191,0.41222,3.3832e-4,0,0.0024473,1.3342,99971
1.3563,117.15,178.94,135.71,24.92,-3.7259e-5,9.8253,0.0069827,0,0.92771,-2.0806e-4,16623,6.3537,219.9,197.43,2.1864,0.52848,3.262e7,2529,114.43,0.70482,0.70516,0.41137,0.13714,0.15631,0.16803,0.36437,2.3428e-4,0,0.0030046,1.3332,99951
1.3663,118.9,180.3,135.73,25.326,-3.8837e-5,9.8253,0.0059601,0,1.0131,-2.9315e-4,16609,6.3517,220.03,197.41,2.2003,0.53249,32862241,2529,116.23,0.70546,0.70571,0.41119,0.13741,0.15686,0.14327,0.31181,4.8379e-5,0,0.0035298,1.3322,99930
1.3763,120.66,181.66,135.75,25.736,-4.0412e-5,9.8253,0.0048757,0,1.086,-3.9548e-4,16594,6.3497,220.16,197.39,2.215,0.53649,33104275,2529,118.06,0.70611,0.70628,0.41101,0.13768,0.15742,0.11707,0.25517,3.8711e-4,0,0.0039956,1.3311,99910
1.3863,122.44,183.02,135.77,26.15,-4.1972e-5,9.8253,0.0037448,0,1.1448,-4.8885e-4,16580,6.3477,220.3,197.37,2.2304,0.5405,33346240,2529,119.9,0.70677,0.70687,0.41083,0.13796,0.15798,0.089802,0.19607,-1.6225e-5,0,0.0043744,1.33,99889
1.3963,124.23,184.37,135.79,26.566,-4.3508e-5,9.8253,0.0025834,0,1.1884,-7.5347e-4,16566,6.3457,220.44,197.35,2.2461,0.54451,33588133,2529,121.77,0.70743,0.70748,0.41064,0.13824,0.15854,0.061873,0.13384,-4.7132e-4,0,0.0046456,1.3287,99868
1.4063,126.03,185.73,135.81,26.986,-4.5013e-5,9.8253,0.0014086,0,1.2161,-0.00139,16551,6.3437,220.58,197.33,2.2621,0.54851,3.383e7,2529,123.65,0.70809,0.70811,0.41046,0.13852,0.15911,0.033692,0.071485,-5.2566e-5,0,0.0047936,1.3275,99847
1.4163,127.85,187.09,135.82,27.41,-4.6476e-5,9.8253,2.3765e-4,0,1.2269,-0.0081002,16537,6.3418,220.73,197.31,2.2782,0.55252,34071685,2529,125.55,0.70876,0.70876,0.41027,0.1388,0.15969,0.0056771,0.0076999,2.0947e-4,0,0.004809,1.3262,99826
1.4263,129.68,188.45,135.84,27.837,-4.7888e-5,9.8253,9.1164e-4,0,-1.2205,-0.0020748,16523,6.3398,220.67,197.29,2.2744,0.55653,34313336,2529,127.48,0.70944,0.70944,0.41008,0.13909,0.16026,0.021808,0.053849,-2.4726e-6,0,-0.0046908,1.3249,99804
1.4363,131.52,189.81,135.86,28.267,-4.9242e-5,9.8253,0.0020217,0,-1.1969,-9.6551e-4,16508,6.3378,220.56,197.27,2.2661,0.56054,34554897,2529,129.42,0.71012,0.71015,0.40989,0.13938,0.16085,0.048459,0.11404,-1.757e-4,0,-0.0044469,1.3236,99783
1.4463,133.37,191.16,135.88,28.701,-5.053e-5,9.8253,0.0030754,0,-1.1562,-6.4988e-4,16494,6.3358,220.46,197.25,2.2584,0.56455,34796364,2529,131.38,0.7108,0.71087,0.4097,0.13967,0.16143,0.073858,0.17065,4.2125e-4,0,-0.0040912,1.3224,99761
1.4563,135.24,192.52,135.89,29.139,-5.1748e-5,9.8253,0.0040564,0,-1.0992,-4.2714e-4,16480,6.3338,220.37,197.23,2.2517,0.56856,35037733,2529,133.37,0.7115,0.71161,0.40951,0.13996,0.16202,0.097596,0.2233,4.8861e-4,0,-0.0036463,1.3212,99739
1.4663,137.12,193.88,135.91,29.581,-5.2892e-5,9.8253,0.0049496,0,-1.0268,-3.3788e-4,16466,6.3318,220.3,197.21,2.246,0.57257,35279001,2529,135.37,0.71219,0.71237,0.40932,0.14025,0.16262,0.11929,0.27063,1.3446e-4,0,-0.003137,1.3201,99717
1.4763,139.01,195.24,135.92,30.026,-5.3959e-5,9.8253,0.0057413,0,-0.93988,-2.9658e-4,16451,6.3298,220.23,197.19,2.2414,0.57658,3.552e7,2529,137.39,0.71289,0.71313,0.40912,0.14055,0.16322,0.13859,0.31344,-4.137e-4,0,-0.0025922,1.3191,99695
1.4863,140.92,196.6,135.93,30.475,-5.4947e-5,9.8252,0.0064192,0,-0.83992,-2.7811e-4,16437,6.3278,220.17,197.17,2.2381,0.58059,35761219,2529,139.42,0.7136,0.71389,0.40893,0.14085,0.16382,0.15517,0.34937,6.9189e-6,0,-0.0020417,1.3181,99672
1.4963,142.84,197.95,135.94,30.928,-5.5855e-5,9.8252,0.006973,0,-0.72859,-2.0685e-4,16423,6.3258,220.13,197.15,2.2362,0.5846,36002164,2529,141.47,0.71431,0.71466,0.40873,0.14115,0.16443,0.16876,0.3792,4.9655e-4,0,-0.0015154,1.3173,99650
1.5063,144.78,199.31,135.95,31.384,-5.6683e-5,9.8252,0.0073945,0,-0.60767,-1.7594e-4,16408,6.3238,220.11,197.13,2.2358,0.58862,36242998,2529,143.54,0.71502,0.71542,0.40853,0.14145,0.16504,0.17914,0.40153,-3.865e-4,0,-0.0010399,1.3166,99627
1.5163,146.72,200.67,135.96,31.845,-5.7434e-5,9.8252,0.0076774,0,-0.47908,-6.0939e-5,16394,6.3217,220.1,197.11,2.2369,0.59263,36483718,2529,145.63,0.71574,0.71617,0.40833,0.14176,0.16566,0.18616,0.41731,-4.9193e-6,0,-6.3765e-4,1.3161,99604
1.5263,148.68,202.03,135.96,32.309,-5.8106e-5,9.8252,0.007818,0,-0.34489,8.3001e-6,16380,6.3197,220.11,197.09,2.2395,0.59664,36724324,2529,147.72,0.71647,0.71691,0.40813,0.14207,0.16628,0.18969,0.42466,-8.8944e-5,0,-3.2605e-4,1.3156,99581
1.5363,150.65,203.38,135.96,32.778,-5.8696e-5,9.8252,0.0078149,0,-0.2076,-1.9074e-5,16365,6.3177,220.13,197.06,2.2437,0.60065,36964815,2529,149.83,0.7172,0.71764,0.40792,0.14238,0.1669,0.18969,0.42598,-1.6851e-4,0,-1.1657e-4,1.3153,99558
1.5463,152.64,204.74,135.96,33.25,-5.9203e-5,9.8252,0.007669,0,-0.069439,-9.6954e-6,16351,6.3157,220.17,197.04,2.2495,0.60466,37205190,2529,151.96,0.71794,0.71836,0.40772,0.14269,0.16753,0.1862,0.41912,3.4114e-4,0,-1.287e-5,1.3152,99535
1.5563,154.64,206.1,135.95,33.726,-5.9625e-5,9.8252,0.0073831,0,0.067093,-1.387e-4,16337,6.3137,220.22,197.02,2.2568,0.60868,37445448,2529,154.1,0.71868,0.71907,0.40751,0.143,0.16816,0.17927,0.40408,-1.7665e-5,0,1.1858e-5,1.3152,99511
1.5663,156.65,207.46,135.94,34.206,-5.9964e-5,9.8252,0.0069653,0,0.19939,-1.8136e-4,16322,6.3117,220.29,197,2.2656,0.61269,37685588,2529,156.25,0.71942,0.71977,0.40731,0.14332,0.1688,0.1691,0.38291,-1.4154e-4,0,1.0336e-4,1.3153,99488
1.5763,158.67,208.82,135.93,34.69,-6.0229e-5,9.8252,0.0064233,0,0.32491,-2.4033e-4,16308,6.3097,220.38,196.98,2.2757,0.6167,37925609,2529,158.42,0.72017,0.72047,0.4071,0.14364,0.16944,0.15589,0.3543,7.9977e-5,0,2.7091e-4,1.3156,99464
1.5863,160.71,210.17,135.92,35.178,-6.0433e-5,9.8252,0.0057683,0,0.44109,-2.7617e-4,16294,6.3077,220.47,196.96,2.2871,0.62072,38165509,2529,160.61,0.72093,0.72117,0.40689,0.14396,0.17009,0.13993,0.31928,3.8513e-4,0,4.9287e-4,1.316,99440
1.5963,162.76,211.53,135.9,35.67,-6.0594e-5,9.8252,0.0050138,0,0.54555,-3.4598e-4,16280,6.3056,220.58,196.94,2.2996,0.62473,38405286,2529,162.81,0.72169,0.72187,0.40667,0.14428,0.17074,0.12155,0.27887,-4.8276e-4,0,7.4435e-4,1.3165,99416
1.6063,164.82,212.89,135.88,36.165,-6.0729e-5,9.8252,0.0041753,0,0.63625,-3.6893e-4,16265,6.3036,220.7,196.92,2.313,0.62874,38644937,2529,165.03,0.72246,0.72258,0.40646,0.1446,0.17139,0.10115,0.23264,1.9073e-4,0,9.9958e-4,1.3171,99392
1.6163,166.9,214.25,135.86,36.664,-6.086e-5,9.8252,0.0032705,0,0.71081,-4.5955e-4,16251,6.3016,220.82,196.9,2.3273,0.63276,38884458,2529,167.27,0.72323,0.72331,0.40625,0.14493,0.17205,0.079166,0.18275,-2.7216e-4,0,0.0012319,1.3179,99368
1.6263,168.99,215.6,135.84,37.167,-6.1006e-5,9.8252,0.0023183,0,0.76765,-5.7046e-4,16237,6.2996,220.96,196.88,2.3421,0.63677,39123845,2529,169.53,0.724,0.72404,0.40603,0.14526,0.17271,0.056068,0.12971,-3.0191e-4,0,0.0014188,1.3186,99343
1.6363,171.09,216.96,135.82,37.674,-6.1186e-5,9.8252,0.0013391,0,0.80534,-9.0067e-4,16222,6.2976,221.09,196.86,2.3572,0.64079,39363095,2529,171.81,0.72479,0.7248,0.40582,0.14559,0.17338,0.032357,0.074891,1.4257e-4,0,0.0015421,1.3195,99318
1.6463,173.21,218.32,135.8,38.185,-6.1415e-5,9.8251,3.5413e-4,0,0.82271,-0.0032293,16208,6.2955,221.23,196.84,2.3725,0.6448,39602203,2529,174.11,0.72557,0.72557,0.4056,0.14593,0.17405,0.0085491,0.018657,2.1495e-4,0,0.0015894,1.3203,99294
1.6563,175.34,219.68,135.77,38.699,-6.171e-5,9.8251,6.1506e-4,0,-0.81923,-0.0017611,16194,6.2935,221.23,196.82,2.3745,0.64881,39841163,2529,176.43,0.72636,0.72637,0.40538,0.14626,0.17472,0.014861,0.036471,3.2132e-4,0,-0.0015566,1.3212,99269
1.6663,177.48,221.03,135.75,39.216,-6.2086e-5,9.8251,0.0015471,0,-0.79503,-6.6845e-4,16179,6.2915,221.15,196.8,2.3694,0.65283,4.008e7,2529,178.78,0.72716,0.72718,0.40516,0.1466,0.1754,0.037449,0.090607,9.1161e-5,0,-0.0014481,1.322,99243
1.6763,179.63,222.39,135.73,39.737,-6.2554e-5,9.8251,0.0024213,0,-0.75043,-3.8535e-4,16165,6.2895,221.09,196.77,2.3649,0.65684,40318624,2529,181.14,0.72796,0.728,0.40493,0.14694,0.17609,0.058712,0.13993,-2.3919e-4,0,-0.0012746,1.3228,99218
1.6863,181.8,223.75,135.7,40.262,-6.3125e-5,9.8251,0.0032183,0,-0.68663,-2.5395e-4,16151,6.2874,221.03,196.75,2.3613,0.66085,40557115,2529,183.53,0.72877,0.72884,0.40471,0.14728,0.17677,0.078166,0.1854,-1.9784e-4,0,-0.0010542,1.3236,99193
1.6963,183.98,225.11,135.68,40.79,-6.381e-5,9.8251,0.0039205,0,-0.60509,-2.4369e-4,16137,6.2854,220.98,196.73,2.3588,0.66487,40795441,2529,185.93,0.72958,0.72969,0.40448,0.14763,0.17747,0.095366,0.2261,-1.218e-4,0,-8.0886e-4,1.3243,99167
1.7063,186.18,226.46,135.65,41.321,-6.4617e-5,9.8251,0.0045126,0,-0.50762,-1.2627e-4,16122,6.2834,220.95,196.71,2.3575,0.66888,41033599,2529,188.35,0.73039,0.73054,0.40426,0.14797,0.17816,0.10992,0.25963,4.5761e-4,0,-5.6247e-4,1.3248,99141
1.7163,188.38,227.82,135.63,41.856,-6.5549e-5,9.8251,0.0049818,0,-0.39657,-1.663e-4,16108,6.2813,220.93,196.69,2.3576,0.67289,41271587,2529,190.79,0.73121,0.7314,0.40403,0.14832,0.17886,0.12149,0.2869,-3.2966e-4,0,-3.3924e-4,1.3253,99116
1.7263,190.61,229.18,135.6,42.394,-6.6612e-5,9.8251,0.005318,0,-0.27466,-9.4435e-5,16094,6.2793,220.92,196.67,2.3591,0.6769,41509401,2529,193.24,0.73204,0.73225,0.4038,0.14867,0.17957,0.12982,0.30671,2.3627e-4,0,-1.6081e-4,1.3257,99090
1.7363,192.84,230.53,135.58,42.936,-6.7805e-5,9.8251,0.0055147,0,-0.14466,-2.3062e-6,16079,6.2772,220.93,196.65,2.3622,0.68091,41747041,2529,195.72,0.73287,0.73309,0.40357,0.14903,0.18027,0.13472,0.31808,-4.5104e-4,0,-4.4089e-5,1.3259,99063
1.7463,195.09,231.89,135.55,43.48,-6.9127e-5,9.8251,0.0055683,0,-0.0099027,7.5716e-5,16065,6.2752,220.96,196.63,2.3668,0.68492,41984504,2529,198.2,0.73371,0.73394,0.40334,0.14938,0.18099,0.13612,0.32223,2.4648e-4,0,-2.0419e-7,1.326,99037
1.7563,197.35,233.24,135.53,44.028,-7.0585e-5,9.8251,0.0054791,0,0.12638,7.9249e-5,16051,6.2732,221,196.61,2.3729,0.68893,42221790,2529,200.7,0.73455,0.73477,0.40311,0.14974,0.1817,0.13399,0.31754,-1.4849e-4,0,3.2871e-5,1.3259,99010
1.7663,199.62,234.6,135.5,44.58,-7.2178e-5,9.8251,0.0052506,0,0.26072,9.6787e-5,16036,6.2711,221.06,196.58,2.3806,0.69294,42458897,2529,203.22,0.73539,0.7356,0.40287,0.1501,0.18242,0.12843,0.30524,3.1244e-4,0,1.3829e-4,1.3257,98984
1.7763,201.91,235.96,135.47,45.134,-7.3907e-5,9.8251,0.0048901,0,0.38957,8.2759e-5,16022,6.2691,221.13,196.56,2.3897,0.69695,42695824,2529,205.75,0.73624,0.73642,0.40264,0.15046,0.18315,0.11961,0.28545,-4.7213e-4,0,3.0525e-4,1.3254,98957
1.7863,204.21,237.31,135.44,45.692,-7.5767e-5,9.8251,0.0044082,0,0.50957,1.6293e-4,16008,6.267,221.21,196.54,2.4001,0.70096,42932570,2529,208.3,0.7371,0.73724,0.4024,0.15082,0.18388,0.10781,0.25851,1.8624e-4,0,5.1634e-4,1.3249,98930
1.7963,206.52,238.67,135.42,46.254,-7.7755e-5,9.825,0.0038189,0,0.61716,1.7334e-4,15993,6.265,221.31,196.52,2.4117,0.70497,43169131,2529,210.87,0.73796,0.73807,0.40216,0.15119,0.18461,0.093373,0.22413,-4.972e-4,0,7.4882e-4,1.3243,98903
1.8063,208.84,240.02,135.39,46.818,-7.9863e-5,9.825,0.0031394,0,0.70937,2.2191e-4,15979,6.2629,221.42,196.5,2.4243,0.70898,43405506,2529,213.45,0.73882,0.7389,0.40192,0.15156,0.18534,0.076728,0.18473,-3.142e-4,0,9.7821e-4,1.3236,98876
1.8163,211.18,241.37,135.36,47.386,-8.2082e-5,9.825,0.0023892,0,0.78377,3.302e-4,15965,6.2609,221.54,196.48,2.4377,0.71299,43641692,2529,216.06,0.73969,0.73974,0.40168,0.15193,0.18609,0.058363,0.14089,2.1416e-4,0,0.0011809,1.3228,98848
1.8263,213.54,242.73,135.33,47.958,-8.4401e-5,9.825,0.0015897,0,0.83786,5.1034e-4,15951,6.2588,221.66,196.46,2.4517,0.71699,43877685,2529,218.68,0.74057,0.74059,0.40144,0.1523,0.18683,0.038812,0.093972,2.5839e-4,0,0.0013345,1.322,98821
1.8363,215.9,244.08,135.3,48.533,-8.681e-5,9.825,7.6421e-4,0,0.87024,0.0012118,15936,6.2568,221.78,196.43,2.466,0.721,44113480,2529,221.33,0.74145,0.74145,0.40119,0.15268,0.18758,0.018646,0.044063,-1.7304e-4,0,0.0014238,1.3211,98793
1.8463,218.28,245.43,135.27,49.112,-8.93e-5,9.825,6.3292e-5,0,-0.87927,0.014436,15922,6.2547,221.9,196.41,2.4791,0.725,44349074,2529,224,0.74233,0.74233,0.40095,0.15305,0.18833,0.0015436,0.0055289,4.6973e-4,0,-0.0014375,1.3202,98765
1.8563,220.67,246.79,135.24,49.694,-9.1867e-5,9.825,8.6847e-4,0,-0.86523,0.0010197,15908,6.2527,221.84,196.39,2.476,0.72901,44584461,2529,226.69,0.74322,0.74323,0.4007,0.15343,0.18909,0.021218,0.054166,-3.7687e-4,0,-0.0013768,1.3192,98737
1.8663,223.07,248.14,135.21,50.28,-9.4509e-5,9.825,0.0016277,0,-0.82803,5.7638e-4,15893,6.2506,221.8,196.37,2.4735,0.73301,4.482e7,2529,229.4,0.74412,0.74414,0.40045,0.15381,0.18985,0.039831,0.1001,-7.8914e-5,0,-0.0012473,1.3184,98709
1.8763,225.49,249.49,135.18,50.869,-9.7217e-5,9.825,0.0023185,0,-0.76894,4.2746e-4,15879,6.2486,221.76,196.35,2.4717,0.73701,45054600,2529,232.13,0.74502,0.74506,0.4002,0.1542,0.19061,0.056825,0.14166,6.7136e-5,0,-0.001064,1.3175,98680
1.8863,227.92,250.84,135.15,51.462,-9.9982e-5,9.825,0.0029209,0,-0.68998,3.1611e-4,15865,6.2465,221.73,196.33,2.4709,0.74102,45289344,2529,234.88,0.74592,0.74598,0.39995,0.15458,0.19138,0.071691,0.17752,8.6382e-5,0,-8.4755e-4,1.3167,98652
1.8963,230.36,252.19,135.12,52.059,-1.0279e-4,9.825,0.0034176,0,-0.59365,3.0269e-4,15850,6.2444,221.71,196.3,2.4713,0.74502,45523865,2529,237.65,0.74683,0.74692,0.3997,0.15497,0.19216,0.08399,0.20864,4.7302e-5,0,-6.2072e-4,1.3161,98623
1.9063,232.82,253.54,135.08,52.66,-1.0562e-4,9.825,0.0037945,0,-0.4828,2.6961e-4,15836,6.2424,221.7,196.28,2.473,0.74902,45758163,2529,240.44,0.74774,0.74785,0.39945,0.15536,0.19293,0.093357,0.23173,-4.1719e-4,0,-4.0621e-4,1.3155,98594
1.9163,235.29,254.89,135.04,53.265,-1.0845e-4,9.825,0.0040414,0,-0.36102,1.1171e-4,15822,6.2403,221.71,196.26,2.4761,0.75301,45992233,2529,243.25,0.74866,0.74878,0.3992,0.15575,0.19371,0.099526,0.24655,-2.0701e-4,0,-2.2473e-4,1.3151,98565
1.9263,237.77,256.24,134.99,53.873,-1.1127e-4,9.8249,0.0041521,0,-0.23192,2.5399e-5,15808,6.2383,221.74,196.24,2.4807,0.75701,46226075,2529,246.07,0.74958,0.74972,0.39894,0.15615,0.1945,0.10233,0.25358,3.6146e-4,0,-9.177e-5,1.3148,98536
1.9363,240.27,257.59,134.95,54.486,-1.1408e-4,9.8249,0.0041247,0,-0.099952,5.2984e-5,15793,6.2362,221.78,196.22,2.4868,0.76101,4.646e7,2529,248.91,0.75051,0.75064,0.39868,0.15654,0.19529,0.10171,0.25288,-3.2482e-5,0,-1.6869e-5,1.3146,98507
1.9463,242.78,258.93,134.89,55.102,-1.1686e-4,9.8249,0.0039618,0,0.030843,6.1564e-6,15779,6.2341,221.84,196.19,2.4944,0.765,46693067,2529,251.76,0.75145,0.75156,0.39843,0.15694,0.19608,0.097731,0.24419,3.2598e-4,0,1.5896e-6,1.3145,98478
1.9563,245.3,260.28,134.84,55.722,-1.1962e-4,9.8249,0.0036703,0,0.15605,-6.1424e-5,15765,6.232,221.91,196.17,2.5033,0.769,46926214,2529,254.63,0.75238,0.75249,0.39817,0.15734,0.19688,0.09056,0.22649,4.3685e-4,0,4.0272e-5,1.3146,98448
1.9663,247.83,261.63,134.78,56.346,-1.2237e-4,9.8249,0.0032618,0,0.27126,-1.9493e-5,15750,6.23,221.99,196.15,2.5135,0.77299,47159125,2529,257.52,0.75333,0.75341,0.39791,0.15774,0.19768,0.080485,0.20184,-1.2327e-4,0,1.2044e-4,1.3149,98418
1.9763,250.38,262.98,134.72,56.974,-1.251e-4,9.8249,0.0027517,0,0.37262,1.0684e-4,15736,6.2279,222.08,196.13,2.5248,0.77698,47391799,2529,260.43,0.75427,0.75433,0.39764,0.15815,0.19848,0.067891,0.17097,2.1411e-4,0,2.2495e-4,1.3152,98388
1.9863,252.94,264.32,134.65,57.605,-1.2782e-4,9.8249,0.0021588,0,0.45652,2.1873e-4,15722,6.2258,222.19,196.11,2.537,0.78097,47624231,2529,263.35,0.75522,0.75526,0.39738,0.15855,0.19929,0.053252,0.13475,-1.1941e-4,0,3.3424e-4,1.3156,98358
1.9963,255.51,265.67,134.59,58.241,-1.3052e-4,9.8249,0.0015051,0,0.51997,2.5594e-4,15707,6.2238,222.3,196.08,2.5499,0.78496,47856419,2529,266.3,0.75618,0.7562,0.39712,0.15896,0.2001,0.037116,0.093927,7.9839e-5,0,4.2922e-4,1.3162,98328
2.0063,258.1,267.01,134.52,58.88,-1.3321e-4,9.8249,8.1459e-4,0,0.56062,3.1507e-4,15693,6.2217,222.41,196.06,2.5632,0.78895,48088359,2529,269.27,0.75714,0.75715,0.39685,0.15937,0.20092,0.020082,0.050707,-4.3331e-4,0,4.9395e-4,1.3167,98298
2.0163,260.69,268.36,134.45,59.522,-1.3586e-4,9.8249,1.1303e-4,0,0.5767,0.0023389,15679,6.2196,222.53,196.04,2.5767,0.79294,4.832e7,2529,272.25,0.75811,0.75811,0.39658,0.15979,0.20174,0.0027855,0.0068439,3.7802e-4,0,5.1748e-4,1.3173,98267
2.0263,263.31,269.7,134.38,60.169,-1.385e-4,9.8249,5.737e-4,0,-0.56804,3.8255e-4,15664,6.2175,222.52,196.02,2.5778,0.79693,48551474,2529,275.27,0.75908,0.75908,0.39632,0.1602,0.20256,0.014157,0.037476,-1.5219e-4,0,-4.9707e-4,1.3179,98237
2.0363,265.93,271.05,134.31,60.819,-1.4112e-4,9.8249,0.0012201,0,-0.53464,6.9928e-5,15650,6.2154,222.48,195.99,2.5769,0.80091,48782641,2529,278.3,0.76005,0.76007,0.39605,0.16062,0.20339,0.030154,0.078159,4.8799e-4,0,-4.36e-4,1.3185,98206
2.0463,268.57,272.39,134.24,61.472,-1.4372e-4,9.8249,0.0018024,0,-0.47822,3.0858e-5,15636,6.2133,222.46,195.97,2.5768,0.80489,49013541,2529,281.35,0.76103,0.76106,0.39578,0.16104,0.20422,0.04461,0.11569,-4.3238e-4,0,-3.4541e-4,1.319,98175
2.0563,271.22,273.73,134.17,62.129,-1.4629e-4,9.8248,0.0022993,0,-0.40094,6.2728e-5,15622,6.2113,222.45,195.95,2.5775,0.80887,49244171,2529,284.42,0.76202,0.76206,0.3955,0.16146,0.20506,0.056985,0.14713,4.7195e-4,0,-2.4043e-4,1.3195,98144
2.0662,273.88,275.07,134.1,62.789,-1.4883e-4,9.8248,0.0026929,0,-0.30578,1.5817e-4,15607,6.2092,222.44,195.93,2.5794,0.81285,49474526,2529,287.52,0.76301,0.76306,0.39523,0.16188,0.20589,0.066823,0.17241,1.7368e-4,0,-1.3849e-4,1.3199,98113
2.0762,276.56,276.41,134.03,63.453,-1.5133e-4,9.8248,0.0029695,0,-0.19658,5.0706e-5,15593,6.2071,222.45,195.9,2.5826,0.81683,49704604,2529,290.63,0.764,0.76407,0.39496,0.16231,0.20674,0.073762,0.19086,3.9842e-4,0,-5.6686e-5,1.3201,98081
2.0862,279.25,277.75,133.96,64.12,-1.5379e-4,9.8248,0.0031197,0,-0.07791,1.9047e-4,15579,6.205,222.48,195.88,2.5872,0.82081,49934404,2529,293.75,0.765,0.76508,0.39468,0.16274,0.20758,0.077562,0.20104,3.1622e-4,0,-8.8179e-6,1.3203,98050
2.0962,281.95,279.09,133.89,64.79,-1.5623e-4,9.8248,0.0031396,0,0.045614,2.1152e-5,15564,6.2029,222.52,195.86,2.5931,0.82478,50163921,2529,296.9,0.766,0.76608,0.3944,0.16317,0.20843,0.078112,0.20244,-1.5858e-4,0,2.9937e-6,1.3203,98018
2.1062,284.66,280.43,133.82,65.464,-1.5865e-4,9.8248,0.0030304,0,0.1689,1.383e-4,15550,6.2008,222.57,195.84,2.6004,0.82875,50393156,2529,300.06,0.76701,0.76708,0.39413,0.1636,0.20929,0.075435,0.19623,-1.273e-4,0,4.0654e-5,1.3202,97986
2.1162,287.39,281.77,133.75,66.142,-1.6107e-4,9.8248,0.0027984,0,0.28684,2.2202e-4,15536,6.1987,222.63,195.81,2.609,0.83273,50622105,2529,303.24,0.76802,0.76808,0.39385,0.16403,0.21015,0.069684,0.18149,5.5409e-5,0,1.1615e-4,1.3199,97954
2.1262,290.13,283.11,133.68,66.822,-1.6348e-4,9.8248,0.002455,0,0.39462,1.8281e-4,15521,6.1966,222.71,195.79,2.6189,0.8367,50850767,2529,306.43,0.76904,0.76909,0.39357,0.16447,0.21101,0.061146,0.16024,-1.018e-4,0,2.1777e-4,1.3196,97922
2.1362,292.89,284.44,133.61,67.506,-1.6592e-4,9.8248,0.0020163,0,0.48747,3.8402e-4,15507,6.1945,222.8,195.77,2.6298,0.84066,51079139,2529,309.65,0.77006,0.77009,0.39328,0.16491,0.21187,0.050224,0.13212,3.2602e-4,0,3.292e-4,1.3191,97890
2.1462,295.65,285.78,133.54,68.194,-1.684e-4,9.8248,0.0015027,0,0.5613,3.5096e-4,15493,6.1924,222.9,195.74,2.6414,0.84463,51307218,2529,312.88,0.77109,0.77111,0.393,0.16534,0.21274,0.03743,0.098842,1.4732e-6,0,4.324e-4,1.3186,97857
2.1562,298.43,287.12,133.46,68.885,-1.7093e-4,9.8248,9.3745e-4,0,0.61331,5.3233e-4,15479,6.1903,223,195.72,2.6537,0.84859,51535001,2529,316.14,0.77212,0.77213,0.39272,0.16579,0.21361,0.023349,0.061687,-3.4221e-6,0,5.1148e-4,1.318,97825
2.1662,301.23,288.45,133.39,69.579,-1.7353e-4,9.8248,3.4616e-4,0,0.64082,0.0014129,15464,6.1882,223.11,195.7,2.6663,0.85255,51762483,2529,319.42,0.77315,0.77315,0.39243,0.16623,0.21449,0.0086207,0.022573,-3.5306e-4,0,5.5325e-4,1.3173,97792
2.1762,304.03,289.78,133.32,70.277,-1.762e-4,9.8247,2.4431e-4,0,-0.64256,0.0020149,15450,6.1861,223.16,195.68,2.6736,0.85651,5.199e7,2529,322.72,0.77419,0.77419,0.39215,0.16668,0.21537,0.0060878,0.01723,-3.2957e-4,0,-5.5116e-4,1.3166,97759
2.1862,306.85,291.12,133.25,70.979,-1.7895e-4,9.8247,8.0715e-4,0,-0.61864,6.3677e-4,15436,6.184,223.14,195.65,2.6739,0.86047,52216529,2529,326.04,0.77524,0.77524,0.39186,0.16712,0.21625,0.020143,0.054691,-1.1767e-4,0,-5.0623e-4,1.316,97726
2.1962,309.68,292.45,133.17,71.684,-1.8177e-4,9.8247,0.0013171,0,-0.57034,5.46e-4,15421,6.1819,223.13,195.63,2.6748,0.86443,52443084,2529,329.38,0.77628,0.7763,0.39157,0.16757,0.21714,0.032916,0.088445,8.8999e-5,0,-4.2637e-4,1.3153,97693
2.2062,312.53,293.78,133.1,72.393,-1.8467e-4,9.8247,0.0017515,0,-0.50016,3.8413e-4,15407,6.1798,223.12,195.61,2.6765,0.86838,52669323,2529,332.74,0.77734,0.77736,0.39128,0.16803,0.21803,0.043831,0.11789,-7.8507e-6,0,-3.2494e-4,1.3148,97660
