Time (s),Altitude (m),Total velocity (m/s),Total acceleration (m/s),Position East of launch (m),Position North of launch (m),Gravitational acceleration (m/s),Angle of attack (rad),Roll rate (rpm),Pitch rate (rpm),Yaw rate (rpm),Mass (g),Longitudinal moment of inertia (kgm),CP location (cm),CG location (cm),Stability margin calibers (?),Mach number (?),Reynolds number (?),Thrust (N),Drag force (N),Drag coefficient (?),Axial drag coefficient (?),Friction drag coefficient (?),Pressure drag coefficient (?),Base drag coefficient (?),Normal force coefficient (?),Pitch moment coefficient (?),Yaw moment coefficient (?),Roll damping coefficient (?),Pitch damping coefficient (?),Vertical orientation (zenith) (rad),Air pressure (Pa)
0,0,0,35.765,0,0,9.8221,1.3963,0,0,0,18553,6.611,NaN,199.83,NaN,0.023503,1465635,843,0.0031601,0.80982,0.0097128,0.57034,0.11941,0.12007,NaN,NaN,NaN,NaN,NaN,1.3963,101325
2e-3,7.0443e-5,0.071529,115.28,1.2421e-5,0,9.8221,1.3875,0,0,0,18553,6.611,NaN,199.83,NaN,0.02354,1467967,2318.2,0.0036518,0.80965,0.011188,0.57017,0.11941,0.12007,NaN,NaN,NaN,NaN,NaN,1.3963,101325
4e-3,4.384e-4,0.30211,126.65,7.7302e-5,0,9.8221,1.3593,0,0,0,18551,6.6107,NaN,199.83,NaN,0.023673,1476253,2529,0.0055588,0.80904,0.01684,0.56955,0.11941,0.12007,NaN,NaN,NaN,NaN,NaN,1.3963,101325
6e-3,0.0012829,0.55545,126.67,2.2621e-4,0,9.8221,1.3288,0,0,0,18549,6.6104,NaN,199.82,NaN,0.02384,1486687,2529,0.0082675,0.80828,0.024696,0.56879,0.11941,0.12007,NaN,NaN,NaN,NaN,NaN,1.3963,101325
8e-3,0.0026265,0.80883,126.69,4.6312e-4,0,9.8221,1.2987,0,0,0,18546,6.6101,NaN,199.82,NaN,0.024029,1498489,2529,0.011678,0.80742,0.034336,0.56793,0.11941,0.12008,NaN,NaN,NaN,NaN,NaN,1.3963,101325
0.01,0.0044691,1.0622,126.71,7.8802e-4,0,9.8221,1.2691,0,0,0,18543,6.6097,NaN,199.82,NaN,0.02424,1511626,2529,0.015843,0.80648,0.045777,0.56699,0.11941,0.12008,NaN,NaN,NaN,NaN,NaN,1.3963,101325
0.012,0.0068109,1.3157,126.73,0.001201,0,9.8221,1.2401,0,0,0,18540,6.6093,NaN,199.81,NaN,0.024472,1526067,2529,0.020809,0.80545,0.058991,0.56596,0.11942,0.12008,NaN,NaN,NaN,NaN,NaN,1.3963,101325
0.014,0.009652,1.5692,126.75,0.0017019,0,9.8221,1.2116,0,0,0,18537,6.6089,NaN,199.81,NaN,0.024723,1541773,2529,0.026612,0.80435,0.073915,0.56486,0.11942,0.12008,NaN,NaN,NaN,NaN,NaN,1.3963,101325
0.016,0.012992,1.8228,126.78,0.0022909,0,9.8221,1.1837,0,0,0,18534,6.6086,NaN,199.81,NaN,0.024995,1558709,2529,0.033286,0.80318,0.090453,0.56368,0.11942,0.12008,NaN,NaN,NaN,NaN,NaN,1.3963,101325
0.018,0.016832,2.0763,126.8,0.002968,0,9.8221,1.1564,0,0,0,18531,6.6082,NaN,199.8,NaN,0.025286,1576834,2529,0.040855,0.80195,0.10848,0.56245,0.11942,0.12008,NaN,NaN,NaN,NaN,NaN,1.3963,101325
0.02,0.021172,2.33,126.82,0.0037331,0,9.8221,1.1297,0,0,0,18529,6.6078,NaN,199.8,NaN,0.025595,1596109,2529,0.04934,0.80066,0.12787,0.56115,0.11942,0.12009,NaN,NaN,NaN,NaN,NaN,1.3963,101325
0.022,0.026011,2.5836,126.84,0.0045864,0,9.8221,1.1037,0,0,0,18526,6.6075,NaN,199.8,NaN,0.025922,1616494,2529,0.058756,0.79931,0.14845,0.5598,0.11942,0.12009,NaN,NaN,NaN,NaN,NaN,1.3963,101325
0.024,0.031349,2.8373,126.86,0.0055277,0,9.8221,1.0784,0,0,0,18523,6.6071,NaN,199.79,NaN,0.026266,1637947,2529,0.069113,0.79792,0.17008,0.55841,0.11942,0.12009,NaN,NaN,NaN,NaN,NaN,1.3963,101325
0.026,0.037188,3.0911,126.88,0.0065572,0,9.8221,1.0537,0,0,0,18520,6.6067,NaN,199.79,NaN,0.026626,1660428,2529,0.080417,0.79648,0.19257,0.55697,0.11942,0.12009,NaN,NaN,NaN,NaN,NaN,1.3963,101325
0.028,0.043526,3.3449,126.9,0.0076748,0,9.8221,1.0297,0,0,0,18517,6.6064,NaN,199.79,NaN,0.027003,1683897,2529,0.092672,0.79501,0.21578,0.55549,0.11942,0.12009,NaN,NaN,NaN,NaN,NaN,1.3963,101324
0.03,0.050364,3.5987,126.92,0.0088805,0,9.8221,1.0064,0,0,0,18514,6.606,NaN,199.78,NaN,0.027394,1708313,2529,0.10588,0.79351,0.23953,0.55399,0.11942,0.1201,NaN,NaN,NaN,NaN,NaN,1.3963,101324
0.032,0.057702,3.8526,126.94,0.010174,0,9.8221,0.98372,0,0,0,18511,6.6056,NaN,199.78,NaN,0.0278,1733636,2529,0.12003,0.79198,0.26367,0.55245,0.11943,0.1201,NaN,NaN,NaN,NaN,NaN,1.3963,101324
0.034,0.06554,4.1065,126.96,0.011556,0,9.8221,0.96171,0,0,0,18508,6.6053,NaN,199.78,NaN,0.02822,1759829,2529,0.13512,0.79043,0.28805,0.5509,0.11943,0.1201,NaN,NaN,NaN,NaN,NaN,1.3963,101324
0.036,0.073878,4.3605,126.98,0.013027,0,9.8221,0.94035,0,0,0,18506,6.6049,NaN,199.78,NaN,0.028654,1786854,2529,0.15115,0.78886,0.31254,0.54932,0.11943,0.12011,NaN,NaN,NaN,NaN,NaN,1.3963,101324
0.038,0.082717,4.6145,127,0.014585,0,9.8221,0.91964,0,0,0,18503,6.6045,NaN,199.77,NaN,0.0291,1814673,2529,0.1681,0.78727,0.33702,0.54773,0.11943,0.12011,NaN,NaN,NaN,NaN,NaN,1.3963,101324
0.04,0.092056,4.8685,127.02,0.016232,0,9.8221,0.89956,0,0,0,18500,6.6042,NaN,199.77,NaN,0.029558,1843251,2529,0.18596,0.78568,0.36136,0.54613,0.11943,0.12011,NaN,NaN,NaN,NaN,NaN,1.3963,101324
0.042,0.1019,5.1226,127.04,0.017967,0,9.8221,0.88009,0,0,0,18497,6.6038,NaN,199.77,NaN,0.030028,1872555,2529,0.20473,0.78407,0.38548,0.54452,0.11943,0.12012,NaN,NaN,NaN,NaN,NaN,1.3963,101324
0.044,0.11223,5.3767,127.06,0.01979,0,9.8221,0.86123,0,0,0,18494,6.6034,NaN,199.76,NaN,0.030509,1902551,2529,0.22438,0.78247,0.40927,0.54291,0.11944,0.12012,NaN,NaN,NaN,NaN,NaN,1.3963,101324
0.046,0.12308,5.6308,127.08,0.021701,0,9.8221,0.84295,0,0,0,18491,6.6031,NaN,199.76,NaN,0.031001,1933208,2529,0.24491,0.78086,0.43265,0.54129,0.11944,0.12012,NaN,NaN,NaN,NaN,NaN,1.3963,101324
0.048,0.13442,5.885,127.1,0.023701,0,9.8221,0.82525,0,0,0,18488,6.6027,NaN,199.76,NaN,0.031502,1964495,2529,0.2663,0.77925,0.45557,0.53968,0.11944,0.12013,NaN,NaN,NaN,NaN,NaN,1.3963,101323
0.05,0.14626,6.1393,127.12,0.025789,0,9.8221,0.80811,0,0,0,18486,6.6023,NaN,199.75,NaN,0.032014,1996383,2529,0.28854,0.77764,0.47797,0.53806,0.11944,0.12013,NaN,NaN,NaN,NaN,NaN,1.3963,101323
0.052,0.1586,6.3935,127.14,0.027965,0,9.8221,0.79151,0,0,0,18483,6.602,NaN,199.75,NaN,0.032534,2028843,2529,0.3116,0.77604,0.49979,0.53645,0.11944,0.12014,NaN,NaN,NaN,NaN,NaN,1.3963,101323
0.054,0.17144,6.6479,127.16,0.03023,0,9.8221,0.77543,0,0,0,18480,6.6016,NaN,199.75,NaN,0.033064,2061851,2529,0.33548,0.77444,0.521,0.53485,0.11945,0.12014,NaN,NaN,NaN,NaN,NaN,1.3963,101323
0.056,0.18479,6.9022,127.18,0.032583,0,9.8221,0.75987,0,0,0,18477,6.6012,NaN,199.74,NaN,0.033601,2095379,2529,0.36016,0.77285,0.54157,0.53326,0.11945,0.12015,NaN,NaN,NaN,NaN,NaN,1.3963,101323
0.058,0.19863,7.1566,127.2,0.035024,0,9.8221,0.74479,0,0,0,18474,6.6009,NaN,199.74,NaN,0.034147,2129405,2529,0.38562,0.77127,0.56147,0.53167,0.11945,0.12015,NaN,NaN,NaN,NaN,NaN,1.3963,101323
0.06,0.21298,7.411,127.22,0.037554,0,9.8221,0.73019,0,0,0,18471,6.6005,NaN,199.74,NaN,0.0347,2163904,2529,0.41185,0.7697,0.58069,0.53009,0.11945,0.12016,NaN,NaN,NaN,NaN,NaN,1.3963,101323
0.062,0.22783,7.6655,127.24,0.040172,0,9.8221,0.71605,0,0,0,18468,6.6001,NaN,199.73,NaN,0.035261,2198856,2529,0.43883,0.76815,0.59922,0.52853,0.11946,0.12016,NaN,NaN,NaN,NaN,NaN,1.3963,101322
0.064,0.24318,7.92,127.26,0.042878,0,9.8221,0.70235,0,0,0,18466,6.5998,NaN,199.73,NaN,0.035828,2234239,2529,0.46655,0.7666,0.61705,0.52698,0.11946,0.12017,NaN,NaN,NaN,NaN,NaN,1.3963,101322
0.066,0.25903,8.1746,127.28,0.045673,0,9.8221,0.68908,0,0,0,18463,6.5994,NaN,199.73,NaN,0.036402,2.27e6,2529,0.49499,0.76508,0.63419,0.52544,0.11946,0.12017,NaN,NaN,NaN,NaN,NaN,1.3963,101322
0.068,0.27538,8.4292,127.3,0.048556,0,9.8221,0.67622,0,0,0,18460,6.599,NaN,199.72,NaN,0.036983,2306220,2529,0.52415,0.76356,0.65063,0.52392,0.11946,0.12018,NaN,NaN,NaN,NaN,NaN,1.3963,101322
0.07,0.29223,8.6838,127.32,0.051528,0,9.8221,0.66375,0,0,0,18457,6.5986,NaN,199.72,NaN,0.037569,2342783,2529,0.55399,0.76206,0.66638,0.52241,0.11947,0.12018,NaN,NaN,NaN,NaN,NaN,1.3963,101322
0.072,0.30958,8.9385,127.34,0.054588,0,9.8221,0.65168,0,0,0,18454,6.5983,NaN,199.72,NaN,0.038161,2379703,2529,0.58452,0.76058,0.68145,0.52092,0.11947,0.12019,NaN,NaN,NaN,NaN,NaN,1.3963,101321
0.074,0.32744,9.1932,127.36,0.057737,0,9.8221,0.63997,0,0,0,18451,6.5979,NaN,199.71,NaN,0.038759,2416966,2529,0.61571,0.75911,0.69585,0.51944,0.11947,0.1202,NaN,NaN,NaN,NaN,NaN,1.3963,101321
0.076,0.3458,9.4479,127.38,0.060974,0,9.8221,0.62861,0,0,0,18448,6.5975,NaN,199.71,NaN,0.039362,2454555,2529,0.64755,0.75765,0.7096,0.51798,0.11948,0.1202,NaN,NaN,NaN,NaN,NaN,1.3963,101321
0.078,0.36466,9.7027,127.4,0.064299,0,9.8221,0.6176,0,0,0,18446,6.5972,NaN,199.71,NaN,0.03997,2492457,2529,0.68004,0.75622,0.7227,0.51653,0.11948,0.12021,NaN,NaN,NaN,NaN,NaN,1.3963,101321
0.08,0.38402,9.9575,127.42,0.067713,0,9.8221,0.60692,0,0,0,18443,6.5968,NaN,199.7,NaN,0.040582,2530658,2529,0.71315,0.7548,0.73519,0.5151,0.11948,0.12021,NaN,NaN,NaN,NaN,NaN,1.3963,101320
0.082,0.40388,10.212,127.44,0.071216,0,9.8221,0.59655,0,0,0,18440,6.5964,NaN,199.7,NaN,0.0412,2569145,2529,0.74689,0.7534,0.74706,0.51369,0.11948,0.12022,NaN,NaN,NaN,NaN,NaN,1.3963,101320
0.084,0.42425,10.467,127.45,0.074807,0,9.8221,0.58649,0,0,0,18437,6.5961,NaN,199.7,NaN,0.041821,2607905,2529,0.78122,0.75201,0.75835,0.5123,0.11949,0.12023,NaN,NaN,NaN,NaN,NaN,1.3963,101320
0.086,0.44512,10.722,127.47,0.078486,0,9.8221,0.57672,0,0,0,18434,6.5957,NaN,199.69,NaN,0.042447,2646928,2529,0.81615,0.75064,0.76907,0.51092,0.11949,0.12023,NaN,NaN,NaN,NaN,NaN,1.3963,101320
0.088,0.46649,10.977,127.49,0.082254,0,9.8221,0.56724,0,0,0,18431,6.5953,NaN,199.69,NaN,0.043077,2686201,2529,0.85166,0.74929,0.77923,0.50956,0.11949,0.12024,NaN,NaN,NaN,NaN,NaN,1.3963,101320
0.09,0.48836,11.232,127.51,0.086111,0,9.8221,0.55803,0,0,0,18428,6.595,NaN,199.69,NaN,0.043711,2725714,2529,0.88774,0.74796,0.78887,0.50821,0.1195,0.12025,NaN,NaN,NaN,NaN,NaN,1.3963,101319
0.092,0.51073,11.487,127.53,0.090056,0,9.8221,0.54909,0,0,0,18426,6.5946,188.28,199.68,-1.1092,0.044348,2765458,2529,0.92439,0.74664,0.79799,0.50688,0.1195,0.12026,17.865,-40.626,4.5197e-4,0,0,1.3963,101319
0.095,0.54524,11.87,127.56,0.096142,0,9.8221,0.53624,0,-0.020803,-1.6607e-7,18422,6.5941,188.62,199.68,-1.0759,0.045313,2825645,2529,0.98036,0.74469,0.81064,0.50492,0.11951,0.12027,17.451,-38.118,3.6572e-4,0,-2.0496e-4,1.3963,101319
0.0995,0.59911,12.444,127.59,0.10566,0,9.8221,0.51796,0,-0.051182,-9.9355e-8,18417,6.5934,189.12,199.67,-1.0266,0.046775,2916767,2529,1.0666,0.74184,0.82767,0.50204,0.11952,0.12028,16.871,-34.598,-3.3038e-4,0,-0.0011643,1.3963,101318
0.10625,0.68469,13.306,127.64,0.12079,0,9.8221,0.4926,0,-0.094778,-1.7196e-7,18409,6.5924,189.86,199.67,-0.95401,0.048995,3055166,2529,1.2007,0.73773,0.84929,0.49788,0.11953,0.12031,16.085,-29.809,2.4865e-4,0,-0.0036389,1.3963,101317
0.11625,0.82199,14.583,127.72,0.14509,0,9.8221,0.45903,0,-0.15462,-4.9981e-7,18397,6.5909,190.91,199.65,-0.85008,0.052336,3263493,2529,1.4097,0.73196,0.87387,0.49205,0.11955,0.12036,15.082,-23.656,-2.5189e-4,0,-0.0084878,1.3965,101315
0.12625,0.97188,15.861,127.82,0.17165,0,9.8221,0.42952,0,-0.20821,-1.3141e-6,18382,6.589,191.92,199.64,-0.75057,0.055731,3475141,2529,1.6302,0.72657,0.89118,0.48659,0.11957,0.1204,14.238,-18.439,-4.9128e-4,0,-0.013573,1.3967,101314
0.13625,1.1343,17.14,127.91,0.20046,0,9.8221,0.40341,0,-0.25487,-1.2015e-6,18368,6.5872,192.88,199.62,-0.65587,0.059171,3689560,2529,1.8615,0.72152,0.90277,0.48147,0.1196,0.12046,13.524,-13.991,3.3934e-4,0,-0.018043,1.3969,101312
0.14625,1.3094,18.42,128,0.2315,0,9.8221,0.38018,0,-0.29393,-2.2737e-6,18354,6.5853,193.79,199.6,-0.56598,0.062648,3906313,2529,2.1031,0.71679,0.90988,0.47666,0.11963,0.12051,12.915,-10.173,-3.53e-4,0,-0.021407,1.3972,101310
0.15625,1.4971,19.701,128.1,0.26475,0,9.8221,0.35939,0,-0.3247,-2.3532e-6,18339,6.5835,194.65,199.59,-0.48074,0.066157,4125050,2529,2.3545,0.71235,0.91347,0.47213,0.11965,0.12057,12.393,-6.8732,-3.0638e-4,0,-0.023426,1.3975,101307
0.16625,1.6974,20.982,128.19,0.30021,0,9.8221,0.34069,0,-0.34697,-1.7203e-6,18325,6.5816,195.46,199.57,-0.39995,0.069693,4345492,2529,2.6154,0.70818,0.91435,0.46786,0.11968,0.12063,11.764,-4.681,-8.8727e-7,0,-0.024103,1.3979,101305
0.17625,1.9103,22.265,128.28,0.33786,0,9.8221,0.3238,0,-0.36528,-2.0002e-6,18311,6.5798,196.23,199.55,-0.32344,0.073254,4567439,2529,2.8855,0.70424,0.9131,0.46383,0.11972,0.1207,11.014,-3.5381,1.6027e-4,0,-0.024179,1.3982,101303
0.18625,2.1359,23.549,128.37,0.37769,0,9.8221,0.30847,0,-0.38027,-1.7481e-6,18296,6.5779,196.96,199.54,-0.251,0.076837,4790704,2529,3.1646,0.70053,0.91023,0.46001,0.11975,0.12077,10.347,-2.5728,-3.9499e-4,0,-0.023819,1.3986,101300
0.19625,2.3741,24.833,128.47,0.4197,0,9.8221,0.29451,0,-0.39191,-1.2869e-6,18282,6.5761,197.65,199.52,-0.18235,0.080438,5015132,2529,3.4523,0.69702,0.90609,0.45639,0.11979,0.12084,9.7503,-1.7551,5.1567e-5,0,-0.023085,1.399,101297
0.20625,2.625,26.119,128.56,0.46386,0,9.8221,0.28175,0,-0.40016,-1.5819e-6,18268,6.5742,198.3,199.51,-0.11726,0.084056,5240591,2529,3.7455,0.69369,0.90027,0.45295,0.11982,0.12092,9.2146,-1.058,-3.0796e-4,0,-0.02204,1.3994,101294
0.21625,2.8886,27.405,128.65,0.51018,0,9.8221,0.27003,0,-0.40499,-1.353e-6,18254,6.5723,198.92,199.49,-0.055482,0.087689,5466972,2529,4.0431,0.69054,0.89298,0.44968,0.11986,0.121,8.7312,-0.46335,3.6996e-4,0,-0.020743,1.3999,101291
0.22625,3.1649,28.692,128.74,0.55864,5.4731e-9,9.8221,0.25923,0,-0.40636,-1.2804e-6,18239,6.5705,199.51,199.47,0.0032209,0.091335,5694182,2529,4.3459,0.68754,0.88477,0.44656,0.1199,0.12108,8.2931,0.045468,2.7131e-4,0,-0.01925,1.4003,101288
0.23625,3.4539,29.981,128.83,0.60923,7.1283e-9,9.8221,0.24926,0,-0.40424,-2.3168e-6,18225,6.5686,200.06,199.46,0.05907,0.094994,5922143,2529,4.6545,0.68469,0.87602,0.44357,0.11995,0.12117,7.8943,0.48382,-1.0146e-4,0,-0.01761,1.4007,101284
0.24625,3.7555,31.27,128.92,0.66193,9.0894e-9,9.8221,0.24001,0,-0.39859,3.5498e-7,18211,6.5668,200.59,199.44,0.11228,0.098665,6150787,2529,4.9693,0.68198,0.86702,0.44072,0.11999,0.12127,7.5298,0.86118,3.4725e-4,0,-0.015872,1.4011,101281
0.25625,4.0699,32.56,129.01,0.71674,1.1373e-8,9.8221,0.2314,0,-0.3894,-3.1603e-7,18196,6.5649,201.1,199.42,0.16304,0.10235,6380058,2529,5.2907,0.67939,0.85793,0.43799,0.12004,0.12136,7.1955,1.1874,1.548e-4,0,-0.014078,1.4016,101277
0.26625,4.3971,33.851,129.1,0.77365,1.3987e-8,9.8221,0.22337,0,-0.37661,-1.176e-6,18182,6.5631,201.58,199.41,0.21155,0.10604,6609904,2529,5.6192,0.67692,0.84891,0.43537,0.12009,0.12146,6.8876,1.4696,2.4061e-4,0,-0.012269,1.402,101273
0.27625,4.737,35.142,129.2,0.83264,1.6938e-8,9.8221,0.21585,0,-0.36021,-3.8894e-6,18168,6.5612,202.04,199.39,0.25798,0.10973,6840283,2529,5.9549,0.67456,0.84004,0.43286,0.12014,0.12157,6.6031,1.7141,-2.9233e-4,0,-0.010479,1.4023,101269
0.28625,5.0896,36.435,129.29,0.89371,2.0269e-8,9.8221,0.2088,0,-0.34016,-5.6548e-6,18153,6.5593,202.48,199.37,0.3025,0.11344,7071158,2529,6.2981,0.6723,0.83137,0.43044,0.12019,0.12167,6.3393,1.9262,-4.7542e-4,0,-0.0087445,1.4027,101265
0.29625,5.455,37.729,129.38,0.95684,2.405e-8,9.8221,0.20216,0,-0.31644,-4.0766e-6,18139,6.5575,202.91,199.36,0.34526,0.11716,7302495,2529,6.649,0.67014,0.82294,0.42811,0.12024,0.12178,6.0938,2.1112,3.5791e-4,0,-0.0070951,1.4031,101261
0.30625,5.8332,39.023,129.47,1.022,2.8355e-8,9.8221,0.19589,0,-0.289,-6.0707e-6,18125,6.5556,203.31,199.34,0.38642,0.12088,7534266,2529,7.0078,0.66806,0.81478,0.42586,0.1203,0.1219,5.8646,2.272,7.4264e-5,0,-0.0055592,1.4034,101257
0.31625,6.2242,40.319,129.56,1.0893,3.3282e-8,9.8221,0.18995,0,-0.25782,-6.289e-6,18110,6.5537,203.7,199.32,0.4261,0.12461,7766446,2529,7.3745,0.66607,0.8069,0.4237,0.12036,0.12202,5.6499,2.4118,-3.1838e-4,0,-0.0041636,1.4037,101252
0.32625,6.6279,41.615,129.65,1.1585,3.892e-8,9.8221,0.18432,0,-0.22287,-5.1423e-6,18096,6.5519,204.08,199.31,0.46444,0.12834,7999012,2529,7.7596,0.66505,0.80037,0.42249,0.12042,0.12214,5.4481,2.5328,-2.7053e-4,0,-0.0029328,1.4039,101247
0.33625,7.0445,42.912,129.73,1.2298,4.5357e-8,9.8221,0.17895,0,-0.18412,-5.0398e-6,18082,6.55,204.45,199.29,0.50156,0.13209,8231942,2529,8.1673,0.6652,0.79541,0.42245,0.12048,0.12227,5.2578,2.6391,4.3724e-4,0,-0.0018899,1.4041,101242
0.34625,7.4739,44.21,129.82,1.3031,5.2687e-8,9.8221,0.17382,0,-0.14155,-7.7857e-6,18068,6.5481,204.8,199.27,0.53757,0.13583,8465219,2529,8.5848,0.66535,0.7906,0.42241,0.12054,0.1224,5.0779,2.7308,7.0693e-5,0,-0.0010561,1.4043,101237
0.35625,7.9161,45.509,129.91,1.3785,6.1025e-8,9.8221,0.16891,0,-0.095111,-2.3674e-6,18053,6.5463,205.14,199.26,0.5726,0.13959,8698827,2529,9.0121,0.66551,0.78595,0.42237,0.12061,0.12253,4.9071,2.8099,3.3562e-4,0,-4.5154e-4,1.4044,101232
0.36625,8.3712,46.809,130,1.4558,7.0456e-8,9.8221,0.1642,0,-0.04479,-1.6539e-6,18039,6.5444,205.48,199.24,0.60674,0.14335,8932752,2529,9.4492,0.66567,0.78146,0.42232,0.12067,0.12267,4.7446,2.8786,-1.9153e-4,0,-9.4955e-5,1.4045,101227
0.37625,8.8391,48.109,130.08,1.5351,8.1019e-8,9.8221,0.15966,0,0.0094354,-5.5787e-6,18025,6.5425,205.8,199.22,0.64008,0.14711,9166982,2529,9.8961,0.66583,0.7771,0.42228,0.12074,0.12281,4.5895,2.9381,-3.2647e-4,0,4.0009e-6,1.4045,101221
0.38625,9.3199,49.411,130.17,1.6165,9.2784e-8,9.8221,0.15527,0,0.06758,-5.6959e-6,18010,6.5406,206.12,199.21,0.67274,0.15088,9401506,2529,10.353,0.666,0.77289,0.42223,0.12081,0.12296,4.4409,2.9871,2.8596e-4,0,1.9512e-4,1.4045,101216
0.39625,9.8135,50.713,130.25,1.6998,1.0584e-7,9.8221,0.15103,0,0.12966,-4.6869e-6,17996,6.5388,206.43,199.19,0.70479,0.15466,9636314,2529,10.819,0.66618,0.7688,0.42218,0.12089,0.12311,4.2982,3.0284,3.3042e-4,0,6.8362e-4,1.4044,101210
0.40625,10.32,52.016,130.34,1.7851,1.2027e-7,9.8221,0.1469,0,0.19567,1.7481e-6,17982,6.5369,206.74,199.17,0.73633,0.15844,9871397,2529,11.295,0.66635,0.76484,0.42213,0.12096,0.12326,4.1606,3.0622,-4.0522e-4,0,0.0014834,1.4042,101204
0.41625,10.839,53.32,130.43,1.8724,1.361e-7,9.8221,0.14288,0,0.26559,-1.6483e-6,17967,6.535,207.04,199.15,0.76743,0.16222,10106748,2529,11.781,0.66654,0.76098,0.42208,0.12104,0.12342,4.0277,3.0882,-3.7165e-4,0,0.0026072,1.404,101198
0.42625,11.372,54.625,130.51,1.9616,1.5333e-7,9.8221,0.13895,0,0.33942,-3.4198e-6,17953,6.5331,207.34,199.14,0.79818,0.16601,10342359,2529,12.276,0.66672,0.75724,0.42203,0.12112,0.12358,3.8989,3.1077,-1.9576e-4,0,0.0040659,1.4036,101192
0.43625,11.917,55.931,130.6,2.0529,1.7195e-7,9.8221,0.1351,0,0.41712,-4.6221e-6,17939,6.5313,207.64,199.12,0.82865,0.16981,10578225,2529,12.781,0.66692,0.75359,0.42197,0.1212,0.12375,3.7737,3.1211,-4.4463e-4,0,0.0058693,1.4032,101185
0.44625,12.475,57.238,130.68,2.1461,1.9203e-7,9.8221,0.13132,0,0.49865,-1.2086e-6,17925,6.5294,207.93,199.1,0.85891,0.1736,10814339,2529,13.295,0.66711,0.75002,0.42192,0.12128,0.12392,3.6517,3.128,-1.963e-4,0,0.0080252,1.4028,101179
0.45625,13.046,58.545,130.77,2.2414,2.1364e-7,9.8221,0.1276,0,0.58397,-7.3159e-6,17910,6.5275,208.23,199.09,0.88905,0.17741,11050698,2529,13.819,0.66731,0.74654,0.42186,0.12136,0.12409,3.5324,3.1302,-1.4794e-4,0,0.01054,1.4022,101172
0.46625,13.63,59.854,130.85,2.3386,2.3682e-7,9.8221,0.12392,0,0.67302,-1.2924e-5,17896,6.5256,208.52,199.07,0.91911,0.18121,11287295,2529,14.352,0.66752,0.74314,0.4218,0.12145,0.12427,3.4156,3.1255,2.5835e-4,0,0.013417,1.4015,101165
0.47625,14.227,61.163,130.93,2.4378,2.6176e-7,9.8221,0.12029,0,0.7657,-1.3949e-5,17882,6.5237,208.81,199.05,0.94918,0.18503,11524128,2529,14.894,0.66773,0.73981,0.42174,0.12154,0.12445,3.3008,3.1164,4.614e-4,0,0.016659,1.4008,101158
0.48625,14.837,62.473,131.02,2.5391,2.8868e-7,9.8221,0.11668,0,0.86192,-2.3655e-5,17867,6.5219,209.1,199.03,0.97931,0.18884,11761192,2529,15.445,0.66795,0.73654,0.42168,0.12163,0.12464,3.1878,3.1013,1.7818e-4,0,0.020264,1.3999,101151
0.49625,15.459,63.784,131.1,2.6424,3.1798e-7,9.8221,0.11309,0,0.96157,-2.1588e-5,17853,6.52,209.4,199.02,1.0096,0.19266,11998485,2529,16.005,0.66817,0.73333,0.42162,0.12172,0.12483,3.0764,3.0815,-1.5812e-4,0,0.024231,1.399,101144
0.50625,16.095,65.096,131.18,2.7477,3.5004e-7,9.8221,0.10952,0,1.0645,-1.7726e-5,17839,6.5181,209.69,199,1.04,0.19649,12236004,2529,16.574,0.66839,0.73018,0.42156,0.12181,0.12502,2.9662,3.0558,-3.9974e-4,0,0.028553,1.3979,101136
0.51625,16.744,66.408,131.26,2.8551,3.8521e-7,9.8221,0.10595,0,1.1706,-1.5387e-5,17824,6.5162,209.99,198.98,1.0707,0.20032,12473745,2529,17.152,0.66862,0.72709,0.42149,0.12191,0.12522,2.857,3.0261,-3.5603e-4,0,0.03322,1.3967,101129
0.52625,17.406,67.722,131.35,2.9645,4.2378e-7,9.8221,0.10238,0,1.2796,-7.5577e-6,17810,6.5143,210.29,198.97,1.1016,0.20415,12711706,2529,17.738,0.66885,0.72404,0.42143,0.12201,0.12542,2.7487,2.9898,-1.1569e-4,0,0.038222,1.3955,101121
0.53625,18.08,69.036,131.43,3.076,4.6589e-7,9.8221,0.098811,0,1.3914,-1.0104e-5,17796,6.5124,210.59,198.95,1.1329,0.20799,1.295e7,2529,18.334,0.66909,0.72105,0.42136,0.12211,0.12562,2.6411,2.9483,2.4982e-4,0,0.04354,1.3941,101113
0.54625,18.768,70.351,131.51,3.1896,5.117e-7,9.8221,0.095228,0,1.5057,-4.3871e-6,17781,6.5105,210.9,198.93,1.1646,0.21183,13188279,2529,18.939,0.66934,0.71811,0.42129,0.12221,0.12583,2.5339,2.9019,1.2155e-4,0,0.049155,1.3926,101105
0.55625,19.468,71.667,131.59,3.3054,5.6131e-7,9.8221,0.091629,0,1.6223,-1.3104e-5,17767,6.5087,211.22,198.91,1.1968,0.21567,13426886,2529,19.552,0.66958,0.71522,0.42122,0.12231,0.12605,2.4272,2.8495,-3.2381e-4,0,0.055043,1.3909,101097
0.56625,20.182,72.984,131.67,3.4233,6.1483e-7,9.8221,0.08801,0,1.7408,-8.3669e-6,17753,6.5068,211.53,198.9,1.2294,0.21952,13665703,2529,20.174,0.66984,0.71239,0.42115,0.12242,0.12626,2.3208,2.7919,1.5683e-4,0,0.061175,1.3892,101088
0.57625,20.909,74.301,131.75,3.5434,6.724e-7,9.822,0.084369,0,1.8609,-9.7886e-6,17739,6.5049,211.86,198.88,1.2625,0.22338,13904729,2529,20.806,0.67009,0.70961,0.42108,0.12253,0.12649,2.2145,2.728,3.4078e-4,0,0.067517,1.3873,101080
0.58625,21.648,75.619,131.83,3.6658,7.3413e-7,9.822,0.080701,0,1.9822,-1.014e-5,17724,6.503,212.19,198.86,1.2962,0.22724,14143959,2529,21.446,0.67036,0.7069,0.42101,0.12264,0.12671,2.1084,2.6587,-2.7599e-4,0,0.074032,1.3853,101071
0.59625,22.401,76.938,131.91,3.7904,8.0014e-7,9.822,0.077004,0,2.1044,-7.1391e-6,17710,6.5011,212.52,198.84,1.3305,0.2311,14383393,2529,22.096,0.67062,0.70424,0.42093,0.12275,0.12694,2.0023,2.5835,1.9173e-4,0,0.080676,1.3831,101062
0.60625,23.166,78.258,131.99,3.9173,8.7051e-7,9.822,0.073276,0,2.227,-1.6063e-5,17696,6.4992,212.86,198.83,1.3653,0.23496,14623026,2529,22.756,0.6709,0.70166,0.42086,0.12286,0.12718,1.8963,2.5019,1.9466e-4,0,0.087401,1.3808,101053
0.61625,23.945,79.579,132.07,4.0465,9.4541e-7,9.822,0.069517,0,2.3495,-1.073e-5,17681,6.4973,213.21,198.81,1.4009,0.23883,14862856,2529,23.425,0.67117,0.69915,0.42078,0.12298,0.12742,1.7903,2.4134,-2.9951e-4,0,0.094154,1.3785,101044
0.62625,24.736,80.9,132.15,4.1781,1.025e-6,9.822,0.065725,0,2.4713,-7.5284e-6,17667,6.4954,213.56,198.79,1.4371,0.24271,15102878,2529,24.105,0.67145,0.69673,0.4207,0.1231,0.12766,1.6843,2.3192,4.4005e-4,0,0.10088,1.3759,101035
0.63625,25.541,82.222,132.23,4.3121,1.1092e-6,9.822,0.061901,0,2.5919,-9.7099e-6,17653,6.4935,213.93,198.77,1.4739,0.24659,15343089,2529,24.796,0.67174,0.6944,0.42062,0.12322,0.1279,1.5785,2.2193,2.1787e-4,0,0.10751,1.3733,101025
0.64625,26.358,83.545,132.31,4.4486,1.1983e-6,9.822,0.058046,0,2.7108,-1.9491e-5,17638,6.4916,214.29,198.76,1.5114,0.25047,15583485,2529,25.498,0.67203,0.69216,0.42054,0.12334,0.12816,1.4727,2.1124,3.0637e-4,0,0.11397,1.3705,101016
0.65625,27.189,84.868,132.39,4.5876,1.2924e-6,9.822,0.05416,0,2.8271,-2.0235e-5,17624,6.4897,214.67,198.74,1.5497,0.25435,15824060,2529,26.212,0.67233,0.69004,0.42045,0.12346,0.12841,1.3671,1.9982,1.9352e-4,0,0.12021,1.3676,101006
0.66625,28.032,86.192,132.47,4.7292,1.3917e-6,9.822,0.050246,0,2.9403,-4.6747e-6,17610,6.4878,215.05,198.72,1.5885,0.25824,16064811,2529,26.938,0.67263,0.68803,0.42037,0.12359,0.12867,1.2617,1.8786,2.0328e-4,0,0.12614,1.3646,100996
0.67625,28.889,87.517,132.55,4.8734,1.4964e-6,9.822,0.046307,0,3.0495,-3.4773e-6,17596,6.4859,215.44,198.7,1.6281,0.26213,16305730,2529,27.678,0.67293,0.68615,0.42028,0.12372,0.12893,1.1567,1.7519,-2.4149e-4,0,0.13169,1.3614,100986
0.68625,29.758,88.842,132.63,5.0204,1.6063e-6,9.822,0.042348,0,3.154,-4.9357e-6,17581,6.484,215.84,198.69,1.6683,0.26603,16546811,2529,28.432,0.67325,0.68441,0.4202,0.12385,0.1292,1.0522,1.6183,3.0572e-4,0,0.13678,1.3582,100976
0.69625,30.641,90.168,132.71,5.17,1.7214e-6,9.822,0.038371,0,3.2529,-2.1359e-5,17567,6.4821,216.24,198.67,1.709,0.26993,16788049,2529,29.2,0.67356,0.68283,0.42011,0.12398,0.12947,0.94831,1.4789,1.7134e-4,0,0.14132,1.3548,100966
0.70625,31.536,91.494,132.79,5.3225,1.8416e-6,9.822,0.034383,0,3.3454,-4.4565e-5,17553,6.4802,216.64,198.65,1.7504,0.27383,17029435,2529,29.985,0.67388,0.6814,0.42002,0.12412,0.12975,0.84518,1.3337,-1.3102e-4,0,0.14525,1.3514,100955
0.71625,32.445,92.821,132.86,5.4779,1.9674e-6,9.822,0.03039,0,3.4306,-5.3734e-5,17538,6.4783,217.06,198.63,1.7922,0.27774,17270962,2529,30.786,0.67421,0.68014,0.41993,0.12425,0.13003,0.74298,1.1836,-3.7284e-4,0,0.14847,1.3478,100944
0.72625,33.366,94.148,132.94,5.6363,2.0993e-6,9.822,0.0264,0,3.5075,-5.5023e-5,17524,6.4763,217.47,198.61,1.8345,0.28164,17512622,2529,31.605,0.67454,0.67906,0.41983,0.12439,0.13031,0.64191,1.0268,1.5713e-4,0,0.15093,1.3442,100934
0.73625,34.3,95.476,133.02,5.7977,2.238e-6,9.822,0.022419,0,3.5752,-7.5819e-5,17510,6.4744,217.89,198.6,1.8772,0.28556,17754405,2529,32.443,0.67487,0.67817,0.41974,0.12453,0.1306,0.54214,0.86527,-6.9726e-5,0,0.15255,1.3405,100923
0.74625,35.247,96.804,133.1,5.9622,2.384e-6,9.822,0.018458,0,3.6327,-1.1157e-4,17495,6.4725,218.32,198.58,1.9201,0.28947,17996303,2529,33.3,0.67521,0.67747,0.41965,0.12467,0.13089,0.4439,0.6995,4.8462e-4,0,0.15327,1.3367,100912
0.75625,36.207,98.132,133.18,6.1299,2.5385e-6,9.822,0.014525,0,3.6791,-1.5702e-4,17481,6.4706,218.74,198.56,1.9633,0.29339,18238306,2529,34.178,0.67556,0.67697,0.41955,0.12482,0.13119,0.34741,0.52909,-4.7004e-4,0,0.15305,1.3329,100900
0.76625,37.181,99.461,133.25,6.3009,2.7027e-6,9.822,0.010631,0,3.7135,-1.9468e-4,17467,6.4687,219.17,198.54,2.0065,0.29731,1.848e7,2529,35.078,0.67591,0.67667,0.41945,0.12496,0.13149,0.2529,0.35583,-1.2876e-4,0,0.15184,1.329,100889
0.77625,38.167,100.79,133.33,6.4752,2.8781e-6,9.822,0.0067874,0,3.7348,-3.0015e-4,17452,6.4668,219.59,198.52,2.0496,0.30123,18722588,2529,36.001,0.67626,0.67658,0.41935,0.12511,0.1318,0.1606,0.17949,4.1953e-4,0,0.14962,1.3251,100877
0.78625,39.165,102.12,133.41,6.6529,3.0657e-6,9.822,0.0030066,0,3.7422,-6.9045e-4,17438,6.4649,220.02,198.51,2.0925,0.30515,18964847,2529,36.947,0.67662,0.67668,0.41925,0.12526,0.13211,0.070763,0.0021688,-1.8964e-4,0,0.14638,1.3212,100866
0.79625,40.177,103.45,133.49,6.8342,3.2669e-6,9.822,6.9857e-4,0,-3.7348,-0.0029319,17424,6.463,220.28,198.49,2.1197,0.30908,19207170,2529,37.916,0.67699,0.67699,0.41915,0.12542,0.13242,0.016389,0.17708,3.9878e-4,0,-0.14212,1.3173,100854
0.80625,41.202,104.78,133.56,7.019,3.4831e-6,9.822,0.0043147,0,-3.7121,-4.665e-4,17410,6.461,219.88,198.47,2.0826,0.31301,1.945e7,2529,38.91,0.67735,0.67748,0.41905,0.12557,0.13274,0.10179,0.34922,-3.4962e-4,0,-0.1369,1.3134,100842
0.81625,42.239,106.11,133.64,7.2076,3.7157e-6,9.822,0.0078276,0,-3.674,-2.343e-4,17395,6.4591,219.5,198.45,2.047,0.31694,19691972,2529,39.927,0.67773,0.67815,0.41894,0.12573,0.13306,0.18565,0.51047,1.9921e-4,0,-0.1308,1.3095,100830
0.82625,43.289,107.44,133.71,7.3998,3.9662e-6,9.822,0.011224,0,-3.6208,-1.7745e-4,17381,6.4572,219.13,198.43,2.0131,0.32087,19934431,2529,40.968,0.67811,0.67896,0.41883,0.12589,0.13338,0.26757,0.66302,8.9561e-5,0,-0.12394,1.3057,100817
0.83625,44.352,108.77,133.79,7.596,4.2362e-6,9.822,0.01449,0,-3.5525,-1.3373e-4,17367,6.4553,218.78,198.42,1.9809,0.3248,20176916,2529,42.032,0.67849,0.6799,0.41873,0.12605,0.13371,0.34714,0.8045,-2.6217e-5,0,-0.11645,1.3019,100805
0.84625,45.428,110.1,133.87,7.796,4.5273e-6,9.822,0.017613,0,-3.4696,-1.1148e-4,17352,6.4533,218.45,198.4,1.9505,0.32874,20419419,2529,43.117,0.67888,0.68095,0.41862,0.12621,0.13405,0.42396,0.93506,2.8407e-4,0,-0.10843,1.2983,100792
0.85625,46.517,111.42,133.94,8,4.8405e-6,9.822,0.020582,0,-3.3724,-1.1424e-4,17338,6.4514,218.14,198.38,1.9221,0.33268,20661933,2529,44.223,0.67927,0.68208,0.41851,0.12638,0.13439,0.49762,1.0561,-3.517e-4,0,-0.10004,1.2947,100779
0.86625,47.618,112.75,134.02,8.2082,5.1767e-6,9.822,0.023384,0,-3.2612,-9.1107e-5,17324,6.4495,217.85,198.36,1.8956,0.33661,20904450,2529,45.35,0.67967,0.68327,0.4184,0.12655,0.13473,0.56776,1.1676,6.9321e-5,0,-0.091376,1.2912,100767
0.87625,48.733,114.08,134.09,8.4205,5.5365e-6,9.822,0.026008,0,-3.1365,-1.0092e-4,17309,6.4476,217.58,198.34,1.8712,0.34055,21146964,2529,46.495,0.68008,0.6845,0.41828,0.12671,0.13508,0.63398,1.2685,-3.627e-4,0,-0.082581,1.2878,100753
0.88625,49.859,115.41,134.16,8.637,5.9204e-6,9.822,0.028445,0,-2.9988,-7.0498e-5,17295,6.4456,217.33,198.32,1.8489,0.34449,21389471,2529,47.657,0.68048,0.68575,0.41817,0.12689,0.13543,0.69593,1.3602,-2.0541e-4,0,-0.073775,1.2846,100740
0.89625,50.999,116.74,134.24,8.8579,6.3285e-6,9.822,0.030685,0,-2.8486,-8.2545e-5,17281,6.4437,217.11,198.31,1.8287,0.34843,21631967,2529,48.835,0.6809,0.687,0.41805,0.12706,0.13578,0.75327,1.4422,4.2271e-4,0,-0.065072,1.2816,100727
0.90625,52.151,118.07,134.31,9.0832,6.7607e-6,9.822,0.032719,0,-2.6865,-8.2854e-5,17267,6.4418,216.9,198.29,1.8107,0.35237,21874449,2529,50.029,0.68131,0.68822,0.41794,0.12723,0.13614,0.80567,1.5151,2.7093e-4,0,-0.05659,1.2787,100713
0.91625,53.316,119.4,134.38,9.3129,7.2166e-6,9.8219,0.034539,0,-2.5129,-8.7301e-5,17252,6.4399,216.72,198.27,1.795,0.35631,22116915,2529,51.235,0.68174,0.68941,0.41782,0.12741,0.1365,0.85286,1.5798,4.9597e-4,0,-0.048427,1.2759,100700
0.92625,54.494,120.73,134.45,9.5471,7.6955e-6,9.8219,0.036138,0,-2.3287,-9.9267e-5,17238,6.4379,216.57,198.25,1.7816,0.36026,22359366,2529,52.454,0.68216,0.69053,0.4177,0.12759,0.13687,0.89454,1.6345,3.3239e-4,0,-0.040682,1.2734,100686
0.93625,55.684,122.06,134.52,9.7859,8.1962e-6,9.8219,0.03751,0,-2.1344,-1.1215e-4,17224,6.436,216.43,198.23,1.7705,0.3642,22601801,2529,53.683,0.6826,0.69159,0.41758,0.12777,0.13724,0.93049,1.6808,1.6326e-4,0,-0.033441,1.2711,100672
0.94625,56.887,123.39,134.59,10.029,8.7168e-6,9.8219,0.038649,0,-1.9308,-1.1881e-4,17209,6.4341,216.32,198.21,1.7617,0.36815,22844223,2529,54.922,0.68303,0.69256,0.41746,0.12796,0.13762,0.96049,1.7189,-4.8957e-4,0,-0.026782,1.2689,100658
0.95625,58.102,124.72,134.65,10.278,9.2552e-6,9.8219,0.03955,0,-1.7186,-1.2916e-4,17195,6.4321,216.24,198.2,1.7552,0.37209,23086635,2529,56.168,0.68347,0.69343,0.41733,0.12814,0.138,0.98436,1.7485,-2.8581e-4,0,-0.020771,1.267,100644
0.96625,59.33,126.05,134.72,10.531,9.8085e-6,9.8219,0.040211,0,-1.4985,-1.2419e-4,17181,6.4302,216.18,198.18,1.7512,0.37604,23329040,2529,57.422,0.68392,0.6942,0.41721,0.12833,0.13838,1.002,1.7696,3.2169e-4,0,-0.015464,1.2653,100629
0.97625,60.571,127.38,134.78,10.788,1.0374e-5,9.8219,0.040627,0,-1.2716,-1.2662e-4,17166,6.4282,216.14,198.16,1.7495,0.37999,23571444,2529,58.682,0.68437,0.69487,0.41708,0.12852,0.13877,1.0132,1.7836,4.5367e-4,0,-0.010905,1.2639,100615
0.98625,61.824,128.71,134.83,11.051,1.0947e-5,9.8219,0.040798,0,-1.0386,-1.275e-4,17152,6.4263,216.13,198.14,1.7502,0.38394,23813851,2529,59.946,0.68483,0.69541,0.41695,0.12871,0.13916,1.0179,1.7882,-3.3094e-4,0,-0.0071267,1.2627,100600
0.99625,63.09,130.04,134.89,11.318,1.1524e-5,9.8219,0.040723,0,-0.80066,-9.0998e-5,17138,6.4244,216.14,198.12,1.7533,0.38789,24056268,2529,61.216,0.68529,0.69585,0.41682,0.12891,0.13956,1.0162,1.7858,9.7047e-5,0,-0.0041492,1.2617,100585
1.0063,64.369,131.38,134.94,11.59,1.2103e-5,9.8219,0.040401,0,-0.55867,-1.0847e-4,17124,6.4224,216.18,198.1,1.7588,0.39184,24298701,2529,62.489,0.68576,0.69616,0.41669,0.1291,0.13996,1.008,1.775,-1.4406e-4,0,-0.0019797,1.261,100570
1.0163,65.66,132.71,134.99,11.868,1.2681e-5,9.8219,0.039835,0,-0.31381,-8.6692e-5,17109,6.4205,216.24,198.08,1.7666,0.3958,24541156,2529,63.765,0.68623,0.69636,0.41656,0.1293,0.14037,0.99335,1.7552,2.8609e-5,0,-6.1221e-4,1.2606,100555
1.0263,66.963,134.04,135.04,12.15,1.3253e-5,9.8219,0.039028,0,-0.0673,-1.094e-4,17095,6.4185,216.33,198.06,1.7769,0.39975,24783640,2529,65.045,0.6867,0.69646,0.41643,0.1295,0.14077,0.97238,1.7274,-2.8615e-4,0,-2.7604e-5,1.2604,100540
1.0363,68.279,135.38,135.08,12.437,1.3819e-5,9.8219,0.037982,0,0.17953,-8.3191e-5,17081,6.4166,216.44,198.05,1.7895,0.40371,25026160,2529,66.329,0.68719,0.69646,0.41629,0.1297,0.14119,0.94521,1.6916,-7.6715e-5,0,1.926e-4,1.2604,100524
1.0463,69.608,136.71,135.12,12.728,1.4374e-5,9.8219,0.036704,0,0.4252,-1.1091e-4,17066,6.4146,216.58,198.03,1.8043,0.40767,25268720,2529,67.617,0.68767,0.69636,0.41616,0.12991,0.14161,0.91203,1.6443,3.4332e-4,0,0.0010595,1.2607,100509
1.0563,70.95,138.05,135.16,13.025,1.4916e-5,9.8219,0.0352,0,0.66792,-1.3292e-4,17052,6.4127,216.73,198.01,1.8215,0.41163,25511326,2529,68.911,0.68816,0.69619,0.41602,0.13012,0.14203,0.87307,1.5882,2.3168e-4,0,0.0025644,1.2613,100493
1.0663,72.304,139.39,135.19,13.327,1.5442e-5,9.8219,0.033479,0,0.90592,-8.8886e-5,17038,6.4108,216.91,197.99,1.8409,0.4156,25753982,2529,70.21,0.68866,0.69596,0.41588,0.13032,0.14245,0.82863,1.5206,-3.1959e-5,0,0.0046282,1.2621,100477
1.0763,73.67,140.72,135.22,13.633,1.5949e-5,9.8219,0.031551,0,1.1373,-8.2726e-5,17023,6.4088,217.12,197.97,1.8624,0.41957,25996692,2529,71.516,0.68916,0.69568,0.41574,0.13054,0.14288,0.77903,1.4441,2.8353e-5,0,0.0071576,1.2632,100461
1.0863,75.049,142.06,135.24,13.945,1.6435e-5,9.8219,0.029428,0,1.3602,-9.8722e-5,17009,6.4069,217.34,197.95,1.8859,0.42354,26239456,2529,72.832,0.68967,0.69537,0.4156,0.13075,0.14332,0.72467,1.3565,4.0229e-4,0,0.010046,1.2645,100445
1.0963,76.441,143.4,135.27,14.261,1.6898e-5,9.8219,0.027125,0,1.5723,-1.2678e-4,16995,6.4049,217.58,197.93,1.9114,0.42751,26482276,2529,74.158,0.69018,0.69506,0.41546,0.13096,0.14376,0.66599,1.2596,-2.7658e-4,0,0.013176,1.266,100428
1.1063,77.846,144.75,135.29,14.582,1.7337e-5,9.8219,0.024656,0,1.7716,-1.5486e-4,16980,6.4029,217.84,197.91,1.9387,0.43148,26725150,2529,75.498,0.6907,0.69475,0.41531,0.13118,0.1442,0.60346,1.153,-3.6835e-4,0,0.016423,1.2678,100412
1.1163,79.263,146.09,135.3,14.907,1.7749e-5,9.8219,0.022041,0,1.9561,-1.8708e-4,16966,6.401,218.12,197.89,1.9677,0.43546,26968074,2529,76.853,0.69122,0.69448,0.41517,0.1314,0.14465,0.53761,1.0383,1.3739e-4,0,0.019657,1.2697,100395
1.1263,80.693,147.43,135.32,15.237,1.8131e-5,9.8219,0.019297,0,2.1235,-2.5792e-4,16952,6.399,218.42,197.88,1.9983,0.43944,27211045,2529,78.227,0.69175,0.69427,0.41502,0.13162,0.1451,0.46901,0.91407,7.0456e-6,0,0.022749,1.2719,100379
1.1363,82.136,148.78,135.33,15.572,1.8481e-5,9.8219,0.016447,0,2.2716,-2.6944e-4,16938,6.3971,218.73,197.86,2.0301,0.44342,27454056,2529,79.62,0.69228,0.69412,0.41487,0.13185,0.14556,0.39825,0.78252,4.3933e-4,0,0.025569,1.2742,100362
1.1463,83.591,150.12,135.35,15.911,1.8794e-5,9.8219,0.013514,0,2.3985,-3.7534e-4,16923,6.3951,219.05,197.84,2.0631,0.4474,27697099,2529,81.037,0.69282,0.69407,0.41472,0.13207,0.14602,0.32596,0.64404,-4.4803e-4,0,0.028002,1.2766,100345
1.1563,85.06,151.47,135.36,16.255,1.9068e-5,9.8219,0.010522,0,2.502,-4.5879e-4,16909,6.3932,219.37,197.82,2.0969,0.45138,2.794e7,2529,82.479,0.69336,0.69413,0.41457,0.1323,0.14649,0.25278,0.50001,4.4826e-4,0,0.029937,1.2792,100327
1.1663,86.541,152.82,135.37,16.603,1.9298e-5,9.8218,0.0074977,0,2.5804,-5.9308e-4,16895,6.3912,219.71,197.8,2.1313,0.45537,28183242,2529,83.949,0.69391,0.6943,0.41442,0.13253,0.14696,0.1794,0.35067,-1.1692e-4,0,0.031288,1.2819,100310
1.1763,88.035,154.17,135.38,16.955,1.9482e-5,9.8218,0.0044686,0,2.6319,-9.7242e-4,16880,6.3892,220.05,197.78,2.1661,0.45936,28426321,2529,85.448,0.69446,0.6946,0.41426,0.13277,0.14743,0.10649,0.19822,-2.0213e-4,0,0.031987,1.2846,100292
1.1863,89.542,155.52,135.39,17.311,1.9617e-5,9.8218,0.0014633,0,2.6551,-0.0028452,16866,6.3873,220.39,197.76,2.2009,0.46335,28669387,2529,86.977,0.69502,0.69503,0.41411,0.133,0.14791,0.034732,0.044042,2.4408e-4,0,0.031995,1.2874,100275
1.1963,91.061,156.87,135.4,17.672,1.9704e-5,9.8218,0.0014887,0,-2.6487,-0.0027631,16852,6.3853,220.39,197.74,2.2031,0.46734,28912430,2529,88.537,0.69558,0.6956,0.41395,0.13324,0.14839,0.035346,0.10904,4.6454e-4,0,-0.031301,1.2902,100257
1.2063,92.594,158.22,135.42,18.036,1.9746e-5,9.8218,0.0043574,0,-2.6125,-9.2954e-4,16837,6.3833,220.08,197.72,2.1747,0.47133,29155437,2529,90.129,0.69615,0.69628,0.41379,0.13348,0.14888,0.10393,0.25623,1.5265e-4,0,-0.029939,1.2929,100239
1.2163,94.14,159.57,135.43,18.404,1.9755e-5,9.8218,0.0071134,0,-2.547,-6.0762e-4,16823,6.3814,219.78,197.7,2.1478,0.47532,29398396,2529,91.75,0.69672,0.69708,0.41363,0.13372,0.14937,0.17039,0.39382,1.5844e-4,0,-0.027982,1.2956,100221
1.2263,95.699,160.93,135.44,18.776,1.9741e-5,9.8218,0.0097288,0,-2.4533,-4.8134e-4,16809,6.3794,219.5,197.68,2.1227,0.47931,29641295,2529,93.399,0.6973,0.69796,0.41347,0.13396,0.14987,0.234,0.52187,1.6121e-4,0,-0.025531,1.2982,100203
1.2363,97.27,162.28,135.46,19.152,1.9719e-5,9.8218,0.012177,0,-2.3324,-3.8312e-4,16795,6.3774,219.25,197.66,2.0995,0.48331,29884126,2529,95.074,0.69788,0.69891,0.41331,0.13421,0.15037,0.29402,0.63995,7.842e-5,0,-0.022698,1.3007,100184
1.2463,98.855,163.64,135.47,19.532,1.9705e-5,9.8218,0.014434,0,-2.1858,-3.3278e-4,16780,6.3755,219.01,197.64,2.0785,0.4873,30126879,2529,96.772,0.69847,0.69991,0.41314,0.13446,0.15087,0.34975,0.74623,2.3028e-4,0,-0.019609,1.3031,100166
1.2563,100.45,164.99,135.49,19.915,1.9714e-5,9.8218,0.016477,0,-2.015,-3.4191e-4,16766,6.3735,218.8,197.62,2.0599,0.4913,3.037e7,2529,98.49,0.69906,0.70093,0.41298,0.13471,0.15138,0.40057,0.8418,-4.7053e-4,0,-0.016396,1.3053,100147
1.2663,102.06,166.35,135.51,20.301,1.9762e-5,9.8218,0.018287,0,-1.822,-2.9548e-4,16752,6.3715,218.62,197.6,2.0439,0.49529,30612128,2529,100.23,0.69966,0.70195,0.41281,0.13496,0.15189,0.44586,0.92397,2.156e-4,0,-0.013191,1.3073,100128
1.2763,103.69,167.7,135.53,20.691,1.9867e-5,9.8218,0.019846,0,-1.6089,-2.3021e-4,16737,6.3695,218.46,197.59,2.0305,0.49929,30854618,2529,101.97,0.70026,0.70296,0.41264,0.13521,0.15241,0.4851,0.99553,-9.5981e-5,0,-0.010121,1.3091,100109
1.2863,105.33,169.06,135.55,21.084,2.0044e-5,9.8218,0.021139,0,-1.3776,-1.9855e-4,16723,6.3676,218.33,197.57,2.0199,0.50328,31097016,2529,103.73,0.70087,0.70392,0.41247,0.13547,0.15293,0.51784,1.0532,-3.1665e-5,0,-0.0073038,1.3107,100090
1.2963,106.98,170.41,135.57,21.481,2.0308e-5,9.8218,0.022155,0,-1.1308,-2.4455e-4,16709,6.3656,218.23,197.55,2.0123,0.50728,31339323,2529,105.5,0.70148,0.70483,0.4123,0.13573,0.15345,0.54368,1.0989,-4.7369e-4,0,-0.0048443,1.312,100070
1.3063,108.64,171.77,135.59,21.881,2.067e-5,9.8218,0.022883,0,-0.87092,-2.3621e-4,16694,6.3636,218.17,197.53,2.0077,0.51127,31581543,2529,107.28,0.7021,0.70567,0.41213,0.13599,0.15398,0.56234,1.132,-4.5136e-4,0,-0.0028288,1.313,100051
1.3163,110.32,173.13,135.61,22.284,2.1145e-5,9.8218,0.023319,0,-0.60062,-1.7115e-4,16680,6.3616,218.13,197.51,2.0061,0.51527,31823680,2529,109.06,0.70272,0.70643,0.41196,0.13625,0.15452,0.5736,1.1516,-1.3995e-4,0,-0.0013246,1.3138,100031
1.3263,112.01,174.48,135.63,22.69,2.1744e-5,9.8218,0.023458,0,-0.32281,-1.7727e-4,16666,6.3596,218.13,197.49,2.0077,0.51927,32065740,2529,110.84,0.70335,0.7071,0.41178,0.13652,0.15505,0.57736,1.1592,5.2442e-5,0,-3.7679e-4,1.3143,100011
1.3363,113.71,175.84,135.65,23.099,2.2477e-5,9.8218,0.023302,0,-0.040336,-1.6597e-4,16651,6.3577,218.15,197.47,2.0122,0.52326,32307730,2529,112.62,0.70398,0.70769,0.4116,0.13678,0.15559,0.57359,1.1544,-4.2064e-4,0,-5.7936e-6,1.3145,99991
1.3463,115.43,177.2,135.66,23.512,2.3351e-5,9.8218,0.022853,0,0.24363,-1.903e-4,16637,6.3557,218.21,197.45,2.0198,0.52726,3.255e7,2529,114.41,0.70462,0.70819,0.41143,0.13705,0.15614,0.56238,1.1361,-4.4844e-4,0,2.0817e-4,1.3144,99971
1.3563,117.15,178.55,135.68,23.927,2.4372e-5,9.8218,0.022117,0,0.52555,-1.3202e-4,16623,6.3537,218.3,197.43,2.0304,0.53126,32791525,2529,116.2,0.70526,0.70862,0.41125,0.13733,0.15669,0.54393,1.1033,3.017e-6,0,9.5421e-4,1.314,99951
1.3663,118.9,179.91,135.7,24.346,2.5544e-5,9.8217,0.021106,0,0.80174,-1.9661e-4,16609,6.3517,218.42,197.41,2.0439,0.53526,33033344,2529,117.99,0.70591,0.70897,0.41107,0.1376,0.15725,0.51851,1.0579,-3.5295e-4,0,0.0021877,1.3133,99931
1.3763,120.65,181.27,135.71,24.768,2.6867e-5,9.8217,0.019832,0,1.0686,-1.6057e-4,16594,6.3497,218.57,197.39,2.0601,0.53926,33275116,2529,119.79,0.70656,0.70928,0.41089,0.13787,0.1578,0.48654,0.99821,3.9198e-4,0,0.0038289,1.3123,99910
1.3863,122.42,182.63,135.72,25.193,2.8341e-5,9.8217,0.018314,0,1.3221,-1.3092e-4,16580,6.3477,218.74,197.37,2.079,0.54326,33516846,2529,121.59,0.70722,0.70955,0.4107,0.13815,0.15837,0.44851,0.92645,1.359e-4,0,0.0057756,1.3111,99889
1.3963,124.2,183.98,135.74,25.622,2.9964e-5,9.8217,0.016572,0,1.5586,-1.1951e-4,16566,6.3457,218.94,197.35,2.1002,0.54727,33758535,2529,123.41,0.70789,0.7098,0.41052,0.13843,0.15894,0.40502,0.84278,-3.8984e-4,0,0.0079103,1.3095,99868
1.4063,126,185.34,135.75,26.054,3.1728e-5,9.8217,0.014632,0,1.7744,-6.9084e-5,16551,6.3437,219.16,197.33,2.1237,0.55127,3.4e7,2529,125.24,0.70855,0.71005,0.41033,0.13872,0.15951,0.35676,0.74777,2.9093e-4,0,0.010104,1.3078,99847
1.4163,127.81,186.7,135.77,26.489,3.3622e-5,9.8217,0.012521,0,1.9657,-1.4677e-4,16537,6.3418,219.4,197.31,2.1491,0.55528,34241788,2529,127.09,0.70923,0.71033,0.41014,0.139,0.16008,0.30449,0.6419,-3.5146e-4,0,0.012222,1.3058,99826
1.4263,129.63,188.06,135.78,26.928,3.5634e-5,9.8217,0.010269,0,2.1291,-6.4819e-5,16523,6.3398,219.66,197.29,2.1762,0.55929,34483343,2529,128.96,0.70991,0.71065,0.40995,0.13929,0.16066,0.24904,0.52793,2.5403e-4,0,0.014135,1.3037,99805
1.4363,131.47,189.41,135.8,27.37,3.7751e-5,9.8217,0.0079112,0,2.2614,-7.9661e-5,16508,6.3378,219.93,197.27,2.2046,0.56329,34724844,2529,130.86,0.71059,0.71104,0.40976,0.13958,0.16125,0.19129,0.40596,-4.8751e-4,0,0.01572,1.3014,99783
1.4463,133.31,190.77,135.82,27.816,3.9955e-5,9.8217,0.0054832,0,2.3597,-7.7264e-5,16494,6.3358,220.21,197.25,2.234,0.5673,34966280,2529,132.79,0.71128,0.71149,0.40957,0.13987,0.16184,0.13218,0.2785,4.2665e-5,0,0.016877,1.299,99761
1.4563,135.17,192.13,135.84,28.266,4.2227e-5,9.8217,0.003023,0,2.4217,-6.8146e-5,16480,6.3338,220.5,197.23,2.2639,0.57131,35207641,2529,134.74,0.71197,0.71204,0.40938,0.14016,0.16243,0.072647,0.1471,-2.7562e-5,0,0.017527,1.2965,99740
1.4663,137.05,193.49,135.87,28.719,4.4546e-5,9.8217,5.7031e-4,0,2.4454,-3.9995e-4,16466,6.3318,220.79,197.21,2.2941,0.57532,35448917,2529,136.73,0.71267,0.71267,0.40918,0.14046,0.16303,0.013663,0.014142,-3.3036e-4,0,0.017624,1.2939,99718
1.4763,138.93,194.84,135.89,29.177,4.6891e-5,9.8217,0.0018347,0,-2.4296,-9.5137e-5,16451,6.3298,220.67,197.19,2.2844,0.57934,3.569e7,2529,138.76,0.71338,0.7134,0.40899,0.14076,0.16363,0.044051,0.11765,-3.2222e-4,0,-0.017158,1.2914,99696
1.4863,140.83,196.2,135.92,29.638,4.9241e-5,9.8217,0.0041515,0,-2.3745,-4.5248e-5,16437,6.3278,220.44,197.17,2.2635,0.58335,35931165,2529,140.81,0.71408,0.71421,0.40879,0.14106,0.16424,0.10006,0.24234,-1.2382e-4,0,-0.016165,1.2888,99673
1.4963,142.75,197.55,135.95,30.104,5.1574e-5,9.8217,0.0063417,0,-2.2816,5.4688e-5,16423,6.3258,220.22,197.15,2.2443,0.58736,36172114,2529,142.9,0.7148,0.71509,0.40859,0.14136,0.16485,0.15339,0.35877,1.3409e-4,0,-0.014721,1.2864,99651
1.5063,144.67,198.91,135.97,30.574,5.3872e-5,9.8217,0.0083689,0,-2.1526,5.6686e-5,16408,6.3238,220.02,197.13,2.2269,0.59137,36412935,2529,145.01,0.71552,0.71602,0.40839,0.14166,0.16546,0.2031,0.46521,-2.1733e-5,0,-0.012928,1.2841,99628
1.5163,146.61,200.26,136,31.049,5.6118e-5,9.8217,0.0102,0,-1.9899,9.8415e-5,16394,6.3217,219.84,197.11,2.2119,0.59538,36653619,2529,147.15,0.71624,0.71699,0.40819,0.14197,0.16608,0.24829,0.5599,4.3595e-5,0,-0.010899,1.2819,99605
1.5263,148.56,201.62,136.03,31.527,5.8299e-5,9.8217,0.011806,0,-1.7964,1.0027e-4,16380,6.3197,219.69,197.09,2.1993,0.59939,36894162,2529,149.31,0.71697,0.71797,0.40799,0.14228,0.16671,0.28817,0.64282,3.2625e-4,0,-0.0087649,1.2799,99583
1.5363,150.53,202.97,136.05,32.011,6.0403e-5,9.8216,0.013162,0,-1.5757,7.9622e-5,16365,6.3177,219.57,197.06,2.1894,0.6034,37134559,2529,151.48,0.7177,0.71894,0.40778,0.14259,0.16733,0.322,0.71184,-4.9106e-4,0,-0.0066546,1.2781,99560
1.5463,152.51,204.33,136.07,32.499,6.2423e-5,9.8216,0.014245,0,-1.3316,1.1221e-4,16351,6.3157,219.48,197.04,2.1825,0.60741,37374810,2529,153.67,0.71844,0.71989,0.40758,0.1429,0.16796,0.3492,0.76706,-1.2222e-4,0,-0.0046899,1.2766,99536
1.5563,154.5,205.68,136.09,32.991,6.435e-5,9.8216,0.01504,0,-1.0681,1.6254e-4,16337,6.3137,219.42,197.02,2.1786,0.61142,37614917,2529,155.87,0.71919,0.72079,0.40737,0.14322,0.1686,0.36927,0.80723,-3.9974e-4,0,-0.0029783,1.2754,99513
1.5663,156.5,207.03,136.1,33.489,6.6184e-5,9.8216,0.015536,0,-0.78992,2.3723e-4,16322,6.3117,219.39,197,2.1779,0.61543,37854882,2529,158.07,0.71994,0.72165,0.40716,0.14353,0.16924,0.38189,0.83357,3.8398e-4,0,-0.0016078,1.2744,99490
1.5763,158.51,208.39,136.1,33.991,6.7929e-5,9.8216,0.015727,0,-0.50181,1.1665e-4,16308,6.3097,219.4,196.98,2.1804,0.61944,38094712,2529,160.27,0.72069,0.72245,0.40695,0.14385,0.16988,0.38686,0.84446,-2.1453e-4,0,-6.4051e-4,1.2737,99466
1.5863,160.54,209.74,136.1,34.497,6.959e-5,9.8216,0.015612,0,-0.20867,1.4291e-4,16294,6.3077,219.43,196.96,2.1861,0.62345,38334412,2529,162.48,0.72145,0.72318,0.40674,0.14418,0.17053,0.38413,0.83973,-3.1109e-4,0,-1.0934e-4,1.2733,99442
1.5963,162.58,211.09,136.08,35.009,7.1172e-5,9.8216,0.015194,0,0.084131,2.6138e-4,16280,6.3056,219.5,196.94,2.1949,0.62746,38573987,2529,164.69,0.72221,0.72386,0.40653,0.1445,0.17118,0.37382,0.8205,-2.7609e-4,0,1.7548e-5,1.2733,99418
1.6063,164.64,212.44,136.06,35.525,7.2687e-5,9.8216,0.014486,0,0.37095,3.1884e-4,16265,6.3036,219.61,196.92,2.2068,0.63148,38813443,2529,166.91,0.72298,0.72448,0.40632,0.14483,0.17184,0.3562,0.78544,-3.5767e-4,0,3.3684e-4,1.2735,99394
1.6163,166.7,213.8,136.04,36.046,7.4151e-5,9.8216,0.013502,0,0.64608,3.0875e-4,16251,6.3016,219.74,196.9,2.2216,0.63549,39052786,2529,169.13,0.72376,0.72506,0.4061,0.14515,0.1725,0.3317,0.73576,-7.6786e-5,0,0.001009,1.274,99370
1.6263,168.78,215.15,136,36.572,7.5582e-5,9.8216,0.012264,0,0.90388,4.2072e-4,16237,6.2996,219.9,196.88,2.2391,0.6395,39292017,2529,171.36,0.72453,0.72562,0.40588,0.14548,0.17316,0.3009,0.67218,1.2574e-4,0,0.0019503,1.2749,99345
1.6363,170.87,216.5,135.96,37.102,7.7003e-5,9.8216,0.010798,0,1.1389,5.2733e-4,16222,6.2976,220.08,196.86,2.2591,0.64351,39531138,2529,173.6,0.72532,0.72616,0.40567,0.14582,0.17383,0.26453,0.59476,-2.4052e-4,0,0.0030579,1.2759,99321
1.6463,172.98,217.86,135.92,37.637,7.8438e-5,9.8216,0.0091377,0,1.3457,5.3012e-4,16208,6.2955,220.29,196.84,2.2812,0.64752,3.977e7,2529,175.86,0.72611,0.72671,0.40545,0.14615,0.17451,0.22344,0.50539,-3.0835e-4,0,0.0042166,1.2772,99296
1.6563,175.1,219.21,135.88,38.177,7.9915e-5,9.8216,0.0073183,0,1.519,6.2034e-4,16194,6.2935,220.51,196.82,2.3051,0.65153,40009038,2529,178.15,0.7269,0.72729,0.40523,0.14649,0.17518,0.17858,0.40591,3.6074e-4,0,0.005307,1.2787,99271
1.6663,177.23,220.57,135.83,38.721,8.1456e-5,9.8216,0.005381,0,1.6547,7.9899e-4,16179,6.2915,220.75,196.8,2.3305,0.65555,40247806,2529,180.46,0.7277,0.72791,0.40501,0.14683,0.17587,0.13101,0.29875,3.1622e-4,0,0.0062209,1.2804,99246
1.6763,179.37,221.92,135.79,39.269,8.308e-5,9.8216,0.0033693,0,1.7492,0.0013133,16165,6.2895,221,196.77,2.3567,0.65956,40486442,2529,182.8,0.72851,0.72859,0.40478,0.14717,0.17655,0.081837,0.18613,-1.4631e-4,0,0.0068681,1.2822,99221
1.6863,181.53,223.28,135.74,39.821,8.4806e-5,9.8216,0.0013293,0,1.7997,0.0032791,16151,6.2874,221.26,196.75,2.3834,0.66357,40724935,2529,185.17,0.72931,0.72933,0.40456,0.14751,0.17724,0.03221,0.069858,-2.3489e-4,0,0.007183,1.2841,99196
1.6963,183.7,224.63,135.7,40.378,8.6656e-5,9.8215,6.9146e-4,0,-1.8042,0.0061413,16137,6.2854,221.36,196.73,2.3953,0.66758,40963274,2529,187.57,0.73013,0.73013,0.40433,0.14786,0.17794,0.016748,0.047083,4.7362e-4,0,-0.0071324,1.2859,99171
1.7063,185.88,225.99,135.66,40.939,8.8649e-5,9.8215,0.0026451,0,-1.7621,0.0016225,16122,6.2834,221.17,196.71,2.3794,0.6716,41201447,2529,190.01,0.73095,0.731,0.4041,0.14821,0.17864,0.064279,0.15981,7.2698e-5,0,-0.0067233,1.2878,99145
1.7163,188.07,227.34,135.62,41.504,9.08e-5,9.8215,0.0044851,0,-1.6751,9.3729e-4,16108,6.2813,221,196.69,2.3649,0.67561,41439444,2529,192.48,0.73177,0.73192,0.40388,0.14856,0.17934,0.10934,0.2646,3.8111e-5,0,-0.0060037,1.2896,99119
1.7263,190.28,228.7,135.59,42.072,9.3116e-5,9.8215,0.0061684,0,-1.5455,6.4955e-4,16094,6.2793,220.85,196.67,2.3522,0.67962,41677254,2529,194.98,0.7326,0.73288,0.40365,0.14891,0.18004,0.15081,0.35991,-3.6563e-4,0,-0.0050512,1.2913,99093
1.7363,192.5,230.06,135.56,42.644,9.5601e-5,9.8215,0.0076561,0,-1.377,4.543e-4,16079,6.2772,220.72,196.65,2.3417,0.68363,41914870,2529,197.5,0.73344,0.73387,0.40341,0.14927,0.18076,0.18767,0.44309,2.8281e-4,0,-0.0039631,1.2928,99067
1.7463,194.74,231.41,135.53,43.22,9.8258e-5,9.8215,0.0089141,0,-1.1737,4.5019e-4,16065,6.2752,220.62,196.63,2.3337,0.68764,42152287,2529,200.04,0.73427,0.73486,0.40318,0.14962,0.18147,0.21901,0.51371,4.1239e-4,0,-0.0028458,1.2942,99041
1.7563,196.99,232.77,135.5,43.8,1.0109e-4,9.8215,0.0099143,0,-0.94083,3.7726e-4,16051,6.2732,220.54,196.61,2.3285,0.69165,4.239e7,2529,202.59,0.73512,0.73584,0.40295,0.14998,0.18219,0.24406,0.57024,-4.3789e-4,0,-0.0018075,1.2953,99015
1.7663,199.25,234.12,135.47,44.383,1.0408e-4,9.8215,0.010635,0,-0.68412,3.6135e-4,16036,6.2711,220.5,196.58,2.3262,0.69566,42626515,2529,205.16,0.73597,0.7368,0.40271,0.15034,0.18291,0.2622,0.61137,-2.4517e-4,0,-9.4477e-4,1.2961,98988
1.7763,201.52,235.48,135.44,44.97,1.0722e-4,9.8215,0.011061,0,-0.4101,3.4153e-4,16022,6.2691,220.49,196.56,2.3271,0.69966,42863328,2529,207.73,0.73682,0.73772,0.40248,0.15071,0.18364,0.27302,0.63543,4.1185e-4,0,-3.3565e-4,1.2967,98962
1.7863,203.81,236.83,135.41,45.56,1.1049e-4,9.8215,0.011186,0,-0.12555,3.7423e-4,16008,6.267,220.51,196.54,2.3312,0.70367,4.31e7,2529,210.31,0.73768,0.7386,0.40224,0.15107,0.18437,0.2763,0.64371,3.2788e-4,0,-3.1101e-5,1.297,98935
1.7963,206.11,238.19,135.38,46.153,1.1389e-4,9.8215,0.01101,0,0.16234,4.6425e-4,15993,6.265,220.56,196.52,2.3384,0.70768,43336370,2529,212.89,0.73854,0.73943,0.402,0.15144,0.1851,0.27202,0.63554,4.7588e-4,0,5.1419e-5,1.297,98908
1.8063,208.42,239.54,135.34,46.75,1.1737e-4,9.8215,0.01054,0,0.44588,4.2398e-4,15979,6.2629,220.64,196.5,2.3487,0.71168,43572608,2529,215.48,0.73941,0.74023,0.40176,0.15181,0.18584,0.26038,0.61126,-3.3862e-4,0,3.8354e-4,1.2967,98881
1.8163,210.74,240.89,135.31,47.351,1.2092e-4,9.8215,0.0097916,0,0.71758,3.8347e-4,15965,6.2609,220.76,196.48,2.3619,0.71569,43808663,2529,218.08,0.74028,0.74099,0.40152,0.15218,0.18659,0.24178,0.56996,2.957e-4,0,9.8237e-4,1.296,98853
1.8263,213.08,242.25,135.27,47.955,1.245e-4,9.8215,0.0087891,0,0.96966,4.318e-4,15951,6.2588,220.9,196.46,2.3779,0.71969,44044538,2529,220.69,0.74116,0.74173,0.40127,0.15255,0.18733,0.21684,0.51426,-1.9231e-4,0,0.001774,1.2952,98826
1.8363,215.44,243.6,135.24,48.562,1.2809e-4,9.8214,0.0075623,0,1.195,4.2251e-4,15936,6.2568,221.07,196.43,2.3962,0.72369,4.428e7,2529,223.31,0.74204,0.74247,0.40103,0.15293,0.18809,0.18636,0.44374,4.6348e-4,0,0.0026648,1.294,98798
1.8463,217.8,244.95,135.2,49.173,1.3167e-4,9.8214,0.0061484,0,1.3868,3.9511e-4,15922,6.2547,221.26,196.41,2.4167,0.7277,44515748,2529,225.95,0.74293,0.74321,0.40078,0.15331,0.18884,0.1513,0.36193,-3.8621e-4,0,0.0035493,1.2927,98771
1.8563,220.18,246.3,135.17,49.788,1.3522e-4,9.8214,0.0045901,0,1.5388,5.7433e-4,15908,6.2527,221.46,196.39,2.4387,0.7317,44751076,2529,228.61,0.74382,0.74398,0.40053,0.15369,0.1896,0.11277,0.2703,-3.6168e-4,0,0.0043231,1.2911,98743
1.8663,222.57,247.66,135.14,50.407,1.3872e-4,9.8214,0.0029347,0,1.6465,9.5839e-4,15893,6.2506,221.68,196.37,2.4619,0.7357,44986212,2529,231.3,0.74472,0.74479,0.40029,0.15407,0.19036,0.071976,0.17209,1.0672e-4,0,0.0048957,1.2895,98715
1.8763,224.97,249.01,135.12,51.029,1.4216e-4,9.8214,0.0012329,0,1.7059,0.0024366,15879,6.2486,221.9,196.35,2.4856,0.7397,45221146,2529,234.02,0.74562,0.74563,0.40004,0.15446,0.19113,0.030184,0.06979,-7.4219e-5,0,0.0051988,1.2877,98686
1.8863,227.39,250.36,135.09,51.656,1.4553e-4,9.8214,4.6277e-4,0,-1.7149,0.0065083,15865,6.2465,222.02,196.33,2.4995,0.7437,45455870,2529,236.78,0.74653,0.74653,0.39979,0.15484,0.1919,0.011324,0.033686,4.9217e-4,0,-0.0051976,1.2859,98658
1.8963,229.82,251.7,135.07,52.286,1.488e-4,9.8214,0.0020996,0,-1.6727,0.0014733,15850,6.2444,221.88,196.3,2.4878,0.7477,4.569e7,2529,239.57,0.74744,0.74748,0.39953,0.15523,0.19268,0.051524,0.13317,1.2077e-4,0,-0.0048929,1.2841,98630
1.9063,232.26,253.05,135.06,52.921,1.5196e-4,9.8214,0.0036265,0,-1.5815,9.274e-4,15836,6.2424,221.75,196.28,2.4772,0.7517,45924646,2529,242.38,0.74836,0.74846,0.39928,0.15562,0.19346,0.089239,0.22556,2.6681e-4,0,-0.0043274,1.2824,98601
1.9163,234.72,254.4,135.04,53.56,1.55e-4,9.8214,0.0049966,0,-1.4444,5.9111e-4,15822,6.2403,221.64,196.26,2.4685,0.7557,46158681,2529,245.23,0.74928,0.74947,0.39902,0.15602,0.19424,0.12327,0.30803,3.1357e-4,0,-0.003572,1.2808,98572
1.9263,237.19,255.75,135.02,54.203,1.5791e-4,9.8214,0.0061685,0,-1.2662,4.9827e-4,15808,6.2383,221.55,196.24,2.4619,0.7597,46392471,2529,248.09,0.75021,0.75049,0.39877,0.15641,0.19503,0.15252,0.37836,-5.7157e-5,0,-0.0027162,1.2794,98543
1.9363,239.67,257.09,135,54.851,1.6071e-4,9.8214,0.0071074,0,-1.0528,5.585e-4,15793,6.2362,221.48,196.22,2.4578,0.76369,46626014,2529,250.98,0.75114,0.75152,0.39851,0.15681,0.19582,0.17607,0.43488,3.5925e-4,0,-0.0018584,1.2782,98514
1.9463,242.16,258.44,134.97,55.504,1.6341e-4,9.8214,0.0077862,0,-0.81166,3.3489e-4,15779,6.2341,221.45,196.19,2.4565,0.76769,46859309,2529,253.87,0.75207,0.75253,0.39825,0.15721,0.19661,0.19318,0.47601,-1.1279e-4,0,-0.0010931,1.2772,98485
1.9563,244.67,259.78,134.93,56.161,1.6601e-4,9.8214,0.0081866,0,-0.55014,4.3817e-4,15765,6.232,221.44,196.17,2.4582,0.77168,47092355,2529,256.78,0.75301,0.75352,0.39799,0.15761,0.19741,0.20335,0.50052,-2.8959e-4,0,-4.9703e-4,1.2765,98455
1.9663,247.19,261.13,134.88,56.822,1.6855e-4,9.8214,0.0082993,0,-0.27707,4.4585e-4,15750,6.23,221.47,196.15,2.4629,0.77567,47325157,2529,259.7,0.75396,0.75448,0.39773,0.15801,0.19822,0.20631,0.50859,-2.2689e-4,0,-1.2479e-4,1.2761,98426
1.9763,249.72,262.47,134.83,57.488,1.7105e-4,9.8213,0.0081243,0,-0.0014665,4.1435e-4,15736,6.2279,221.53,196.13,2.4706,0.77966,47557717,2529,262.62,0.75491,0.75541,0.39747,0.15842,0.19902,0.20204,0.4994,1.1303e-4,0,0,1.2759,98396
1.9863,252.26,263.81,134.76,58.159,1.7354e-4,9.8213,0.0076714,0,0.26723,4.4552e-4,15722,6.2258,221.61,196.11,2.4813,0.78365,4.779e7,2529,265.55,0.75586,0.75631,0.3972,0.15883,0.19983,0.19077,0.47351,1.451e-4,0,1.1374e-4,1.2761,98366
1.9963,254.82,265.15,134.68,58.834,1.7605e-4,9.8213,0.0069599,0,0.51973,4.7077e-4,15707,6.2238,221.73,196.08,2.4947,0.78763,48022125,2529,268.49,0.75682,0.75719,0.39694,0.15924,0.20065,0.17302,0.43097,-3.3421e-4,0,4.2592e-4,1.2765,98336
2.0063,257.39,266.5,134.6,59.514,1.7861e-4,9.8213,0.0060184,0,0.74677,4.9838e-4,15693,6.2217,221.87,196.06,2.5106,0.79162,48253976,2529,271.44,0.75779,0.75806,0.39667,0.15965,0.20147,0.14951,0.37464,-4.0249e-4,0,8.7052e-4,1.2771,98306
2.0163,259.97,267.84,134.51,60.199,1.8126e-4,9.8213,0.0048834,0,0.94038,6.9858e-4,15679,6.2196,222.03,196.04,2.5286,0.7956,48485591,2529,274.41,0.75876,0.75894,0.3964,0.16006,0.20229,0.1212,0.30492,-2.5747e-4,0,0.0013667,1.278,98276
2.0263,262.57,269.18,134.42,60.887,1.8402e-4,9.8213,0.0035989,0,1.0929,0.0011128,15664,6.2175,222.21,196.02,2.5482,0.79959,48716965,2529,277.41,0.75973,0.75983,0.39614,0.16048,0.20311,0.089221,0.22527,6.6086e-5,0,0.0018278,1.2791,98246
2.0363,265.18,270.52,134.33,61.58,1.8693e-4,9.8213,0.0022145,0,1.1988,0.0015427,15650,6.2154,222.4,195.99,2.5689,0.80357,48948092,2529,280.43,0.76071,0.76075,0.39586,0.1609,0.20394,0.05483,0.13824,2.7807e-4,0,0.0021777,1.2803,98215
2.0463,267.8,271.86,134.24,62.278,1.9002e-4,9.8213,7.8375e-4,0,1.2534,0.0042167,15636,6.2133,222.6,195.97,2.5902,0.80755,49178964,2529,283.48,0.76169,0.7617,0.39559,0.16132,0.20478,0.019379,0.048331,-2.6709e-4,0,0.002357,1.2816,98184
2.0563,270.43,273.2,134.15,62.979,1.933e-4,9.8213,6.3774e-4,0,-1.2546,0.0050007,15622,6.2113,222.65,195.95,2.5978,0.81153,4.941e7,2529,286.56,0.76268,0.76268,0.39532,0.16174,0.20562,0.015776,0.042906,-8.2741e-5,0,-0.0023387,1.2829,98153
2.0662,273.08,274.54,134.07,63.685,1.968e-4,9.8213,0.0019945,0,-1.2024,0.0015743,15607,6.2092,222.55,195.93,2.5895,0.81551,4.964e7,2529,289.67,0.76367,0.7637,0.39505,0.16217,0.20646,0.049464,0.13019,4.4742e-5,0,-0.0021274,1.2842,98122
2.0762,275.74,275.88,133.99,64.394,2.0053e-4,9.8213,0.0032337,0,-1.0996,9.7347e-4,15593,6.2071,222.45,195.9,2.5824,0.81949,4.987e7,2529,292.81,0.76467,0.76475,0.39477,0.16259,0.2073,0.080392,0.20954,-4.7251e-4,0,-0.0017621,1.2854,98091
2.0862,278.41,277.22,133.91,65.108,2.0449e-4,9.8213,0.0043083,0,-0.95052,7.782e-4,15579,6.205,222.37,195.88,2.5772,0.82346,5.01e7,2529,295.97,0.76567,0.76581,0.3945,0.16302,0.20815,0.10734,0.27752,3.4426e-4,0,-0.001304,1.2865,98060
2.0962,281.09,278.56,133.84,65.825,2.0867e-4,9.8212,0.0051777,0,-0.76202,5.9511e-4,15564,6.2029,222.32,195.86,2.5742,0.82743,50329186,2529,299.16,0.76668,0.76688,0.39422,0.16345,0.209,0.12924,0.33341,-4.2599e-4,0,-8.3015e-4,1.2874,98028
2.1062,283.79,279.9,133.76,66.546,2.1304e-4,9.8212,0.0058106,0,-0.54158,4.9208e-4,15550,6.2008,222.29,195.84,2.5737,0.83141,50558355,2529,302.35,0.76769,0.76795,0.39394,0.16389,0.20986,0.14526,0.374,-3.8491e-4,0,-4.1535e-4,1.2881,97997
2.1162,286.5,281.24,133.69,67.27,2.1759e-4,9.8212,0.0061848,0,-0.29857,4.4089e-4,15536,6.1987,222.29,195.81,2.576,0.83537,50787226,2529,305.57,0.7687,0.769,0.39366,0.16432,0.21072,0.15481,0.39891,-1.4081e-4,0,-1.2504e-4,1.2885,97965
2.1262,289.22,282.58,133.62,67.998,2.2228e-4,9.8212,0.0062891,0,-0.042856,2.9671e-4,15521,6.1966,222.32,195.79,2.5811,0.83934,51015801,2529,308.79,0.76972,0.77003,0.39338,0.16476,0.21158,0.15755,0.40663,-1.6022e-4,0,-2.5522e-6,1.2887,97933
2.1362,291.96,283.91,133.54,68.73,2.2709e-4,9.8212,0.0061235,0,0.2147,3.2479e-4,15507,6.1945,222.38,195.77,2.589,0.84331,51244081,2529,312.02,0.77075,0.77104,0.3931,0.1652,0.21245,0.15347,0.39756,1.2452e-4,0,6.3455e-5,1.2886,97901
2.1462,294.71,285.25,133.46,69.465,2.3198e-4,9.8212,0.0056989,0,0.46333,2.9991e-4,15493,6.1924,222.47,195.74,2.5997,0.84727,51472069,2529,315.26,0.77177,0.77203,0.39281,0.16564,0.21332,0.14285,0.37121,4.7111e-4,0,2.9279e-4,1.2882,97869
2.1562,297.47,286.58,133.38,70.204,2.3693e-4,9.8212,0.0050379,0,0.69192,2.4379e-4,15479,6.1903,222.58,195.72,2.613,0.85123,5.17e7,2529,318.51,0.77281,0.77301,0.39253,0.16608,0.2142,0.12625,0.32967,1.6182e-5,0,6.4694e-4,1.2876,97836
2.1662,300.25,287.91,133.3,70.946,2.4191e-4,9.8212,0.0041729,0,0.89058,2.3499e-4,15464,6.1882,222.72,195.7,2.6283,0.85519,51927172,2529,321.78,0.77384,0.77398,0.39224,0.16653,0.21508,0.10452,0.2736,-4.8323e-4,0,0.0010619,1.2868,97804
2.1762,303.03,289.25,133.23,71.693,2.469e-4,9.8212,0.0031454,0,1.0504,4.4066e-4,15450,6.1861,222.87,195.68,2.6455,0.85915,52154284,2529,325.07,0.77489,0.77496,0.39195,0.16697,0.21596,0.078731,0.20699,-8.6209e-5,0,0.0014638,1.2858,97771
2.1862,305.83,290.58,133.15,72.443,2.5188e-4,9.8212,0.0020042,0,1.1641,5.5386e-4,15436,6.184,223.04,195.65,2.6639,0.8631,52381098,2529,328.38,0.77593,0.77597,0.39167,0.16742,0.21684,0.050124,0.13146,-2.6276e-4,0,0.0017816,1.2846,97738
2.1962,308.65,291.91,133.08,73.197,2.5682e-4,9.8212,8.0336e-4,0,1.2262,0.0011874,15421,6.1819,223.21,195.63,2.683,0.86706,52607607,2529,331.72,0.77698,0.77699,0.39138,0.16788,0.21773,0.020072,0.051771,1.2243e-4,0,0.0019587,1.2834,97705
2.2062,311.47,293.24,133.02,73.955,2.6173e-4,9.8212,4.0052e-4,0,-1.2341,0.0021704,15407,6.1798,223.3,195.61,2.6936,0.87101,52833804,2529,335.09,0.77804,0.77804,0.39109,0.16833,0.21863,0.010009,0.028883,4.5698e-4,0,-0.0019663,1.2821,97672
2.2162,314.31,294.57,132.95,74.717,2.666e-4,9.8211,0.0015506,0,-1.1872,5.2397e-4,15393,6.1777,223.21,195.58,2.6877,0.87496,5.306e7,2529,338.49,0.7791,0.77912,0.39079,0.16878,0.21952,0.038839,0.10588,-7.2011e-5,0,-0.0018035,1.2808,97639
2.2262,317.16,295.89,132.89,75.483,2.7145e-4,9.8211,0.0025928,0,-1.0886,4.8962e-4,15378,6.1756,223.14,195.56,2.683,0.87891,53285231,2529,341.91,0.78016,0.78022,0.3905,0.16924,0.22042,0.065086,0.17659,4.8892e-4,0,-0.0015029,1.2796,97605
