Time (s),Altitude (m),Total velocity (m/s),Total acceleration (m/s),Position East of launch (m),Position North of launch (m),Gravitational acceleration (m/s),Angle of attack (rad),Roll rate (rpm),Pitch rate (rpm),Yaw rate (rpm),Mass (g),Longitudinal moment of inertia (kgm),CP location (cm),CG location (cm),Stability margin calibers (?),Mach number (?),Reynolds number (?),Thrust (N),Drag force (N),Drag coefficient (?),Axial drag coefficient (?),Friction drag coefficient (?),Pressure drag coefficient (?),Base drag coefficient (?),Normal force coefficient (?),Pitch moment coefficient (?),Yaw moment coefficient (?),Roll damping coefficient (?),Pitch damping coefficient (?),Vertical orientation (zenith) (rad),Air pressure (Pa)
0,0,0,35.765,0,0,9.8221,0,0,0,0,18553,6.611,NaN,199.83,NaN,0,0,843,0,2.3192,2.3192,2.0799,0.11938,0.12,NaN,NaN,NaN,NaN,NaN,1.3963,101325
2e-3,7.0443e-5,0.07153,115.28,1.2421e-5,0,9.8221,0,0,0,0,18553,6.611,NaN,199.83,NaN,2.1014e-4,13105,2318.2,5.5409e-5,2.1302,2.1302,1.8908,0.11938,0.12,NaN,NaN,NaN,NaN,NaN,1.3963,101325
4e-3,4.384e-4,0.30211,126.65,7.7303e-5,0,9.8221,0,0,0,0,18551,6.6107,NaN,199.83,NaN,8.8755e-4,55348,2529,6.7197e-4,1.4482,1.4482,1.2088,0.11938,0.12,NaN,NaN,NaN,NaN,NaN,1.3963,101325
6e-3,0.0012829,0.55545,126.67,2.2622e-4,0,9.8221,0,0,0,0,18549,6.6104,NaN,199.82,NaN,0.0016318,101761,2529,0.0019869,1.2668,1.2668,1.0274,0.11938,0.12,NaN,NaN,NaN,NaN,NaN,1.3963,101325
8e-3,0.0026265,0.80883,126.69,4.6312e-4,0,9.8221,0,0,0,0,18546,6.6101,NaN,199.82,NaN,0.0023762,148181,2529,0.003906,1.1744,1.1744,0.93507,0.11938,0.12,NaN,NaN,NaN,NaN,NaN,1.3963,101325
0.01,0.0044691,1.0622,126.71,7.8803e-4,0,9.8221,0,0,0,0,18543,6.6097,NaN,199.82,NaN,0.0031207,194609,2529,0.0063964,1.1151,1.1151,0.87569,0.11938,0.12,NaN,NaN,NaN,NaN,NaN,1.3963,101325
0.012,0.006811,1.3157,126.73,0.001201,0,9.8221,0,0,0,0,18540,6.6093,NaN,199.81,NaN,0.0038653,241044,2529,0.0094369,1.0723,1.0723,0.83294,0.11938,0.12,NaN,NaN,NaN,NaN,NaN,1.3963,101325
0.014,0.009652,1.5692,126.76,0.0017019,0,9.8221,0,0,0,0,18537,6.6089,NaN,199.81,NaN,0.0046101,287487,2529,0.013012,1.0394,1.0394,0.80005,0.11938,0.12,NaN,NaN,NaN,NaN,NaN,1.3963,101325
0.016,0.012992,1.8228,126.78,0.0022909,0,9.8221,0,0,0,0,18534,6.6086,NaN,199.81,NaN,0.0053549,333938,2529,0.01711,1.013,1.013,0.7736,0.11938,0.12,NaN,NaN,NaN,NaN,NaN,1.3963,101325
0.018,0.016832,2.0763,126.8,0.002968,0,9.8221,0,0,0,0,18531,6.6082,NaN,199.8,NaN,0.0060999,380396,2529,0.021721,0.99104,0.99104,0.75165,0.11938,0.12,NaN,NaN,NaN,NaN,NaN,1.3963,101325
0.02,0.021172,2.33,126.82,0.0037331,0,9.8221,0,0,0,0,18529,6.6078,NaN,199.8,NaN,0.0068451,426862,2529,0.026836,0.97239,0.97239,0.733,0.11938,0.12001,NaN,NaN,NaN,NaN,NaN,1.3963,101325
0.022,0.026011,2.5836,126.84,0.0045864,0,9.8221,0,0,0,0,18526,6.6075,NaN,199.8,NaN,0.0075903,473335,2529,0.03245,0.95625,0.95625,0.71686,0.11938,0.12001,NaN,NaN,NaN,NaN,NaN,1.3963,101325
0.024,0.031349,2.8374,126.86,0.0055277,0,9.8221,0,0,0,0,18523,6.6071,NaN,199.79,NaN,0.0083357,519816,2529,0.038556,0.94207,0.94207,0.70268,0.11938,0.12001,NaN,NaN,NaN,NaN,NaN,1.3963,101325
0.026,0.037188,3.0911,126.88,0.0065572,0,9.8221,0,0,0,0,18520,6.6067,NaN,199.79,NaN,0.0090811,566304,2529,0.045149,0.92948,0.92948,0.69009,0.11938,0.12001,NaN,NaN,NaN,NaN,NaN,1.3963,101325
0.028,0.043526,3.3449,126.9,0.0076748,0,9.8221,0,0,0,0,18517,6.6064,NaN,199.79,NaN,0.0098267,612800,2529,0.052225,0.91817,0.91817,0.67878,0.11938,0.12001,NaN,NaN,NaN,NaN,NaN,1.3963,101324
0.03,0.050364,3.5987,126.92,0.0088806,0,9.8221,0,0,0,0,18514,6.606,NaN,199.78,NaN,0.010572,659304,2529,0.059778,0.90794,0.90794,0.66854,0.11938,0.12001,NaN,NaN,NaN,NaN,NaN,1.3963,101324
0.032,0.057702,3.8526,126.94,0.010174,0,9.8221,0,0,0,0,18511,6.6056,NaN,199.78,NaN,0.011318,705815,2529,0.067806,0.89861,0.89861,0.65921,0.11939,0.12002,NaN,NaN,NaN,NaN,NaN,1.3963,101324
0.034,0.065541,4.1065,126.96,0.011557,0,9.8221,0,0,0,0,18508,6.6053,NaN,199.78,NaN,0.012064,752333,2529,0.076304,0.89005,0.89005,0.65065,0.11939,0.12002,NaN,NaN,NaN,NaN,NaN,1.3963,101324
0.036,0.073879,4.3605,126.98,0.013027,0,9.8221,0,0,0,0,18506,6.6049,NaN,199.78,NaN,0.01281,798859,2529,0.085271,0.88216,0.88216,0.64275,0.11939,0.12002,NaN,NaN,NaN,NaN,NaN,1.3963,101324
0.038,0.082718,4.6145,127,0.014585,0,9.8221,0,0,0,0,18503,6.6045,NaN,199.77,NaN,0.013557,845393,2529,0.094702,0.87484,0.87484,0.63543,0.11939,0.12002,NaN,NaN,NaN,NaN,NaN,1.3963,101324
0.04,0.092057,4.8686,127.02,0.016232,0,9.8221,0,0,0,0,18500,6.6042,NaN,199.77,NaN,0.014303,891934,2529,0.1046,0.86803,0.86803,0.62861,0.11939,0.12003,NaN,NaN,NaN,NaN,NaN,1.3963,101324
0.042,0.1019,5.1226,127.05,0.017967,0,9.8221,0,0,0,0,18497,6.6038,NaN,199.77,NaN,0.015049,938482,2529,0.11495,0.86167,0.86167,0.62224,0.11939,0.12003,NaN,NaN,NaN,NaN,NaN,1.3963,101324
0.044,0.11224,5.3768,127.07,0.01979,0,9.8221,0,0,0,0,18494,6.6034,NaN,199.76,NaN,0.015796,985038,2529,0.12576,0.8557,0.8557,0.61627,0.11939,0.12003,NaN,NaN,NaN,NaN,NaN,1.3963,101324
0.046,0.12308,5.6309,127.09,0.021702,0,9.8221,0,0,0,0,18491,6.6031,NaN,199.76,NaN,0.016543,1031601,2529,0.13702,0.85009,0.85009,0.61065,0.11939,0.12004,NaN,NaN,NaN,NaN,NaN,1.3963,101324
0.048,0.13442,5.8851,127.11,0.023701,0,9.8221,0,0,0,0,18488,6.6027,NaN,199.76,NaN,0.017289,1078172,2529,0.14874,0.84479,0.84479,0.60536,0.1194,0.12004,NaN,NaN,NaN,NaN,NaN,1.3963,101323
0.05,0.14626,6.1394,127.13,0.025789,0,9.8221,0,0,0,0,18486,6.6023,NaN,199.75,NaN,0.018036,1124750,2529,0.16091,0.83978,0.83978,0.60034,0.1194,0.12004,NaN,NaN,NaN,NaN,NaN,1.3963,101323
0.052,0.1586,6.3937,127.15,0.027966,0,9.8221,0,0,0,0,18483,6.602,NaN,199.75,NaN,0.018783,1171335,2529,0.17353,0.83504,0.83504,0.59559,0.1194,0.12005,NaN,NaN,NaN,NaN,NaN,1.3963,101323
0.054,0.17145,6.648,127.17,0.03023,0,9.8221,0,0,0,0,18480,6.6016,NaN,199.75,NaN,0.019531,1217928,2529,0.1866,0.83053,0.83053,0.59108,0.1194,0.12005,NaN,NaN,NaN,NaN,NaN,1.3963,101323
0.056,0.18479,6.9024,127.19,0.032583,0,9.8221,0,0,0,0,18477,6.6012,NaN,199.74,NaN,0.020278,1264528,2529,0.20011,0.82624,0.82624,0.58678,0.1194,0.12005,NaN,NaN,NaN,NaN,NaN,1.3963,101323
0.058,0.19864,7.1568,127.21,0.035025,0,9.8221,0,0,0,0,18474,6.6009,NaN,199.74,NaN,0.021025,1311136,2529,0.21407,0.82215,0.82215,0.58269,0.11941,0.12006,NaN,NaN,NaN,NaN,NaN,1.3963,101323
0.06,0.21298,7.4112,127.23,0.037555,0,9.8221,0,0,0,0,18471,6.6005,NaN,199.74,NaN,0.021773,1357750,2529,0.22847,0.81824,0.81824,0.57877,0.11941,0.12006,NaN,NaN,NaN,NaN,NaN,1.3963,101323
0.062,0.22783,7.6657,127.25,0.040173,0,9.8221,0,0,0,0,18468,6.6001,NaN,199.73,NaN,0.022521,1404373,2529,0.24332,0.8145,0.8145,0.57503,0.11941,0.12007,NaN,NaN,NaN,NaN,NaN,1.3963,101322
0.064,0.24318,7.9203,127.27,0.042879,0,9.8221,0,0,0,0,18466,6.5998,NaN,199.73,NaN,0.023268,1451002,2529,0.2586,0.81092,0.81092,0.57144,0.11941,0.12007,NaN,NaN,NaN,NaN,NaN,1.3963,101322
0.066,0.25903,8.1748,127.29,0.045674,0,9.8221,0,0,0,0,18463,6.5994,NaN,199.73,NaN,0.024016,1497639,2529,0.27432,0.80748,0.80748,0.56799,0.11941,0.12007,NaN,NaN,NaN,NaN,NaN,1.3963,101322
0.068,0.27538,8.4295,127.31,0.048557,0,9.8221,0,0,0,0,18460,6.599,NaN,199.72,NaN,0.024764,1544283,2529,0.29048,0.80418,0.80418,0.56468,0.11942,0.12008,NaN,NaN,NaN,NaN,NaN,1.3963,101322
0.07,0.29224,8.6841,127.33,0.051529,0,9.8221,0,0,0,0,18457,6.5986,NaN,199.72,NaN,0.025512,1590934,2529,0.30708,0.801,0.801,0.5615,0.11942,0.12008,NaN,NaN,NaN,NaN,NaN,1.3963,101322
0.072,0.30959,8.9388,127.35,0.054589,0,9.8221,0,0,0,0,18454,6.5983,NaN,199.72,NaN,0.026261,1637593,2529,0.32412,0.79794,0.79794,0.55843,0.11942,0.12009,NaN,NaN,NaN,NaN,NaN,1.3963,101321
0.074,0.32745,9.1936,127.37,0.057738,0,9.8221,0,0,0,0,18451,6.5979,NaN,199.71,NaN,0.027009,1684259,2529,0.34158,0.79499,0.79499,0.55547,0.11942,0.12009,NaN,NaN,NaN,NaN,NaN,1.3963,101321
0.076,0.34581,9.4483,127.39,0.060975,0,9.8221,0,0,0,0,18448,6.5975,NaN,199.71,NaN,0.027758,1730932,2529,0.35949,0.79214,0.79214,0.55262,0.11943,0.1201,NaN,NaN,NaN,NaN,NaN,1.3963,101321
0.078,0.36467,9.7032,127.41,0.064301,0,9.8221,0,0,0,0,18446,6.5972,NaN,199.71,NaN,0.028506,1777612,2529,0.37782,0.78939,0.78939,0.54986,0.11943,0.12011,NaN,NaN,NaN,NaN,NaN,1.3963,101321
0.08,0.38403,9.958,127.43,0.067715,0,9.8221,0,0,0,0,18443,6.5968,NaN,199.7,NaN,0.029255,1824300,2529,0.39659,0.78673,0.78673,0.54719,0.11943,0.12011,NaN,NaN,NaN,NaN,NaN,1.3963,101320
0.082,0.40389,10.213,127.45,0.071217,0,9.8221,0,0,0,0,18440,6.5964,NaN,199.7,NaN,0.030004,1870994,2529,0.41579,0.78416,0.78416,0.54461,0.11943,0.12012,NaN,NaN,NaN,NaN,NaN,1.3963,101320
0.084,0.42426,10.468,127.47,0.074809,0,9.8221,0,0,0,0,18437,6.5961,NaN,199.7,NaN,0.030753,1917696,2529,0.43541,0.78167,0.78167,0.54211,0.11944,0.12012,NaN,NaN,NaN,NaN,NaN,1.3963,101320
0.086,0.44513,10.723,127.49,0.078488,0,9.8221,0,0,0,0,18434,6.5957,NaN,199.69,NaN,0.031502,1964405,2529,0.45547,0.77925,0.77925,0.53968,0.11944,0.12013,NaN,NaN,NaN,NaN,NaN,1.3963,101320
0.088,0.4665,10.978,127.51,0.082257,0,9.8221,0,0,0,0,18431,6.5953,NaN,199.69,NaN,0.032251,2011122,2529,0.47596,0.77691,0.77691,0.53733,0.11944,0.12014,NaN,NaN,NaN,NaN,NaN,1.3963,101320
0.09,0.48837,11.233,127.53,0.086113,0,9.8221,0,0,0,0,18428,6.595,NaN,199.69,NaN,0.033,2057845,2529,0.49687,0.77463,0.77463,0.53504,0.11945,0.12014,NaN,NaN,NaN,NaN,NaN,1.3963,101319
0.092,0.51075,11.488,127.57,0.090059,0,9.8221,0,0,0,0,18426,6.5946,220.21,199.68,1.9966,0.03375,2104576,2529,0.51821,0.77242,0.77242,0.53282,0.11945,0.12015,0,-3.5615e-4,4.2979e-4,0,0,1.3963,101319
0.095,0.54525,11.871,127.59,0.096151,0,9.8221,4.3099e-4,0,3.1761e-6,0,18422,6.5941,220.16,199.68,1.9922,0.034874,2174685,2529,0.55102,0.76922,0.76922,0.52961,0.11945,0.12016,0.010026,0.019963,2.8719e-5,0,0,1.3963,101319
0.0995,0.59913,12.445,127.63,0.10569,0,9.8221,0.0010276,0,2.0464e-5,0,18417,6.5934,220.09,199.67,1.9863,0.036561,2279877,2529,0.60203,0.76466,0.76467,0.52502,0.11946,0.12017,0.023926,0.047736,-2.354e-4,0,0,1.3963,101318
0.10625,0.6847,13.307,127.68,0.12091,0,9.8221,0.0018254,0,7.7144e-5,-1.1875e-7,18409,6.5924,220,199.67,1.9784,0.039093,2437731,2529,0.68258,0.7583,0.75833,0.51863,0.11947,0.1202,0.042554,0.084364,3.3624e-4,0,0,1.3963,101317
0.11625,0.82197,14.584,127.77,0.14545,0,9.8221,0.002833,0,2.3769e-4,-2.4063e-7,18397,6.5909,219.89,199.65,1.9688,0.042846,2671729,2529,0.81075,0.74979,0.74985,0.51006,0.11949,0.12024,0.066142,0.13046,5.9068e-5,0,2.9928e-8,1.3963,101315
0.12625,0.97181,15.863,127.87,0.17237,0,9.8221,0.0036768,0,5.0196e-4,-4.6402e-7,18382,6.589,219.8,199.64,1.9612,0.046602,2905898,2529,0.94943,0.74218,0.74228,0.50238,0.11951,0.12028,0.085952,0.16865,9.4154e-6,0,1.1282e-7,1.3963,101314
0.13625,1.1342,17.142,127.96,0.20168,0,9.8221,0.0043932,0,8.8473e-4,0,18368,6.5872,219.72,199.62,1.9551,0.050361,3140243,2529,1.0986,0.73531,0.73546,0.49544,0.11954,0.12033,0.10281,0.20083,-4.7789e-4,0,3.0012e-7,1.3963,101312
0.14625,1.3092,18.423,128.06,0.23339,0,9.8221,0.0050072,0,0.0014019,-5.7797e-7,18354,6.5853,219.65,199.6,1.95,0.054123,3374762,2529,1.2581,0.72907,0.72926,0.48913,0.11956,0.12038,0.11729,0.22824,-4.3906e-4,0,6.5246e-7,1.3963,101310
0.15625,1.4967,19.704,128.16,0.26748,0,9.8221,0.0055391,0,0.0020669,-9.077e-7,18339,6.5835,219.59,199.59,1.9459,0.057888,3609452,2529,1.428,0.72336,0.72359,0.48334,0.11959,0.12044,0.12986,0.25232,-2.6843e-4,0,1.2397e-6,1.3963,101307
0.16625,1.6969,20.986,128.26,0.30397,0,9.8221,0.0060034,0,0.0028947,-1.1834e-6,18325,6.5816,219.54,199.57,1.9426,0.061655,3844312,2529,1.6082,0.71811,0.71837,0.478,0.11962,0.12049,0.14084,0.2736,-4.3719e-5,0,2.1435e-6,1.3963,101305
0.17625,1.9096,22.27,128.36,0.34285,0,9.8221,0.0064114,0,0.0038996,-1.1286e-6,18311,6.5798,219.5,199.55,1.9398,0.065426,4079341,2529,1.7987,0.71326,0.71355,0.47305,0.11965,0.12056,0.15051,0.29171,8.0243e-5,0,3.4548e-6,1.3963,101303
0.18625,2.135,23.554,128.45,0.38413,0,9.8221,0.0067718,0,0.0050963,-2.0655e-6,18296,6.5779,219.46,199.54,1.9376,0.0692,4314537,2529,1.9995,0.70875,0.70907,0.46845,0.11968,0.12062,0.15906,0.30786,-7.1236e-5,0,5.2746e-6,1.3962,101300
0.19625,2.373,24.84,128.55,0.4278,0,9.8221,0.0070915,0,0.0064989,-1.5568e-6,18282,6.5761,219.42,199.52,1.9358,0.072976,4549898,2529,2.2106,0.70455,0.7049,0.46414,0.11971,0.12069,0.16666,0.32298,-4.1496e-4,0,7.7126e-6,1.3962,101297
0.20625,2.6236,26.126,128.65,0.47387,0,9.8221,0.0073761,0,0.0081223,-1.5397e-6,18268,6.5742,219.39,199.51,1.9345,0.076755,4785424,2529,2.4318,0.70061,0.701,0.4601,0.11975,0.12077,0.17343,0.33573,-9.2028e-5,0,1.089e-5,1.3962,101294
0.21625,2.8869,27.413,128.74,0.52234,0,9.8221,0.0076299,0,0.0099799,-2.0227e-6,18254,6.5723,219.36,199.49,1.9334,0.080537,5021111,2529,2.6633,0.69693,0.69734,0.4563,0.11979,0.12084,0.17947,0.34675,-4.4045e-4,0,1.4933e-5,1.3962,101291
0.22625,3.1628,28.701,128.84,0.57321,0,9.8221,0.0078567,0,0.012087,-1.2857e-6,18239,6.5705,219.34,199.47,1.9327,0.084322,5256960,2529,2.905,0.69346,0.69389,0.45271,0.11983,0.12092,0.18488,0.3571,6.1388e-5,0,1.9981e-5,1.3962,101288
0.23625,3.4514,29.991,128.93,0.62649,0,9.8221,0.0080593,0,0.014456,-2.3076e-6,18225,6.5686,219.32,199.46,1.9322,0.08811,5492968,2529,3.1569,0.69019,0.69064,0.44931,0.11987,0.12101,0.18971,0.36672,-3.5017e-4,0,2.6177e-5,1.3962,101285
0.24625,3.7527,31.281,129.03,0.68216,0,9.8221,0.0082401,0,0.017102,-4.0128e-6,18211,6.5668,219.3,199.44,1.932,0.091901,5729134,2529,3.419,0.6871,0.68757,0.44609,0.11991,0.1211,0.19403,0.37516,-5.0665e-5,0,3.3676e-5,1.3962,101281
0.25625,4.0666,32.572,129.12,0.74024,0,9.8221,0.0084012,0,0.020038,-3.0019e-6,18196,6.5649,219.28,199.42,1.932,0.095694,5965456,2529,3.6912,0.68417,0.68465,0.44302,0.11995,0.12119,0.19788,0.3822,-2.6653e-4,0,4.264e-5,1.3962,101277
0.26625,4.3932,33.864,129.21,0.80073,5.305e-9,9.8221,0.0085443,0,0.023273,-2.9004e-6,18182,6.5631,219.27,199.41,1.9322,0.09949,6201933,2529,3.9736,0.68139,0.68189,0.4401,0.12,0.12129,0.2013,0.38892,2.932e-4,0,5.3216e-5,1.3961,101273
0.27625,4.7325,35.157,129.31,0.86363,6.9797e-9,9.8221,0.0086706,0,0.026822,-4.4132e-6,18168,6.5612,219.26,199.39,1.9326,0.10329,6438564,2529,4.2662,0.67875,0.67926,0.43731,0.12005,0.12139,0.20433,0.39531,1.8194e-4,0,6.5579e-5,1.3961,101269
0.28625,5.0846,36.451,129.4,0.92893,9.0286e-9,9.8221,0.0087814,0,0.0307,-6.8424e-6,18153,6.5593,219.25,199.37,1.9331,0.10709,6675347,2529,4.569,0.67624,0.67676,0.43465,0.1201,0.12149,0.20699,0.39971,3.5692e-4,0,7.9925e-5,1.3961,101265
0.29625,5.4493,37.745,129.49,0.99665,1.154e-8,9.8221,0.0088775,0,0.034913,-6.2996e-6,18139,6.5575,219.24,199.36,1.9338,0.1109,6912281,2529,4.8819,0.67384,0.67438,0.43209,0.12015,0.1216,0.2093,0.40439,-1.3702e-5,0,9.6397e-5,1.3961,101261
0.30625,5.8268,39.041,129.58,1.0668,1.4622e-8,9.8221,0.0089598,0,0.039476,-6.8044e-6,18125,6.5556,219.23,199.34,1.9347,0.1147,7149363,2529,5.205,0.67156,0.6721,0.42964,0.12021,0.12171,0.21128,0.40821,4.4178e-4,0,1.1519e-4,1.396,101257
0.31625,6.217,40.338,129.67,1.1393,1.837e-8,9.8221,0.0090288,0,0.044398,-7.0806e-6,18110,6.5537,219.22,199.32,1.9357,0.11851,7386594,2529,5.5383,0.66937,0.66992,0.42728,0.12026,0.12183,0.21294,0.41223,2.4602e-4,0,1.3649e-4,1.396,101252
0.32625,6.62,41.635,129.77,1.2143,2.2892e-8,9.8221,0.0090851,0,0.049688,-6.4693e-6,18096,6.5519,219.22,199.31,1.9369,0.12233,7623970,2529,5.8817,0.66728,0.66783,0.42502,0.12032,0.12195,0.21431,0.41451,-5.5247e-6,0,1.6046e-4,1.3959,101247
0.33625,7.0357,42.934,129.86,1.2916,2.8296e-8,9.8221,0.0091292,0,0.055353,-6.8494e-6,18082,6.55,219.21,199.29,1.9382,0.12614,7861492,2529,6.2354,0.66528,0.66584,0.42283,0.12038,0.12207,0.21538,0.41766,-4.7874e-4,0,1.8728e-4,1.3959,101242
0.34625,7.4641,44.233,129.95,1.3714,3.4689e-8,9.8221,0.0091613,0,0.061403,-6.8622e-6,18068,6.5481,219.21,199.27,1.9397,0.12996,8099155,2529,6.6166,0.66512,0.66567,0.42248,0.12044,0.1222,0.21616,0.41877,-1.7156e-4,0,2.1711e-4,1.3958,101237
0.35625,7.9054,45.533,130.03,1.4536,4.2172e-8,9.8221,0.0091817,0,0.067845,-8.0373e-6,18053,6.5463,219.21,199.26,1.9412,0.13378,8336959,2529,7.0127,0.66527,0.66583,0.42243,0.12051,0.12233,0.21667,0.42085,-4.5166e-4,0,2.5014e-4,1.3957,101232
0.36625,8.3594,46.835,130.12,1.5383,5.0856e-8,9.8221,0.0091905,0,0.074686,-9.4358e-6,18039,6.5444,219.21,199.24,1.943,0.1376,8574900,2529,7.4207,0.66542,0.66599,0.42239,0.12057,0.12246,0.2169,0.42088,-4.1521e-5,0,2.8651e-4,1.3957,101227
0.37625,8.8262,48.137,130.21,1.6253,6.087e-8,9.8221,0.0091881,0,0.08193,-1.23e-5,18025,6.5425,219.21,199.22,1.9448,0.14143,8812978,2529,7.8405,0.66558,0.66615,0.42235,0.12064,0.1226,0.21686,0.42104,-1.8152e-4,0,3.2639e-4,1.3956,101221
0.38625,9.3058,49.44,130.3,1.7148,7.2391e-8,9.8221,0.0091743,0,0.089578,-1.076e-5,18010,6.5406,219.22,199.21,1.9468,0.14526,9051190,2529,8.2724,0.66575,0.66631,0.4223,0.12071,0.12274,0.21655,0.42081,-4.5131e-4,0,3.6987e-4,1.3955,101216
0.39625,9.7982,50.743,130.38,1.8067,8.5591e-8,9.8221,0.0091494,0,0.09763,-7.4118e-6,17996,6.5388,219.22,199.19,1.9488,0.14909,9289536,2529,8.7162,0.66592,0.66648,0.42225,0.12078,0.12289,0.21597,0.42001,-4.8013e-4,0,4.1707e-4,1.3954,101210
0.40625,10.303,52.048,130.47,1.901,1.006e-7,9.8221,0.0091132,0,0.10609,1.0432e-6,17982,6.5369,219.23,199.17,1.9511,0.15293,9528013,2529,9.1721,0.6661,0.66665,0.4222,0.12085,0.12304,0.21513,0.41891,4.7362e-4,0,4.681e-4,1.3953,101204
0.41625,10.821,53.353,130.56,1.9978,1.1746e-7,9.8221,0.0090659,0,0.11496,-2.833e-6,17967,6.535,219.24,199.15,1.9534,0.15676,9766619,2529,9.64,0.66627,0.66682,0.42215,0.12093,0.12319,0.21402,0.41796,3.4299e-4,0,5.2308e-4,1.3952,101198
0.42625,11.352,54.66,130.64,2.097,1.3618e-7,9.8221,0.0090074,0,0.12423,-2.4239e-6,17953,6.5331,219.24,199.14,1.9559,0.1606,10005354,2529,10.12,0.66646,0.667,0.4221,0.121,0.12335,0.21264,0.41489,-7.223e-6,0,5.82e-4,1.395,101192
0.43625,11.896,55.967,130.73,2.1986,1.5679e-7,9.8221,0.0089376,0,0.1339,-1.2896e-6,17939,6.5313,219.25,199.12,1.9585,0.16444,10244214,2529,10.612,0.66665,0.66718,0.42205,0.12108,0.12352,0.211,0.41214,-3.5079e-4,0,6.4491e-4,1.3949,101185
0.44625,12.453,57.275,130.81,2.3027,1.7932e-7,9.8221,0.0088566,0,0.14396,4.6061e-6,17925,6.5294,219.26,199.1,1.9612,0.16829,10483200,2529,11.117,0.66684,0.66736,0.42199,0.12116,0.12368,0.20908,0.40982,3.8332e-5,0,7.1183e-4,1.3948,101179
0.45625,13.022,58.584,130.89,2.4092,2.0371e-7,9.8221,0.0087642,0,0.15441,1.3728e-5,17910,6.5275,219.28,199.09,1.9641,0.17213,10722308,2529,11.633,0.66704,0.66755,0.42194,0.12125,0.12385,0.2069,0.40584,-4.9727e-4,0,7.8273e-4,1.3946,101172
0.46625,13.604,59.894,130.98,2.5182,2.2978e-7,9.8221,0.0086604,0,0.16523,1.387e-5,17896,6.5256,219.29,199.07,1.9671,0.17598,10961538,2529,12.162,0.66724,0.66774,0.42188,0.12133,0.12403,0.20444,0.40172,-3.8381e-4,0,8.5747e-4,1.3944,101165
0.47625,14.199,61.204,131.06,2.6296,2.5728e-7,9.8221,0.0085452,0,0.17641,1.1782e-5,17882,6.5237,219.31,199.05,1.9702,0.17984,11200887,2529,12.703,0.66745,0.66793,0.42182,0.12142,0.1242,0.20171,0.39627,6.5671e-5,0,9.3603e-4,1.3943,101158
0.48625,14.808,62.516,131.14,2.7434,2.8597e-7,9.8221,0.0084185,0,0.18792,1.0354e-5,17867,6.5219,219.32,199.03,1.9734,0.18369,1.144e7,2529,13.256,0.66766,0.66813,0.42176,0.12151,0.12439,0.1987,0.39127,-1.7973e-4,0,0.0010181,1.3941,101151
0.49625,15.428,63.828,131.22,2.8597,3.1567e-7,9.8221,0.0082801,0,0.19977,1.3213e-5,17853,6.52,219.34,199.02,1.9768,0.18755,1.168e7,2529,13.822,0.66787,0.66833,0.4217,0.1216,0.12457,0.19542,0.38568,-1.434e-4,0,0.0011036,1.3939,101144
0.50625,16.062,65.141,131.3,2.9785,3.4616e-7,9.8221,0.0081302,0,0.21191,1.2009e-5,17839,6.5181,219.36,199,1.9803,0.19141,1.192e7,2529,14.4,0.66809,0.66854,0.42164,0.12169,0.12476,0.19186,0.37907,-3.9858e-5,0,0.0011924,1.3937,101137
0.51625,16.709,66.455,131.38,3.0997,3.7719e-7,9.8221,0.0079687,0,0.22433,8.2316e-6,17824,6.5162,219.38,198.98,1.984,0.19527,12159445,2529,14.99,0.66832,0.66875,0.42158,0.12178,0.12496,0.18803,0.37135,3.7221e-4,0,0.0012839,1.3934,101129
0.52625,17.369,67.769,131.46,3.2234,4.086e-7,9.8221,0.0077956,0,0.23701,8.0976e-6,17810,6.5143,219.4,198.97,1.9877,0.19913,12399366,2529,15.593,0.66855,0.66896,0.42151,0.12188,0.12516,0.18392,0.36395,3.0185e-4,0,0.0013781,1.3932,101121
0.53625,18.041,69.085,131.54,3.3496,4.4026e-7,9.8221,0.0076109,0,0.24991,1.144e-5,17796,6.5124,219.42,198.95,1.9917,0.203,12639396,2529,16.209,0.66878,0.66917,0.42145,0.12198,0.12536,0.17954,0.35595,-4.276e-4,0,0.0014744,1.3929,101113
0.54625,18.727,70.401,131.62,3.4783,4.72e-7,9.8221,0.0074147,0,0.26301,8.27e-6,17781,6.5105,219.45,198.93,1.9957,0.20687,1.288e7,2529,16.837,0.66902,0.66939,0.42138,0.12208,0.12556,0.17489,0.34696,-7.7882e-5,0,0.0015725,1.3927,101105
0.55625,19.425,71.718,131.7,3.6094,5.0364e-7,9.8221,0.0072069,0,0.27627,8.0125e-6,17767,6.5087,219.47,198.91,1.9999,0.21074,1.312e7,2529,17.477,0.66927,0.66962,0.42131,0.12218,0.12577,0.16996,0.33866,-2.715e-4,0,0.0016719,1.3924,101097
0.56625,20.136,73.036,131.78,3.743,5.3503e-7,9.8221,0.0069878,0,0.28964,1.4844e-5,17753,6.5068,219.5,198.9,2.0042,0.21461,1.336e7,2529,18.13,0.66952,0.66984,0.42124,0.12229,0.12599,0.16476,0.3283,1.7574e-4,0,0.001772,1.3921,101089
0.57625,20.861,74.354,131.85,3.8791,5.6601e-7,9.822,0.0067575,0,0.30309,1.2489e-5,17739,6.5049,219.53,198.88,2.0086,0.21849,13600573,2529,18.796,0.66977,0.67008,0.42117,0.12239,0.12621,0.1593,0.31765,1.3491e-4,0,0.0018721,1.3918,101080
0.58625,21.598,75.673,131.93,4.0177,5.9635e-7,9.822,0.006516,0,0.31656,2.5067e-5,17724,6.503,219.56,198.86,2.0132,0.22237,13841123,2529,19.475,0.67003,0.67031,0.4211,0.1225,0.12643,0.15357,0.30699,2.7635e-4,0,0.0019717,1.3914,101072
0.59625,22.348,76.993,132.01,4.1588,6.2577e-7,9.822,0.0062638,0,0.33002,2.1613e-5,17710,6.5011,219.59,198.84,2.0179,0.22625,14081771,2529,20.166,0.67029,0.67055,0.42103,0.12261,0.12665,0.1476,0.29544,1.839e-4,0,0.00207,1.3911,101063
0.60625,23.111,78.314,132.08,4.3024,6.5393e-7,9.822,0.006001,0,0.3434,1.7536e-5,17696,6.4992,219.62,198.83,2.0227,0.23013,14322516,2529,20.87,0.67056,0.6708,0.42095,0.12272,0.12689,0.14137,0.2835,4.9037e-4,0,0.0021664,1.3908,101054
0.61625,23.887,79.636,132.16,4.4485,6.8062e-7,9.822,0.0057279,0,0.35667,1.4243e-5,17681,6.4973,219.65,198.81,2.0276,0.23402,14563356,2529,21.587,0.67083,0.67105,0.42087,0.12284,0.12712,0.1349,0.27155,3.0383e-4,0,0.0022601,1.3904,101045
0.62625,24.676,80.958,132.23,4.5971,7.0566e-7,9.822,0.0054449,0,0.36977,1.0352e-5,17667,6.4954,219.69,198.79,2.0327,0.23791,14804288,2529,22.316,0.67111,0.67131,0.4208,0.12295,0.12736,0.12821,0.25799,4.4433e-4,0,0.0023504,1.39,101036
0.63625,25.478,82.281,132.31,4.7483,7.2897e-7,9.822,0.0051524,0,0.38262,-5.5262e-7,17653,6.4935,219.72,198.77,2.0378,0.2418,15045312,2529,23.059,0.67139,0.67157,0.42072,0.12307,0.1276,0.12129,0.24493,2.6048e-4,0,0.0024363,1.3896,101026
0.64625,26.293,83.605,132.38,4.902,7.5064e-7,9.822,0.0048508,0,0.39517,-8.0283e-6,17638,6.4916,219.76,198.76,2.0431,0.24569,15286425,2529,23.814,0.67167,0.67183,0.42064,0.12319,0.12785,0.11415,0.23071,4.5432e-5,0,0.0025172,1.3892,101017
0.65625,27.122,84.929,132.45,5.0582,7.7092e-7,9.822,0.0045407,0,0.40736,4.569e-7,17624,6.4897,219.8,198.74,2.0485,0.24959,15527626,2529,24.583,0.67197,0.67211,0.42056,0.12331,0.1281,0.10683,0.21583,3.2184e-4,0,0.002592,1.3888,101007
0.66625,27.963,86.255,132.52,5.217,7.9004e-7,9.822,0.0042226,0,0.41908,-4.2051e-6,17610,6.4878,219.84,198.72,2.0539,0.25348,15768913,2529,25.365,0.67226,0.67238,0.42047,0.12344,0.12835,0.099313,0.20086,-4.8465e-4,0,0.0026597,1.3884,100997
0.67625,28.817,87.581,132.59,5.3784,8.0814e-7,9.822,0.0038973,0,0.4303,4.1782e-6,17596,6.4859,219.87,198.7,2.0595,0.25738,1.601e7,2529,26.159,0.67256,0.67267,0.42039,0.12356,0.12861,0.091633,0.18644,-2.1397e-4,0,0.0027198,1.3879,100987
0.68625,29.684,88.907,132.66,5.5423,8.2541e-7,9.822,0.0035653,0,0.44096,7.8854e-6,17581,6.484,219.91,198.69,2.0651,0.26128,16251734,2529,26.967,0.67287,0.67295,0.4203,0.12369,0.12887,0.0838,0.17061,3.7406e-5,0,0.0027715,1.3875,100977
0.69625,30.564,90.234,132.74,5.7088,8.4178e-7,9.822,0.0032274,0,0.45096,8.3881e-6,17567,6.4821,219.96,198.67,2.0709,0.26519,16493266,2529,27.788,0.67318,0.67325,0.42022,0.12382,0.12914,0.075835,0.15385,3.7259e-4,0,0.0028141,1.387,100967
0.70625,31.457,91.563,132.8,5.8779,8.5732e-7,9.822,0.0028845,0,0.46022,3.5714e-7,17553,6.4802,220,198.65,2.0766,0.26909,16734875,2529,28.623,0.67349,0.67355,0.42013,0.12395,0.12941,0.067755,0.1377,-4.8305e-4,0,0.0028464,1.3865,100956
0.71625,32.363,92.891,132.87,6.0496,8.7207e-7,9.822,0.0025374,0,0.46868,1.6702e-5,17538,6.4783,220.04,198.63,2.0825,0.273,16976561,2529,29.47,0.67381,0.67386,0.42004,0.12409,0.12969,0.059583,0.12087,-2.2967e-5,0,0.0028682,1.386,100945
0.72625,33.282,94.221,132.94,6.2239,8.8598e-7,9.822,0.0021872,0,0.47624,2.4082e-5,17524,6.4763,220.08,198.61,2.0883,0.27691,17218320,2529,30.331,0.67414,0.67417,0.41995,0.12422,0.12997,0.051341,0.10408,-4.4944e-5,0,0.0028784,1.3855,100935
0.73625,34.214,95.551,133.01,6.4008,8.9888e-7,9.822,0.0018347,0,0.48285,3.1298e-5,17510,6.4744,220.13,198.6,2.0943,0.28082,1.746e7,2529,31.206,0.67447,0.67449,0.41985,0.12436,0.13025,0.043053,0.087177,2.8868e-4,0,0.0028771,1.385,100924
0.74625,35.16,96.881,133.08,6.5803,9.1049e-7,9.822,0.0014811,0,0.48844,4.6588e-5,17495,6.4725,220.17,198.58,2.1002,0.28474,17702053,2529,32.094,0.6748,0.67482,0.41976,0.1245,0.13054,0.034744,0.070171,-6.4517e-5,0,0.0028639,1.3845,100913
0.75625,36.118,98.213,133.14,6.7625,9.2056e-7,9.822,0.0011274,0,0.49295,7.8167e-5,17481,6.4706,220.21,198.56,2.1062,0.28865,17944022,2529,32.995,0.67514,0.67515,0.41967,0.12464,0.13083,0.026439,0.053283,-2.2826e-4,0,0.0028385,1.384,100901
0.76625,37.089,99.545,133.21,6.9473,9.2844e-7,9.822,7.7485e-4,0,0.49629,1.2536e-4,17467,6.4687,220.25,198.54,2.1121,0.29257,18186058,2529,33.91,0.67548,0.67549,0.41957,0.12479,0.13113,0.018165,0.035167,-2.7506e-4,0,0.0028005,1.3835,100890
0.77625,38.074,100.88,133.27,7.1347,9.334e-7,9.822,4.2465e-4,0,0.49835,2.2101e-4,17452,6.4668,220.3,198.52,2.118,0.29649,18428157,2529,34.839,0.67583,0.67583,0.41947,0.12493,0.13143,0.0099521,0.018828,-4.9028e-4,0,0.0027497,1.383,100878
0.78625,39.071,102.21,133.34,7.3248,9.3478e-7,9.822,7.8091e-5,0,0.49913,0.0012823,17438,6.4649,220.34,198.51,2.1239,0.30041,1.867e7,2529,35.781,0.67619,0.67619,0.41937,0.12508,0.13173,0.0018296,9.6465e-4,4.8657e-4,0,0.0026868,1.3824,100867
0.79625,40.082,103.54,133.4,7.5176,9.3208e-7,9.822,2.6354e-4,0,-0.49855,3.7983e-4,17424,6.463,220.32,198.49,2.124,0.30434,18912539,2529,36.738,0.67655,0.67655,0.41927,0.12523,0.13204,0.0061773,0.016218,4.131e-4,0,-0.0026119,1.3819,100855
0.80625,41.105,104.88,133.47,7.7131,9.2484e-7,9.822,5.9888e-4,0,-0.49653,1.6842e-4,17410,6.461,220.29,198.47,2.1225,0.30826,19154818,2529,37.707,0.67691,0.67691,0.41917,0.12539,0.13235,0.014047,0.031946,1.0691e-4,0,-0.0025253,1.3814,100843
0.81625,42.142,106.21,133.53,7.9113,9.1272e-7,9.822,9.2655e-4,0,-0.49306,1.04e-4,17395,6.4591,220.26,198.45,2.1211,0.31219,19397152,2529,38.691,0.67728,0.67728,0.41907,0.12554,0.13267,0.021749,0.04905,2.903e-4,0,-0.0024279,1.3809,100831
0.82625,43.192,107.55,133.59,8.1122,8.9527e-7,9.822,0.0012452,0,-0.4881,7.7811e-5,17381,6.4572,220.22,198.43,2.1197,0.31612,1.964e7,2529,39.689,0.67765,0.67766,0.41896,0.1257,0.13299,0.029247,0.064682,1.3573e-4,0,-0.0023205,1.3804,100818
0.83625,44.255,108.89,133.65,8.3159,8.7197e-7,9.822,0.0015533,0,-0.48159,7.7837e-5,17367,6.4553,220.19,198.42,2.1185,0.32005,19881980,2529,40.7,0.67803,0.67805,0.41886,0.12586,0.13332,0.03651,0.079151,2.8186e-4,0,-0.002204,1.3799,100806
0.84625,45.331,110.22,133.71,8.5222,8.4254e-7,9.822,0.0018497,0,-0.47354,8.1221e-5,17352,6.4533,220.17,198.4,2.1175,0.32399,20124469,2529,41.726,0.67841,0.67844,0.41875,0.12602,0.13365,0.043503,0.094334,3.3964e-4,0,-0.0020796,1.3794,100793
0.85625,46.42,111.56,133.77,8.7313,8.0701e-7,9.822,0.0021327,0,-0.46395,7.1653e-5,17338,6.4514,220.14,198.38,2.1166,0.32792,20367005,2529,42.765,0.6788,0.67883,0.41864,0.12618,0.13398,0.050193,0.10868,1.5801e-4,0,-0.0019486,1.3789,100781
0.86625,47.522,112.9,133.83,8.9432,7.6571e-7,9.822,0.0024012,0,-0.45279,7.1138e-5,17324,6.4495,220.11,198.36,2.1158,0.33186,2.061e7,2529,43.818,0.67919,0.67923,0.41853,0.12634,0.13432,0.056546,0.12156,3.6865e-4,0,-0.0018122,1.3784,100768
0.87625,48.637,114.24,133.89,9.1578,7.1929e-7,9.822,0.0026536,0,-0.44011,6.4524e-5,17309,6.4476,220.09,198.34,2.1153,0.3358,20852211,2529,44.886,0.67959,0.67964,0.41842,0.12651,0.13466,0.062529,0.13389,-2.0546e-5,0,-0.0016723,1.3779,100755
0.88625,49.765,115.58,133.95,9.3752,6.685e-7,9.822,0.0028889,0,-0.42589,7.5001e-5,17295,6.4456,220.07,198.32,2.1149,0.33974,21094877,2529,45.968,0.67999,0.68005,0.41831,0.12668,0.13501,0.068111,0.14542,3.6112e-5,0,-0.0015298,1.3775,100741
0.89625,50.907,116.92,134,9.5953,6.1462e-7,9.822,0.0031056,0,-0.41014,1.0029e-4,17281,6.4437,220.05,198.31,2.1148,0.34369,21337581,2529,47.063,0.6804,0.68047,0.41819,0.12685,0.13536,0.073261,0.15593,-3.7856e-4,0,-0.0013864,1.377,100728
0.90625,52.061,118.26,134.06,9.8183,5.5956e-7,9.822,0.0033026,0,-0.39294,1.2129e-4,17267,6.4418,220.03,198.29,2.1149,0.34763,2.158e7,2529,48.173,0.68081,0.68089,0.41808,0.12702,0.13571,0.077949,0.16633,-2.8806e-4,0,-0.0012439,1.3766,100714
0.91625,53.229,119.6,134.11,10.044,5.0619e-7,9.8219,0.0034787,0,-0.37431,1.2245e-4,17252,6.4399,220.01,198.27,2.1152,0.35158,21823099,2529,49.297,0.68123,0.68131,0.41796,0.1272,0.13607,0.082147,0.17448,-3.3887e-4,0,-0.0011036,1.3762,100701
0.92625,54.41,120.94,134.17,10.273,4.5806e-7,9.8219,0.003633,0,-0.35434,1.4169e-4,17238,6.4379,220,198.25,2.1158,0.35553,22065908,2529,50.436,0.68165,0.68174,0.41784,0.12738,0.13643,0.085829,0.18301,3.2914e-4,0,-9.6715e-4,1.3758,100687
0.93625,55.604,122.28,134.22,10.504,4.1934e-7,9.8219,0.0037643,0,-0.33309,1.0125e-4,17224,6.436,219.99,198.23,2.1166,0.35948,22308748,2529,51.588,0.68208,0.68218,0.41772,0.12756,0.1368,0.088972,0.18871,1.2821e-4,0,-8.36e-4,1.3755,100673
0.94625,56.811,123.63,134.28,10.738,3.9419e-7,9.8219,0.003872,0,-0.31071,7.4302e-5,17209,6.4341,219.98,198.21,2.1177,0.36343,22551616,2529,52.755,0.68251,0.68261,0.4176,0.12774,0.13717,0.091554,0.19508,-4.9648e-4,0,-7.1172e-4,1.3751,100659
0.95625,58.031,124.97,134.33,10.975,3.865e-7,9.8219,0.0039553,0,-0.28724,8.4984e-5,17195,6.4321,219.98,198.2,2.1191,0.36738,22794510,2529,53.936,0.68295,0.68306,0.41748,0.12792,0.13755,0.093557,0.19914,-3.8113e-4,0,-5.9524e-4,1.3748,100644
0.96625,59.264,126.31,134.38,11.215,4.0003e-7,9.8219,0.0040135,0,-0.26279,9.809e-5,17181,6.4302,219.98,198.18,2.1207,0.37134,23037428,2529,55.132,0.68339,0.6835,0.41736,0.12811,0.13793,0.094967,0.20173,2.6686e-4,0,-4.8769e-4,1.3745,100630
0.97625,60.511,127.66,134.43,11.458,4.3883e-7,9.8219,0.0040462,0,-0.23754,9.6788e-5,17166,6.4282,219.98,198.16,2.1226,0.37529,2.328e7,2529,56.342,0.68384,0.68395,0.41723,0.1283,0.13831,0.095771,0.20372,2.7296e-4,0,-3.9011e-4,1.3743,100615
0.98625,61.77,129,134.48,11.704,5.0717e-7,9.8219,0.0040532,0,-0.21156,7.0799e-5,17152,6.4263,219.98,198.14,2.1248,0.37925,23523330,2529,57.566,0.68429,0.6844,0.4171,0.12848,0.1387,0.095961,0.20394,-8.6862e-5,0,-3.0302e-4,1.374,100601
0.99625,63.043,130.35,134.53,11.952,6.0893e-7,9.8219,0.0040341,0,-0.18508,1.0109e-4,17138,6.4244,219.99,198.12,2.1273,0.38321,23766309,2529,58.805,0.68474,0.68486,0.41698,0.12868,0.13909,0.095533,0.20381,1.1446e-4,0,-2.2716e-4,1.3738,100586
1.0063,64.329,131.69,134.57,12.204,7.4824e-7,9.8219,0.0039891,0,-0.1582,8.9591e-5,17124,6.4224,220,198.1,2.1301,0.38717,24009304,2529,60.058,0.68521,0.68532,0.41685,0.12887,0.13949,0.094487,0.20183,4.5825e-4,0,-1.6259e-4,1.3736,100571
1.0163,65.628,133.04,134.62,12.458,9.2925e-7,9.8219,0.0039184,0,-0.13113,7.8283e-5,17109,6.4205,220.01,198.08,2.1332,0.39114,24252312,2529,61.326,0.68567,0.68578,0.41672,0.12907,0.13989,0.092826,0.19853,2.5533e-4,0,-1.0946e-4,1.3735,100555
1.0263,66.94,134.38,134.67,12.715,1.1557e-6,9.8219,0.0038222,0,-0.10408,7.8186e-5,17095,6.4185,220.03,198.06,2.1365,0.3951,24495332,2529,62.609,0.68614,0.68625,0.41659,0.12927,0.14029,0.09056,0.19355,2.1288e-4,0,-6.7577e-5,1.3734,100540
1.0363,68.265,135.73,134.71,12.975,1.431e-6,9.8219,0.0037013,0,-0.077203,9.9647e-5,17081,6.4166,220.05,198.05,2.1402,0.39907,24738362,2529,63.906,0.68662,0.68672,0.41645,0.12947,0.1407,0.087703,0.18784,4.6245e-4,0,-3.6451e-5,1.3733,100524
1.0463,69.604,137.08,134.76,13.238,1.7588e-6,9.8219,0.0035563,0,-0.050702,7.7796e-5,17066,6.4146,220.07,198.03,2.1441,0.40304,24981399,2529,65.218,0.6871,0.68719,0.41632,0.12967,0.14112,0.084273,0.18026,-3.1339e-5,0,-1.5414e-5,1.3732,100509
1.0563,70.955,138.43,134.8,13.504,2.1425e-6,9.8219,0.0033882,0,-0.024786,5.6393e-5,17052,6.4127,220.09,198.01,2.1482,0.40701,25224441,2529,66.545,0.68759,0.68767,0.41618,0.12987,0.14153,0.080293,0.17202,-4.1196e-4,0,-3.6123e-6,1.3732,100493
1.0663,72.32,139.77,134.84,13.772,2.5847e-6,9.8219,0.0031981,0,3.2937e-4,4.5195e-5,17038,6.4108,220.12,197.99,2.1526,0.41098,25467485,2529,67.886,0.68808,0.68815,0.41604,0.13008,0.14196,0.07579,0.16272,2.9769e-4,0,0,1.3731,100477
1.0763,73.698,141.12,134.88,14.044,3.0869e-6,9.8219,0.0029875,0,0.024408,4.187e-5,17023,6.4088,220.15,197.97,2.1573,0.41495,25710531,2529,69.243,0.68858,0.68864,0.41591,0.13029,0.14238,0.070797,0.15299,3.6319e-4,0,3.3702e-6,1.3732,100461
1.0863,75.089,142.47,134.92,14.318,3.6502e-6,9.8219,0.0027578,0,0.047275,2.5979e-5,17009,6.4069,220.18,197.95,2.1621,0.41892,25953575,2529,70.614,0.68908,0.68913,0.41576,0.1305,0.14281,0.065352,0.14091,4.6527e-4,0,1.2405e-5,1.3732,100444
1.0963,76.494,143.82,134.96,14.595,4.2746e-6,9.8219,0.0025109,0,0.068698,4.6991e-5,16995,6.4049,220.21,197.93,2.1672,0.4229,26196615,2529,72.001,0.68959,0.68963,0.41562,0.13071,0.14325,0.059497,0.12886,5.4829e-5,0,2.5706e-5,1.3733,100428
1.1063,77.911,145.17,135,14.876,4.9601e-6,9.8219,0.0022486,0,0.088437,4.6292e-5,16980,6.4029,220.25,197.91,2.1724,0.42687,2.644e7,2529,73.403,0.6901,0.69013,0.41548,0.13093,0.14369,0.053278,0.11527,4.5589e-4,0,4.1812e-5,1.3733,100411
1.1163,79.342,146.52,135.04,15.159,5.706e-6,9.8219,0.0019732,0,0.10632,5.2502e-5,16966,6.401,220.28,197.89,2.1777,0.43085,26682674,2529,74.82,0.69062,0.69064,0.41534,0.13115,0.14413,0.046746,0.10151,4.8583e-4,0,5.9319e-5,1.3734,100394
1.1263,80.786,147.87,135.08,15.445,6.5112e-6,9.8219,0.0016868,0,0.1221,6.7033e-5,16952,6.399,220.32,197.88,2.1832,0.43483,26925688,2529,76.252,0.69114,0.69116,0.41519,0.13137,0.14458,0.039957,0.087043,-3.8738e-4,0,7.682e-5,1.3736,100378
1.1363,82.243,149.22,135.11,15.733,7.3741e-6,9.8219,0.0013919,0,0.13568,1.1838e-4,16938,6.3971,220.36,197.86,2.1888,0.43881,27168689,2529,77.699,0.69166,0.69168,0.41504,0.13159,0.14503,0.032969,0.072303,-8.15e-5,0,9.3147e-5,1.3737,100360
1.1463,83.713,150.58,135.15,16.025,8.2932e-6,9.8219,0.0010912,0,0.14687,1.6283e-4,16923,6.3951,220.4,197.84,2.1945,0.44279,27411675,2529,79.163,0.6922,0.6922,0.41489,0.13181,0.14549,0.025842,0.056127,3.8964e-4,0,1.072e-4,1.3738,100343
1.1563,85.197,151.93,135.18,16.319,9.2672e-6,9.8219,7.8719e-4,0,0.15547,2.7247e-4,16909,6.3932,220.44,197.82,2.2002,0.44678,27654642,2529,80.641,0.69273,0.69274,0.41474,0.13204,0.14595,0.01864,0.04066,3.0131e-4,0,1.1799e-4,1.374,100326
1.1663,86.694,153.28,135.21,16.617,1.0295e-5,9.8218,4.8279e-4,0,0.16138,4.294e-4,16895,6.3912,220.48,197.8,2.206,0.45076,27897589,2529,82.135,0.69327,0.69328,0.41459,0.13227,0.14641,0.011431,0.024989,-2.8186e-4,0,1.2489e-4,1.3742,100308
1.1763,88.204,154.63,135.25,16.917,1.1376e-5,9.8218,1.808e-4,0,0.16452,0.0011883,16880,6.3892,220.52,197.78,2.2117,0.45475,28140512,2529,83.645,0.69382,0.69382,0.41444,0.1325,0.14688,0.0042802,0.0090016,3.7891e-4,0,1.2753e-4,1.3743,100291
1.1863,89.727,155.99,135.28,17.22,1.2508e-5,9.8218,1.1593e-4,0,-0.16484,0.0018591,16866,6.3873,220.53,197.76,2.2148,0.45873,28383410,2529,85.17,0.69437,0.69437,0.41429,0.13273,0.14736,0.0027452,0.006616,4.8548e-4,0,-1.2582e-4,1.3745,100273
1.1963,91.264,157.34,135.31,17.526,1.3692e-5,9.8218,4.0448e-4,0,-0.16219,5.3906e-4,16852,6.3853,220.5,197.74,2.2142,0.46272,28626280,2529,86.712,0.69493,0.69493,0.41413,0.13296,0.14783,0.0095849,0.021211,1.6542e-4,0,-1.1973e-4,1.3747,100255
1.2063,92.813,158.69,135.34,17.834,1.4924e-5,9.8218,6.8198e-4,0,-0.15665,2.9888e-4,16837,6.3833,220.48,197.72,2.2136,0.46671,28869120,2529,88.269,0.69549,0.69549,0.41397,0.1332,0.14832,0.016173,0.036002,-3.7235e-4,0,-1.0978e-4,1.3749,100236
1.2163,94.376,160.05,135.37,18.146,1.6203e-5,9.8218,9.4564e-4,0,-0.14823,2.5621e-4,16823,6.3814,220.45,197.7,2.2132,0.4707,29111926,2529,89.841,0.69606,0.69606,0.41382,0.13344,0.1488,0.022442,0.049844,2.81e-4,0,-9.6645e-5,1.375,100218
1.2263,95.953,161.4,135.39,18.46,1.7525e-5,9.8218,0.0011928,0,-0.13699,1.8129e-4,16809,6.3794,220.43,197.68,2.2131,0.47469,29354697,2529,91.43,0.69663,0.69664,0.41366,0.13368,0.14929,0.028327,0.062582,3.3489e-4,0,-8.1167e-5,1.3752,100200
1.2363,97.542,162.75,135.42,18.777,1.8889e-5,9.8218,0.0014208,0,-0.12295,1.1739e-4,16795,6.3774,220.41,197.66,2.2131,0.47868,29597429,2529,93.035,0.69721,0.69722,0.41349,0.13392,0.14979,0.033765,0.074473,-3.4826e-4,0,-6.4295e-5,1.3753,100181
1.2463,99.145,164.11,135.45,19.097,2.0291e-5,9.8218,0.0016273,0,-0.1063,8.3321e-5,16780,6.3755,220.4,197.64,2.2134,0.48268,2.984e7,2529,94.655,0.69779,0.69781,0.41333,0.13417,0.15029,0.038698,0.085272,-1.2918e-4,0,-4.7269e-5,1.3754,100162
1.2563,100.76,165.46,135.47,19.419,2.1729e-5,9.8218,0.0018102,0,-0.087249,1.983e-5,16766,6.3735,220.38,197.62,2.2139,0.48667,30082770,2529,96.291,0.69838,0.6984,0.41317,0.13442,0.15079,0.043071,0.095426,7.2771e-5,0,-3.1327e-5,1.3755,100143
1.2663,102.39,166.82,135.5,19.745,2.3205e-5,9.8218,0.0019673,0,-0.065897,4.2944e-5,16752,6.3715,220.37,197.6,2.2147,0.49067,30325373,2529,97.944,0.69897,0.699,0.413,0.13467,0.1513,0.046838,0.10414,-4.9536e-4,0,-1.7581e-5,1.3756,100124
1.2763,104.03,168.17,135.52,20.073,2.4716e-5,9.8218,0.0020971,0,-0.042549,8.9844e-5,16737,6.3695,220.36,197.59,2.2159,0.49466,30567929,2529,99.612,0.69957,0.6996,0.41284,0.13492,0.15181,0.049955,0.11027,1.347e-4,0,-7.2121e-6,1.3757,100105
1.2863,105.69,169.53,135.54,20.404,2.626e-5,9.8218,0.0021982,0,-0.017464,1.2e-4,16723,6.3676,220.36,197.57,2.2173,0.49866,3.081e7,2529,101.3,0.70017,0.7002,0.41267,0.13517,0.15233,0.052389,0.11638,5.6738e-5,0,-1.1956e-6,1.3757,100085
1.2963,107.36,170.89,135.57,20.737,2.7835e-5,9.8218,0.0022693,0,0.0091501,1.4294e-4,16709,6.3656,220.36,197.55,2.2191,0.50266,31052886,2529,103,0.70078,0.70081,0.4125,0.13543,0.15285,0.05411,0.12028,1.3314e-5,0,3.2303e-7,1.3757,100066
1.3063,109.04,172.24,135.59,21.074,2.9436e-5,9.8218,0.0023099,0,0.036963,1.3846e-4,16694,6.3636,220.36,197.53,2.2213,0.50666,31295283,2529,104.71,0.70139,0.70143,0.41233,0.13569,0.15337,0.0551,0.12194,-4.4251e-4,0,5.1887e-6,1.3757,100046
1.3163,110.74,173.6,135.61,21.413,3.1056e-5,9.8218,0.0023194,0,0.065486,1.0756e-4,16680,6.3616,220.37,197.51,2.224,0.51066,31537623,2529,106.44,0.70201,0.70204,0.41216,0.13595,0.1539,0.055349,0.12271,-3.7744e-4,0,1.6033e-5,1.3756,100026
1.3263,112.44,174.96,135.63,21.755,3.2691e-5,9.8218,0.002298,0,0.094458,1.3223e-4,16666,6.3596,220.38,197.49,2.227,0.51466,3.178e7,2529,108.19,0.70263,0.70267,0.41198,0.13621,0.15443,0.054857,0.12211,-4.806e-4,0,3.2841e-5,1.3755,100006
1.3363,114.17,176.31,135.65,22.1,3.4336e-5,9.8218,0.0022461,0,0.12344,1.7665e-4,16651,6.3577,220.4,197.47,2.2304,0.51866,32022119,2529,109.96,0.70326,0.70329,0.41181,0.13648,0.15497,0.053633,0.11952,-3.6918e-4,0,5.5223e-5,1.3754,99986
1.3463,115.9,177.67,135.67,22.447,3.5985e-5,9.8218,0.0021644,0,0.15213,2.1368e-4,16637,6.3557,220.42,197.45,2.2342,0.52266,32264270,2529,111.74,0.70389,0.70392,0.41163,0.13674,0.15551,0.051696,0.11585,3.2255e-4,0,8.2608e-5,1.3753,99966
1.3563,117.65,179.03,135.68,22.798,3.7632e-5,9.8218,0.0020541,0,0.18002,1.3297e-4,16623,6.3537,220.44,197.43,2.2384,0.52666,32506355,2529,113.54,0.70453,0.70456,0.41145,0.13701,0.15606,0.049074,0.10977,-1.5957e-4,0,1.1392e-4,1.3751,99945
1.3663,119.41,180.38,135.7,23.151,3.9271e-5,9.8217,0.001917,0,0.20668,1.1909e-4,16609,6.3517,220.47,197.41,2.243,0.53067,32748369,2529,115.35,0.70517,0.70519,0.41127,0.13728,0.15661,0.045807,0.10306,2.1321e-4,0,1.4791e-4,1.3749,99924
1.3763,121.19,181.74,135.72,23.507,4.09e-5,9.8217,0.0017551,0,0.23181,1.1655e-4,16594,6.3497,220.5,197.39,2.2479,0.53467,3.299e7,2529,117.18,0.70582,0.70584,0.41109,0.13756,0.15716,0.041943,0.094423,4.3056e-4,0,1.8331e-4,1.3747,99904
1.3863,122.98,183.1,135.73,23.866,4.2516e-5,9.8217,0.0015706,0,0.25496,1.1314e-4,16580,6.3477,220.53,197.37,2.2531,0.53868,33232179,2529,119.02,0.70647,0.70649,0.41091,0.13783,0.15772,0.037539,0.084464,4.1587e-4,0,2.1847e-4,1.3744,99883
1.3963,124.78,184.46,135.74,24.227,4.412e-5,9.8217,0.0013664,0,0.27568,1.3247e-4,16566,6.3457,220.57,197.35,2.2585,0.54268,33473969,2529,120.89,0.70713,0.70714,0.41073,0.13811,0.15829,0.032663,0.073961,-4.3673e-4,0,2.5167e-4,1.3741,99862
1.4063,126.59,185.81,135.76,24.591,4.5711e-5,9.8217,0.0011456,0,0.29376,1.337e-4,16551,6.3437,220.6,197.33,2.2643,0.54669,33715679,2529,122.77,0.70779,0.7078,0.41054,0.13839,0.15885,0.027387,0.061532,-1.4152e-4,0,2.816e-4,1.3738,99840
1.4163,128.42,187.17,135.77,24.958,4.7291e-5,9.8217,9.1159e-4,0,0.30879,1.2055e-4,16537,6.3418,220.65,197.31,2.2702,0.5507,33957306,2529,124.66,0.70846,0.70846,0.41036,0.13867,0.15942,0.021794,0.049263,-1.4706e-4,0,3.0664e-4,1.3735,99819
1.4263,130.26,188.53,135.78,25.328,4.886e-5,9.8217,6.6784e-4,0,0.3205,1.7467e-4,16523,6.3398,220.69,197.29,2.2763,0.5547,34198848,2529,126.58,0.70913,0.70913,0.41017,0.13896,0.16,0.015967,0.036002,1.0932e-5,0,3.2561e-4,1.3732,99797
1.4363,132.12,189.89,135.79,25.701,5.0422e-5,9.8217,4.1823e-4,0,0.32868,2.9394e-4,16508,6.3378,220.73,197.27,2.2826,0.55871,3.444e7,2529,128.51,0.70981,0.70981,0.40998,0.13925,0.16058,0.0099997,0.02233,1.9892e-4,0,3.3756e-4,1.3729,99775
1.4463,133.99,191.25,135.8,26.077,5.1978e-5,9.8217,1.6669e-4,0,0.3331,6.5536e-4,16494,6.3358,220.78,197.25,2.2889,0.56272,34681666,2529,130.45,0.71049,0.71049,0.40979,0.13954,0.16117,0.0039857,0.0084235,3.3695e-4,0,3.4179e-4,1.3725,99754
1.4563,135.87,192.61,135.81,26.455,5.3532e-5,9.8217,8.2684e-5,0,-0.33357,0.0011695,16480,6.3338,220.8,197.23,2.2935,0.56673,34922936,2529,132.42,0.71118,0.71118,0.4096,0.13983,0.16175,0.0019776,0.005069,4.8147e-4,0,-3.3795e-4,1.3722,99731
1.4663,137.76,193.96,135.82,26.837,5.5085e-5,9.8217,3.2587e-4,0,-0.33017,2.6531e-4,16466,6.3318,220.8,197.21,2.2946,0.57074,35164110,2529,134.4,0.71187,0.71187,0.40941,0.14012,0.16235,0.0078002,0.017781,-1.4088e-4,0,-3.2647e-4,1.3718,99709
1.4763,139.67,195.32,135.83,27.221,5.6639e-5,9.8217,5.5896e-4,0,-0.32296,1.9651e-4,16451,6.3298,220.79,197.19,2.2959,0.57475,35405186,2529,136.4,0.71257,0.71257,0.40921,0.14041,0.16294,0.01339,0.030581,-3.7895e-4,0,-3.0804e-4,1.3715,99687
1.4863,141.59,196.68,135.83,27.608,5.8196e-5,9.8217,7.7813e-4,0,-0.31185,1.6309e-4,16437,6.3278,220.78,197.17,2.2974,0.57876,35646160,2529,138.41,0.71327,0.71328,0.40902,0.14071,0.16355,0.018654,0.042683,3.3731e-4,0,-2.8325e-4,1.3711,99664
1.4963,143.53,198.04,135.84,27.998,5.976e-5,9.8217,9.7969e-4,0,-0.29703,8.7577e-5,16423,6.3258,220.78,197.15,2.2992,0.58277,35887030,2529,140.45,0.71398,0.71399,0.40882,0.14101,0.16415,0.023503,0.054643,-4.9922e-4,0,-2.5345e-4,1.3708,99642
1.5063,145.48,199.4,135.84,28.391,6.1336e-5,9.8217,0.0011602,0,-0.27864,9.6426e-5,16408,6.3238,220.78,197.13,2.3012,0.58678,36127794,2529,142.5,0.7147,0.71471,0.40862,0.14131,0.16476,0.027853,0.064653,-4.3971e-4,0,-2.2002e-4,1.3705,99619
1.5163,147.44,200.76,135.84,28.787,6.2929e-5,9.8217,0.0013166,0,-0.2572,6.3173e-5,16394,6.3217,220.79,197.11,2.3036,0.59079,36368447,2529,144.56,0.71541,0.71543,0.40842,0.14162,0.16537,0.031629,0.073424,2.5226e-4,0,-1.8494e-4,1.3702,99596
1.5263,149.41,202.11,135.84,29.186,6.4545e-5,9.8217,0.0014464,0,-0.23288,6.8777e-5,16380,6.3197,220.79,197.09,2.3063,0.5948,36608989,2529,146.65,0.71614,0.71615,0.40822,0.14192,0.16599,0.034769,0.07986,2.5068e-4,0,-1.4958e-4,1.37,99573
1.5363,151.4,203.47,135.84,29.587,6.6189e-5,9.8216,0.0015474,0,-0.20618,-6.0012e-5,16365,6.3177,220.8,197.06,2.3093,0.59882,36849416,2529,148.75,0.71687,0.71688,0.40802,0.14223,0.16662,0.037219,0.086032,4.0464e-4,0,-1.1569e-4,1.3697,99549
1.5463,153.4,204.83,135.84,29.992,6.7864e-5,9.8216,0.001618,0,-0.17759,1.6793e-6,16351,6.3157,220.82,197.04,2.3128,0.60283,3.709e7,2529,150.87,0.7176,0.71762,0.40781,0.14254,0.16724,0.038938,0.090197,8.32e-5,0,-8.4696e-5,1.3695,99526
1.5563,155.41,206.19,135.84,30.4,6.9571e-5,9.8216,0.001657,0,-0.14753,-1.0769e-5,16337,6.3137,220.84,197.02,2.3166,0.60684,3.733e7,2529,153,0.71834,0.71836,0.40761,0.14286,0.16787,0.039898,0.092836,3.9699e-4,0,-5.7678e-5,1.3694,99502
1.5663,157.44,207.55,135.83,30.811,7.1311e-5,9.8216,0.001664,0,-0.11648,-7.6809e-5,16322,6.3117,220.86,197,2.3209,0.61085,3.757e7,2529,155.16,0.71908,0.7191,0.4074,0.14317,0.16851,0.040083,0.092946,3.1613e-4,0,-3.5485e-5,1.3692,99478
1.5763,159.48,208.91,135.83,31.224,7.3084e-5,9.8216,0.0016388,0,-0.085223,-1.1184e-4,16308,6.3097,220.89,196.98,2.3255,0.61487,3.781e7,2529,157.33,0.71983,0.71985,0.40719,0.14349,0.16915,0.039495,0.09211,-4.6055e-5,0,-1.875e-5,1.3691,99455
1.5863,161.54,210.27,135.82,31.641,7.4884e-5,9.8216,0.0015824,0,-0.054216,-6.0856e-5,16294,6.3077,220.92,196.96,2.3305,0.61888,3.805e7,2529,159.52,0.72058,0.7206,0.40698,0.14381,0.16979,0.03815,0.089028,-4.639e-4,0,-7.4906e-6,1.3691,99430
1.5963,163.6,211.62,135.81,32.06,7.671e-5,9.8216,0.001496,0,-0.024092,-5.0935e-5,16280,6.3056,220.95,196.94,2.3359,0.62289,38289415,2529,161.72,0.72134,0.72136,0.40677,0.14413,0.17044,0.036078,0.084531,-1.754e-4,0,-1.4603e-6,1.369,99406
1.6063,165.68,212.98,135.8,32.483,7.8558e-5,9.8216,0.0013814,0,0.0045042,-4.9554e-5,16265,6.3036,220.99,196.92,2.3417,0.62691,38528963,2529,163.94,0.72211,0.72212,0.40656,0.14445,0.17109,0.033326,0.078328,1.6187e-5,0,5.0391e-8,1.369,99382
1.6163,167.78,214.34,135.79,32.908,8.0427e-5,9.8216,0.0012413,0,0.031041,-3.7655e-5,16251,6.3016,221.03,196.9,2.3478,0.63092,38768375,2529,166.18,0.72287,0.72289,0.40635,0.14478,0.17175,0.029953,0.069929,3.8475e-4,0,2.363e-6,1.369,99357
1.6263,169.89,215.7,135.78,33.337,8.2313e-5,9.8216,0.0010787,0,0.05476,-6.8457e-5,16237,6.2996,221.08,196.88,2.3541,0.63493,39007648,2529,168.44,0.72365,0.72366,0.40613,0.14511,0.17241,0.026036,0.061546,1.872e-4,0,7.2617e-6,1.3691,99333
1.6363,172.01,217.06,135.77,33.768,8.4215e-5,9.8216,8.9716e-4,0,0.075341,-1.4563e-4,16222,6.2976,221.13,196.86,2.3607,0.63894,39246779,2529,170.72,0.72443,0.72443,0.40591,0.14544,0.17307,0.02166,0.050886,-3.9766e-4,0,1.3574e-5,1.3691,99308
1.6463,174.14,218.41,135.75,34.202,8.6124e-5,9.8216,7.0083e-4,0,0.092136,-2.4373e-4,16208,6.2955,221.18,196.84,2.3676,0.64296,39485766,2529,173.01,0.72521,0.72521,0.4057,0.14577,0.17374,0.016923,0.040142,-2.7765e-4,0,2.0049e-5,1.3692,99283
1.6563,176.29,219.77,135.74,34.64,8.8035e-5,9.8216,4.9407e-4,0,0.10496,-3.0195e-4,16194,6.2935,221.23,196.82,2.3745,0.64697,39724605,2529,175.32,0.726,0.726,0.40548,0.14611,0.17441,0.011933,0.028619,-1.3373e-4,0,2.57e-5,1.3693,99257
1.6663,178.45,221.13,135.72,35.08,8.9934e-5,9.8216,2.8141e-4,0,0.11343,-4.1276e-4,16179,6.2915,221.28,196.8,2.3816,0.65098,39963293,2529,177.65,0.72679,0.72679,0.40526,0.14644,0.17509,0.006798,0.015759,-2.6485e-4,0,2.9646e-5,1.3694,99232
1.6763,180.62,222.49,135.7,35.523,9.1815e-5,9.8216,6.7752e-5,0,0.11727,-0.001534,16165,6.2895,221.33,196.77,2.3888,0.655,40201828,2529,180,0.72759,0.72759,0.40504,0.14678,0.17577,0.001637,0.0035734,1.7839e-4,0,3.1299e-5,1.3696,99207
1.6863,182.81,223.84,135.68,35.969,9.3668e-5,9.8215,1.4213e-4,0,-0.1165,-6.4505e-4,16151,6.2874,221.35,196.75,2.3929,0.65901,4.044e7,2529,182.37,0.72839,0.72839,0.40481,0.14712,0.17646,0.0034363,0.0081713,-4.0941e-4,0,-3.0521e-5,1.3697,99181
1.6963,185.01,225.2,135.66,36.418,9.5485e-5,9.8215,3.4337e-4,0,-0.11081,-1.9475e-4,16137,6.2854,221.36,196.73,2.3957,0.66302,40678426,2529,184.75,0.7292,0.7292,0.40459,0.14747,0.17715,0.0083079,0.020259,2.0886e-4,0,-2.7278e-5,1.3698,99155
1.7063,187.22,226.56,135.64,36.87,9.7258e-5,9.8215,5.3116e-4,0,-0.10063,-9.1369e-5,16122,6.2834,221.37,196.71,2.3986,0.66703,40916483,2529,187.15,0.73002,0.73002,0.40436,0.14781,0.17784,0.012862,0.030596,-1.7039e-4,0,-2.2229e-5,1.3699,99129
1.7163,189.45,227.92,135.62,37.324,9.8981e-5,9.8215,7.0132e-4,0,-0.086168,-9.7293e-5,16108,6.2813,221.38,196.69,2.4018,0.67104,41154374,2529,189.57,0.73083,0.73084,0.40414,0.14816,0.17854,0.016995,0.041313,-2.8521e-4,0,-1.6105e-5,1.37,99103
1.7263,191.69,229.27,135.6,37.782,1.0065e-4,9.8215,8.4986e-4,0,-0.067687,-3.5669e-5,16094,6.2793,221.4,196.67,2.4053,0.67505,41392097,2529,192.01,0.73166,0.73166,0.40391,0.14851,0.17924,0.02061,0.050044,-2.9315e-4,0,-9.8201e-6,1.3701,99077
1.7363,193.94,230.63,135.57,38.242,1.0226e-4,9.8215,9.7338e-4,0,-0.045638,2.4922e-5,16079,6.2772,221.41,196.65,2.4091,0.67907,4.163e7,2529,194.47,0.73249,0.73249,0.40368,0.14886,0.17995,0.023621,0.056422,-1.7793e-4,0,-4.4121e-6,1.3702,99050
1.7463,196.2,231.98,135.55,38.705,1.0382e-4,9.8215,0.0010691,0,-0.020592,1.1316e-4,16065,6.2752,221.43,196.63,2.4132,0.68308,41867028,2529,196.94,0.73332,0.73333,0.40345,0.14922,0.18066,0.025961,0.062861,-1.583e-4,0,-8.8775e-7,1.3702,99024
1.7563,198.48,233.34,135.52,39.171,1.053e-4,9.8215,0.0011347,0,0.0067991,1.9686e-4,16051,6.2732,221.46,196.61,2.4177,0.68709,42104229,2529,199.44,0.73416,0.73417,0.40321,0.14957,0.18137,0.027573,0.066628,-3.2943e-4,0,9.5661e-8,1.3702,98997
1.7663,200.78,234.69,135.49,39.64,1.0671e-4,9.8215,0.0011691,0,0.035718,2.6766e-4,16036,6.2711,221.49,196.58,2.4225,0.6911,42341250,2529,201.95,0.735,0.73501,0.40298,0.14993,0.18209,0.028424,0.068453,4.8258e-4,0,2.6095e-6,1.3702,98970
1.7763,203.08,236.05,135.47,40.112,1.0803e-4,9.8215,0.0011717,0,0.065556,3.4798e-4,16022,6.2691,221.52,196.56,2.4278,0.6951,42578089,2529,204.48,0.73585,0.73586,0.40274,0.15029,0.18281,0.028502,0.069145,-7.7385e-5,0,8.69e-6,1.3701,98943
1.7863,205.4,237.4,135.44,40.587,1.0926e-4,9.8215,0.0011425,0,0.095643,3.6676e-4,16008,6.267,221.56,196.54,2.4334,0.69911,42814742,2529,207.03,0.7367,0.73671,0.40251,0.15066,0.18354,0.027807,0.067952,-1.1545e-4,0,1.8287e-5,1.37,98916
1.7963,207.73,238.76,135.41,41.064,1.1037e-4,9.8215,0.0010827,0,0.12497,3.2781e-4,15993,6.265,221.6,196.52,2.4394,0.70312,43051207,2529,209.59,0.73756,0.73757,0.40227,0.15102,0.18427,0.026363,0.064695,-3.6533e-4,0,3.0867e-5,1.3699,98889
1.8063,210.08,240.11,135.38,41.545,1.1137e-4,9.8215,9.942e-4,0,0.15268,3.4852e-4,15979,6.2629,221.64,196.5,2.4457,0.70713,43287481,2529,212.18,0.73842,0.73843,0.40203,0.15139,0.185,0.024219,0.058863,3.002e-4,0,4.5555e-5,1.3698,98861
1.8163,212.44,241.47,135.34,42.028,1.1224e-4,9.8215,8.7984e-4,0,0.17798,3.0286e-4,15965,6.2609,221.69,196.48,2.4523,0.71114,43523560,2529,214.78,0.73929,0.7393,0.40179,0.15176,0.18574,0.021441,0.052174,-7.5964e-6,0,6.1209e-5,1.3696,98833
1.8263,214.81,242.82,135.31,42.514,1.13e-4,9.8215,7.4303e-4,0,0.20034,3.0442e-4,15951,6.2588,221.74,196.46,2.4592,0.71514,43759443,2529,217.4,0.74016,0.74017,0.40155,0.15213,0.18649,0.018114,0.04434,8.3785e-5,0,7.6693e-5,1.3694,98806
1.8363,217.2,244.17,135.28,43.003,1.1366e-4,9.8214,5.879e-4,0,0.21875,2.8734e-4,15936,6.2568,221.79,196.43,2.4663,0.71915,43995125,2529,220.04,0.74104,0.74104,0.40131,0.1525,0.18723,0.014337,0.035039,4.0896e-4,0,9.0425e-5,1.3692,98778
1.8463,219.6,245.53,135.24,43.495,1.1423e-4,9.8214,4.1918e-4,0,0.23294,3.2241e-4,15922,6.2547,221.84,196.41,2.4737,0.72315,44230604,2529,222.7,0.74192,0.74192,0.40106,0.15288,0.18798,0.010226,0.025318,4.0867e-4,0,1.0141e-4,1.369,98750
1.8563,222.01,246.88,135.2,43.989,1.1473e-4,9.8214,2.4186e-4,0,0.24236,4.3057e-4,15908,6.2527,221.9,196.39,2.4811,0.72716,44465878,2529,225.38,0.74281,0.74281,0.40082,0.15326,0.18874,0.005902,0.014906,4.8653e-4,0,1.0858e-4,1.3687,98721
1.8663,224.43,248.23,135.17,44.487,1.1519e-4,9.8214,6.1273e-5,0,0.24674,0.0011494,15893,6.2506,221.95,196.37,2.4886,0.73116,44700942,2529,228.07,0.7437,0.7437,0.40057,0.15364,0.1895,0.0014957,0.0032006,9.8034e-5,0,1.1132e-4,1.3684,98693
1.8763,226.87,249.58,135.13,44.987,1.1563e-4,9.8214,1.1708e-4,0,-0.24594,3.3475e-4,15879,6.2486,221.98,196.35,2.4936,0.73516,44935794,2529,230.79,0.7446,0.7446,0.40032,0.15402,0.19026,0.0028599,0.0073937,3.4125e-4,0,-1.094e-4,1.3682,98664
1.8863,229.32,250.94,135.09,45.491,1.1607e-4,9.8214,2.8787e-4,0,-0.23985,-3.6871e-5,15865,6.2465,222,196.33,2.4974,0.73916,4.517e7,2529,233.52,0.7455,0.7455,0.40007,0.1544,0.19103,0.0070376,0.017927,6.8921e-5,0,-1.0294e-4,1.3679,98635
1.8963,231.79,252.29,135.05,45.997,1.1653e-4,9.8214,4.4578e-4,0,-0.22857,-9.8793e-5,15850,6.2444,222.02,196.3,2.5014,0.74316,45404850,2529,236.27,0.74641,0.74641,0.39982,0.15479,0.1918,0.010907,0.027161,-2.087e-4,0,-9.2481e-5,1.3677,98607
1.9063,234.26,253.64,135,46.506,1.1703e-4,9.8214,5.8605e-4,0,-0.21271,-6.2829e-5,15836,6.2424,222.04,196.28,2.5056,0.74716,45639048,2529,239.04,0.74732,0.74732,0.39957,0.15518,0.19257,0.01435,0.036451,-1.1055e-4,0,-7.9245e-5,1.3675,98577
1.9163,236.76,254.99,134.96,47.019,1.1759e-4,9.8214,7.0442e-4,0,-0.1925,2.4188e-6,15822,6.2403,222.06,196.26,2.51,0.75116,45873021,2529,241.83,0.74823,0.74824,0.39931,0.15557,0.19335,0.017262,0.043041,-9.1654e-5,0,-6.4216e-5,1.3672,98548
1.9263,239.26,256.34,134.91,47.534,1.182e-4,9.8214,7.9739e-4,0,-0.16877,2.5004e-5,15808,6.2383,222.09,196.24,2.5148,0.75516,46106767,2529,244.64,0.74916,0.74916,0.39906,0.15596,0.19413,0.019554,0.049545,-5.0557e-5,0,-4.8842e-5,1.3671,98519
1.9363,241.78,257.69,134.87,48.052,1.1891e-4,9.8214,8.6218e-4,0,-0.14217,-7.8107e-5,15793,6.2362,222.12,196.22,2.5198,0.75916,4.634e7,2529,247.47,0.75008,0.75009,0.3988,0.15636,0.19492,0.021158,0.053236,4.3223e-4,0,-3.4298e-5,1.3669,98489
1.9463,244.31,259.03,134.82,48.573,1.197e-4,9.8214,8.97e-4,0,-0.11357,-2.0784e-4,15779,6.2341,222.15,196.19,2.5253,0.76315,46573564,2529,250.32,0.75101,0.75102,0.39854,0.15675,0.19571,0.022027,0.05592,-2.5579e-4,0,-2.1658e-5,1.3668,98460
1.9563,246.85,260.38,134.77,49.097,1.206e-4,9.8214,9.0098e-4,0,-0.083905,-1.0597e-4,15765,6.232,222.19,196.17,2.531,0.76715,46806610,2529,253.18,0.75195,0.75195,0.39829,0.15715,0.19651,0.022138,0.056351,-4.5103e-4,0,-1.1699e-5,1.3667,98430
1.9663,249.41,261.73,134.72,49.624,1.2159e-4,9.8213,8.7434e-4,0,-0.054163,-8.368e-5,15750,6.23,222.23,196.15,2.5372,0.77114,47039416,2529,256.06,0.75289,0.75289,0.39803,0.15756,0.19731,0.021496,0.054453,-2.2827e-4,0,-4.8251e-6,1.3666,98400
1.9763,251.98,263.08,134.66,50.154,1.2269e-4,9.8213,8.1847e-4,0,-0.02568,-1.2688e-4,15736,6.2279,222.28,196.13,2.5437,0.77513,47271980,2529,258.97,0.75383,0.75384,0.39777,0.15796,0.19811,0.020133,0.050813,-4.6797e-4,0,-1.0736e-6,1.3665,98370
1.9863,254.56,264.42,134.61,50.687,1.2387e-4,9.8213,7.358e-4,0,8.1109e-4,-8.457e-5,15722,6.2258,222.32,196.11,2.5504,0.77912,47504298,2529,261.89,0.75478,0.75479,0.3975,0.15836,0.19891,0.018109,0.046197,-4.5698e-4,0,0,1.3665,98339
1.9963,257.16,265.77,134.55,51.223,1.2515e-4,9.8213,6.295e-4,0,0.024549,-7.6997e-5,15707,6.2238,222.37,196.08,2.5575,0.78311,47736369,2529,264.83,0.75574,0.75574,0.39724,0.15877,0.19972,0.0155,0.040043,-2.5315e-4,0,9.6132e-7,1.3665,98309
2.0063,259.77,267.11,134.49,51.762,1.2651e-4,9.8213,5.0352e-4,0,0.044578,-6.5137e-5,15693,6.2217,222.43,196.06,2.5648,0.7871,47968187,2529,267.79,0.75669,0.7567,0.39697,0.15918,0.20054,0.012404,0.032245,2.0583e-4,0,3.1379e-6,1.3666,98278
2.0163,262.39,268.46,134.43,52.304,1.2794e-4,9.8213,3.6274e-4,0,0.059956,-1.0459e-6,15679,6.2196,222.48,196.04,2.5723,0.79109,4.82e7,2529,270.77,0.75766,0.75766,0.39671,0.15959,0.20136,0.00894,0.02267,-4.8133e-4,0,5.6196e-6,1.3666,98248
2.0263,265.02,269.8,134.37,52.849,1.2944e-4,9.8213,2.1265e-4,0,0.070301,3.1088e-4,15664,6.2175,222.54,196.02,2.5799,0.79507,48431057,2529,273.77,0.75863,0.75863,0.39644,0.16001,0.20218,0.0052432,0.01311,2.8162e-4,0,7.6495e-6,1.3667,98217
2.0363,267.67,271.15,134.31,53.397,1.3099e-4,9.8213,5.8879e-5,0,0.075203,9.2137e-4,15650,6.2154,222.59,195.99,2.5875,0.79906,48662102,2529,276.78,0.7596,0.7596,0.39617,0.16042,0.203,0.0014523,0.0037016,3.6367e-4,0,8.6668e-6,1.3668,98186
2.0463,270.33,272.49,134.24,53.947,1.326e-4,9.8213,9.2746e-5,0,-0.07448,5.9026e-4,15636,6.2133,222.63,195.97,2.5932,0.80304,48892882,2529,279.82,0.76058,0.76058,0.3959,0.16084,0.20383,0.0022894,0.0059641,1.5804e-5,0,-8.4173e-6,1.3669,98154
2.0563,273.01,273.83,134.18,54.501,1.3427e-4,9.8213,2.3645e-4,0,-0.068341,1.8609e-4,15622,6.2113,222.65,195.95,2.5977,0.80702,49123395,2529,282.88,0.76156,0.76156,0.39563,0.16126,0.20467,0.0058414,0.015028,8.3336e-5,0,-7.0177e-6,1.3669,98123
2.0662,275.7,275.17,134.11,55.057,1.3599e-4,9.8213,3.6685e-4,0,-0.056812,1.5043e-4,15607,6.2092,222.68,195.93,2.6024,0.811,49353638,2529,285.95,0.76255,0.76255,0.39536,0.16169,0.2055,0.0090707,0.023161,-1.587e-4,0,-4.8025e-6,1.367,98092
2.0762,278.4,276.52,134.04,55.617,1.3777e-4,9.8213,4.7906e-4,0,-0.040579,2.2369e-4,15593,6.2071,222.71,195.9,2.6073,0.81498,49583606,2529,289.04,0.76354,0.76354,0.39508,0.16211,0.20634,0.011855,0.031391,2.2213e-4,0,-2.4265e-6,1.367,98060
2.0862,281.11,277.86,133.98,56.179,1.3958e-4,9.8212,5.6879e-4,0,-0.020024,2.6006e-4,15579,6.205,222.74,195.88,2.6125,0.81895,49813298,2529,292.16,0.76453,0.76454,0.39481,0.16254,0.20719,0.014087,0.036344,4.553e-4,0,-5.8513e-7,1.3671,98028
2.0962,283.84,279.2,133.91,56.744,1.4141e-4,9.8212,6.3284e-4,0,0.0036241,2.6071e-4,15564,6.2029,222.77,195.86,2.6179,0.82293,50042709,2529,295.29,0.76554,0.76554,0.39453,0.16297,0.20804,0.015685,0.041238,3.8845e-4,0,1.8984e-8,1.3671,97996
2.1062,286.58,280.54,133.83,57.312,1.4325e-4,9.8212,6.69e-4,0,0.029726,2.4053e-4,15550,6.2008,222.81,195.84,2.6237,0.8269,50271837,2529,298.44,0.76654,0.76654,0.39426,0.1634,0.20889,0.016593,0.043232,9.4154e-6,0,1.265e-6,1.3671,97964
2.1162,289.33,281.87,133.76,57.883,1.4507e-4,9.8212,6.7616e-4,0,0.056954,1.487e-4,15536,6.1987,222.85,195.81,2.6298,0.83087,50500678,2529,301.61,0.76755,0.76755,0.39398,0.16383,0.20975,0.016782,0.04415,-6.1119e-5,0,4.5998e-6,1.367,97932
2.1262,292.1,283.21,133.69,58.456,1.4686e-4,9.8212,6.544e-4,0,0.08436,2.7894e-4,15521,6.1966,222.89,195.79,2.6362,0.83484,50729230,2529,304.8,0.76857,0.76857,0.3937,0.16426,0.21061,0.016253,0.042813,-8.6991e-5,0,9.9966e-6,1.367,97899
2.1362,294.88,284.55,133.62,59.033,1.4861e-4,9.8212,6.0506e-4,0,0.1106,1.7643e-4,15507,6.1945,222.94,195.77,2.6429,0.83881,50957489,2529,308.01,0.76958,0.76959,0.39342,0.1647,0.21147,0.015037,0.03946,-4.7431e-4,0,1.702e-5,1.3669,97867
2.1462,297.67,285.88,133.54,59.612,1.5031e-4,9.8212,5.3071e-4,0,0.13452,3.8985e-4,15493,6.1924,222.99,195.74,2.6499,0.84278,51185452,2529,311.24,0.77061,0.77061,0.39313,0.16514,0.21234,0.013197,0.035012,-2.5012e-4,0,2.4945e-5,1.3667,97834
2.1562,300.48,287.22,133.46,60.195,1.5195e-4,9.8212,4.3496e-4,0,0.15507,6.1569e-4,15479,6.1903,223.04,195.72,2.6572,0.84674,51413117,2529,314.49,0.77164,0.77164,0.39285,0.16558,0.21321,0.010822,0.029119,7.6182e-6,0,3.2843e-5,1.3666,97801
2.1662,303.3,288.55,133.39,60.78,1.5351e-4,9.8212,3.2237e-4,0,0.17142,0.0010168,15464,6.1882,223.09,195.7,2.6646,0.8507,5.164e7,2529,317.75,0.77267,0.77267,0.39257,0.16602,0.21408,0.0080254,0.021304,-1.9182e-4,0,3.9762e-5,1.3664,97768
2.1762,306.13,289.89,133.31,61.368,1.5497e-4,9.8212,1.9815e-4,0,0.18288,0.0017586,15450,6.1861,223.15,195.68,2.6722,0.85466,51867536,2529,321.04,0.77371,0.77371,0.39228,0.16647,0.21496,0.0049356,0.013616,2.2398e-4,0,4.4839e-5,1.3662,97735
2.1862,308.97,291.22,133.23,61.959,1.5632e-4,9.8212,6.812e-5,0,0.1886,0.0049369,15436,6.184,223.2,195.65,2.6799,0.85862,52094284,2529,324.35,0.77475,0.77475,0.39199,0.16692,0.21584,0.0016977,0.0046036,-2.7636e-4,0,4.7257e-5,1.366,97701
2.1962,311.83,292.55,133.15,62.553,1.5752e-4,9.8212,6.1665e-5,0,-0.18869,0.005326,15421,6.1819,223.24,195.63,2.6863,0.86258,52320721,2529,327.67,0.77579,0.77579,0.3917,0.16736,0.21673,0.0015379,0.0038897,1.3199e-4,0,-4.687e-5,1.3658,97668
2.2062,314.7,293.88,133.06,63.15,1.5859e-4,9.8211,1.8525e-4,0,-0.18319,0.0016661,15407,6.1798,223.27,195.61,2.6912,0.86653,52546842,2529,331.02,0.77684,0.77685,0.39141,0.16782,0.21761,0.0046242,0.012107,-2.6384e-4,0,-4.3779e-5,1.3656,97634
