Time (s),Altitude (m),Total velocity (m/s),Total acceleration (m/s),Position East of launch (m),Position North of launch (m),Gravitational acceleration (m/s),Angle of attack (rad),Roll rate (rpm),Pitch rate (rpm),Yaw rate (rpm),Mass (g),Longitudinal moment of inertia (kgm),CP location (cm),CG location (cm),Stability margin calibers (?),Mach number (?),Reynolds number (?),Thrust (N),Drag force (N),Drag coefficient (?),Axial drag coefficient (?),Friction drag coefficient (?),Pressure drag coefficient (?),Base drag coefficient (?),Normal force coefficient (?),Pitch moment coefficient (?),Yaw moment coefficient (?),Roll damping coefficient (?),Pitch damping coefficient (?),Vertical orientation (zenith) (rad),Air pressure (Pa)
0,0,0,7.3018,0,0,9.8221,1.7453,0,0,0,18553,6.611,NaN,199.83,NaN,0.023503,1465635,43.988,-0.0031601,0.80982,-0.0097128,0.57034,0.11941,0.12007,NaN,NaN,NaN,NaN,NaN,1.3963,101325
2e-3,0,0,2.5599,0,0,9.8221,1.7453,0,0,0,18553,6.611,NaN,199.83,NaN,0.023503,1465635,131.97,-0.0031601,0.80982,-0.0097128,0.57034,0.11941,0.12007,NaN,NaN,NaN,NaN,NaN,1.3963,101325
4e-3,0,0,2.1826,0,0,9.8221,1.7453,0,0,0,18552,6.6109,NaN,199.83,NaN,0.023503,1465635,219.94,-0.0031601,0.80982,-0.0097128,0.57034,0.11941,0.12007,NaN,NaN,NaN,NaN,NaN,1.3963,101325
6e-3,4.2998e-6,0.0043663,6.9257,7.5817e-7,0,9.8221,1.7448,0,0,0,18551,6.6107,NaN,199.83,NaN,0.0235,1465496,307.92,-0.0031316,0.80984,-0.0096268,0.57035,0.11941,0.12007,NaN,NaN,NaN,NaN,NaN,1.3963,101325
8e-3,2.6542e-5,0.018219,11.669,4.68e-6,0,9.8221,1.7431,0,0,0,18550,6.6106,NaN,199.82,NaN,0.023493,1465059,395.9,-0.0030421,0.80987,-0.0093573,0.57038,0.11941,0.12007,NaN,NaN,NaN,NaN,NaN,1.3963,101325
0.01,8.5412e-5,0.041559,16.413,1.506e-5,0,9.8221,1.7402,0,0,0,18549,6.6105,NaN,199.82,NaN,0.023482,1464332,483.87,-0.002895,0.80992,-0.0089137,0.57044,0.11941,0.12007,NaN,NaN,NaN,NaN,NaN,1.3963,101325
0.012,1.996e-4,0.074388,21.158,3.5194e-5,0,9.8221,1.7362,0,0,0,18548,6.6104,NaN,199.82,NaN,0.023466,1463330,571.85,-0.0026959,0.81,-0.0083121,0.57051,0.11941,0.12007,NaN,NaN,NaN,NaN,NaN,1.3963,101325
0.014,3.8779e-4,0.11671,25.903,6.8377e-5,0,9.8221,1.7309,0,0,0,18547,6.6102,NaN,199.82,NaN,0.023445,1462074,659.83,-0.0024525,0.81009,-0.0075747,0.57061,0.11941,0.12007,NaN,NaN,NaN,NaN,NaN,1.3963,101325
0.016,6.6867e-4,0.16851,30.648,1.1791e-4,0,9.8221,1.7245,0,0,0,18546,6.6101,NaN,199.82,NaN,0.023422,1460591,747.8,-0.0021743,0.8102,-0.0067291,0.57072,0.11941,0.12007,NaN,NaN,NaN,NaN,NaN,1.3963,101325
0.018,0.001061,0.22981,35.394,1.8707e-4,0,9.8221,1.7169,0,0,0,18545,6.61,NaN,199.82,NaN,0.023395,1458913,835.78,-0.0018724,0.81033,-0.005808,0.57084,0.11941,0.12007,NaN,NaN,NaN,NaN,NaN,1.3963,101325
0.02,0.0015833,0.30061,40.141,2.7918e-4,0,9.8221,1.7081,0,0,0,18544,6.6099,NaN,199.82,NaN,0.023365,1457081,923.76,-0.001559,0.81046,-0.004848,0.57098,0.11941,0.12007,NaN,NaN,NaN,NaN,NaN,1.3963,101325
0.022,0.0022545,0.38089,44.888,3.9752e-4,0,9.8221,1.6981,0,0,0,18543,6.6097,NaN,199.82,NaN,0.023334,1455141,1011.7,-0.001247,0.81061,-0.0038883,0.57113,0.11941,0.12007,NaN,NaN,NaN,NaN,NaN,1.3963,101325
0.024,0.0030931,0.47067,49.635,5.4539e-4,0,9.8221,1.6869,0,0,0,18542,6.6096,NaN,199.82,NaN,0.023302,1453145,1099.7,-9.4962e-4,0.81076,-0.0029691,0.57128,0.11941,0.12007,NaN,NaN,NaN,NaN,NaN,1.3963,101325
0.026,0.0041179,0.56995,54.383,7.261e-4,0,9.8221,1.6744,0,0,0,18541,6.6095,NaN,199.81,NaN,0.02327,1451151,1187.7,-6.7922e-4,0.81091,-0.0021295,0.57143,0.11941,0.12007,NaN,NaN,NaN,NaN,NaN,1.3963,101325
0.028,0.0053476,0.67872,59.132,9.4293e-4,0,9.8221,1.6607,0,0,0,18540,6.6094,NaN,199.81,NaN,0.023239,1449225,1275.7,-4.4688e-4,0.81105,-0.0014048,0.57157,0.11941,0.12007,NaN,NaN,NaN,NaN,NaN,1.3963,101325
0.03,0.0068009,0.79699,63.881,0.0011992,0,9.8221,1.6458,0,0,0,18539,6.6092,NaN,199.81,NaN,0.023211,1447440,1363.6,-2.6124e-4,0.81119,-8.2324e-4,0.57171,0.11941,0.12007,NaN,NaN,NaN,NaN,NaN,1.3963,101325
0.032,0.0084965,0.92476,68.63,0.0014982,0,9.8221,1.6297,0,0,0,18538,6.6091,NaN,199.81,NaN,0.023186,1445874,1451.6,-1.2728e-4,0.81131,-4.0196e-4,0.57182,0.11941,0.12007,NaN,NaN,NaN,NaN,NaN,1.3963,101325
0.034,0.010453,1.062,73.38,0.0018432,0,9.8221,1.6123,0,0,0,18537,6.609,NaN,199.81,NaN,0.023165,1444612,1539.6,-4.4969e-5,0.8114,-1.4227e-4,0.57192,0.11941,0.12007,NaN,NaN,NaN,NaN,NaN,1.3963,101325
0.036,0.012689,1.2088,78.131,0.0022375,0,9.8221,1.5937,0,0,0,18536,6.6089,NaN,199.81,NaN,0.023152,1443746,1627.6,-7.6238e-6,0.81147,-2.4148e-5,0.57199,0.11941,0.12007,NaN,NaN,NaN,NaN,NaN,1.3963,101325
0.038,0.015224,1.3651,83.044,0.0026844,0,9.8221,1.5739,0,0,0,18535,6.6087,NaN,199.81,NaN,0.023146,1443374,1718.6,-1.8446e-8,0.81149,-5.8455e-8,0.57201,0.11941,0.12007,NaN,NaN,NaN,NaN,NaN,1.3963,101325
0.04,0.018076,1.5312,88.933,0.0031874,0,9.8221,1.5528,0,0,0,18534,6.6086,NaN,199.81,NaN,0.023149,1443601,1827.6,3.7277e-6,0.81148,1.181e-5,0.572,0.11941,0.12007,NaN,NaN,NaN,NaN,NaN,1.3963,101325
0.042,0.021267,1.709,94.989,0.00375,0,9.8221,1.5302,0,0,0,18532,6.6083,NaN,199.8,NaN,0.023165,1444556,1939.6,4.205e-5,0.81141,1.3304e-4,0.57192,0.11941,0.12007,NaN,NaN,NaN,NaN,NaN,1.3963,101325
0.044,0.024821,1.899,101.05,0.0043765,0,9.8221,1.5062,0,0,0,18529,6.6079,NaN,199.8,NaN,0.023194,1446386,2051.6,1.6781e-4,0.81127,5.296e-4,0.57179,0.11941,0.12007,NaN,NaN,NaN,NaN,NaN,1.3963,101325
0.046,0.02876,2.1012,107.11,0.0050712,0,9.8221,1.4807,0,0,0,18527,6.6076,NaN,199.8,NaN,0.02324,1449248,2163.6,4.4971e-4,0.81105,0.0014136,0.57157,0.11941,0.12007,NaN,NaN,NaN,NaN,NaN,1.3963,101325
0.048,0.03311,2.3154,113.17,0.0058381,0,9.8221,1.4538,0,0,0,18524,6.6073,NaN,199.8,NaN,0.023305,1453306,2275.6,9.7317e-4,0.81075,0.003042,0.57126,0.11941,0.12007,NaN,NaN,NaN,NaN,NaN,1.3963,101325
0.05,0.037893,2.5418,119.24,0.0066816,0,9.8221,1.4255,0,0,0,18522,6.6069,NaN,199.79,NaN,0.023392,1458729,2387.7,0.0018409,0.81034,0.0057117,0.57086,0.11941,0.12007,NaN,NaN,NaN,NaN,NaN,1.3963,101325
0.052,0.043134,2.7803,125.31,0.0076057,0,9.8221,1.396,0,0,0,18519,6.6066,NaN,199.79,NaN,0.023504,1465692,2499.7,0.0031728,0.80982,0.0097511,0.57034,0.11941,0.12007,NaN,NaN,NaN,NaN,NaN,1.3963,101324
0.054,0.048857,3.031,131.37,0.0086148,0,9.8221,1.3654,0,0,0,18516,6.6063,NaN,199.79,NaN,0.023643,1474369,2611.7,0.0051061,0.80918,0.015508,0.56969,0.11941,0.12007,NaN,NaN,NaN,NaN,NaN,1.3963,101324
0.056,0.055086,3.2937,137.44,0.0097131,0,9.8221,1.3336,0,0,0,18514,6.6059,NaN,199.78,NaN,0.023812,1484938,2723.7,0.0077936,0.8084,0.023335,0.56892,0.11941,0.12007,NaN,NaN,NaN,NaN,NaN,1.3963,101324
0.058,0.061844,3.5687,142.87,0.010905,0,9.8221,1.3009,0,0,0,18511,6.6056,NaN,199.78,NaN,0.024015,1497573,2823.7,0.011403,0.80749,0.03357,0.568,0.11941,0.12007,NaN,NaN,NaN,NaN,NaN,1.3963,101324
0.06,0.069154,3.8544,144.4,0.012194,0,9.8221,1.2675,0,0,0,18508,6.6053,NaN,199.78,NaN,0.024252,1512373,2851.6,0.016093,0.80642,0.046452,0.56693,0.11941,0.12008,NaN,NaN,NaN,NaN,NaN,1.3963,101324
0.062,0.07703,4.1433,145.29,0.013583,0,9.8221,1.2345,0,0,0,18505,6.6048,NaN,199.77,NaN,0.024519,1529009,2867.6,0.021868,0.80525,0.061756,0.56575,0.11942,0.12008,NaN,NaN,NaN,NaN,NaN,1.3963,101324
0.064,0.085477,4.4339,146.18,0.015072,0,9.8221,1.202,0,0,0,18501,6.6044,NaN,199.77,NaN,0.024814,1547394,2883.5,0.028785,0.80396,0.07937,0.56447,0.11942,0.12008,NaN,NaN,NaN,NaN,NaN,1.3963,101324
0.066,0.094498,4.7263,147.07,0.016663,0,9.8221,1.1701,0,0,0,18498,6.6039,NaN,199.77,NaN,0.025136,1567501,2899.4,0.036909,0.80258,0.099176,0.56308,0.11942,0.12008,NaN,NaN,NaN,NaN,NaN,1.3963,101324
0.068,0.1041,5.0205,147.96,0.018355,0,9.8221,1.1389,0,0,0,18494,6.6034,NaN,199.76,NaN,0.025486,1589295,2915.3,0.046297,0.80111,0.12101,0.56161,0.11942,0.12008,NaN,NaN,NaN,NaN,NaN,1.3963,101324
0.07,0.11428,5.3165,148.85,0.02015,0,9.8221,1.1084,0,0,0,18491,6.603,NaN,199.76,NaN,0.025862,1612743,2931.2,0.056996,0.79956,0.14468,0.56005,0.11942,0.12009,NaN,NaN,NaN,NaN,NaN,1.3963,101324
0.072,0.12504,5.6142,149.74,0.022048,0,9.8221,1.0786,0,0,0,18487,6.6025,NaN,199.75,NaN,0.026264,1637805,2947.2,0.069048,0.79793,0.16995,0.55842,0.11942,0.12009,NaN,NaN,NaN,NaN,NaN,1.3963,101324
0.074,0.13639,5.9137,150.63,0.02405,0,9.8221,1.0495,0,0,0,18483,6.602,NaN,199.75,NaN,0.026691,1664441,2963.1,0.082486,0.79623,0.19658,0.55671,0.11942,0.12009,NaN,NaN,NaN,NaN,NaN,1.3963,101323
0.076,0.14834,6.2151,151.53,0.026156,0,9.8221,1.0212,0,0,0,18480,6.6016,NaN,199.75,NaN,0.027143,1692608,2979,0.097337,0.79447,0.22431,0.55495,0.11942,0.1201,NaN,NaN,NaN,NaN,NaN,1.3963,101323
0.078,0.16088,6.5182,152.42,0.028367,0,9.8221,0.99371,0,0,0,18476,6.6011,NaN,199.74,NaN,0.027618,1722262,2994.9,0.11362,0.79266,0.2529,0.55314,0.11943,0.1201,NaN,NaN,NaN,NaN,NaN,1.3963,101323
0.08,0.17402,6.8231,153.31,0.030684,0,9.8221,0.96701,0,0,0,18473,6.6007,NaN,199.74,NaN,0.028117,1753360,3010.8,0.13136,0.79081,0.2821,0.55128,0.11943,0.1201,NaN,NaN,NaN,NaN,NaN,1.3963,101323
0.082,0.18776,7.1297,154.2,0.033107,0,9.8221,0.94111,0,0,0,18469,6.6002,NaN,199.73,NaN,0.028638,1785855,3026.8,0.15056,0.78892,0.31167,0.54938,0.11943,0.12011,NaN,NaN,NaN,NaN,NaN,1.3963,101323
0.084,0.2021,7.4382,155.1,0.035636,0,9.8221,0.91601,0,0,0,18465,6.5997,NaN,199.73,NaN,0.029181,1819705,3042.7,0.17122,0.78699,0.34138,0.54745,0.11943,0.12011,NaN,NaN,NaN,NaN,NaN,1.3963,101323
0.086,0.21706,7.7484,155.99,0.038274,0,9.8221,0.8917,0,0,0,18462,6.5993,NaN,199.73,NaN,0.029745,1854864,3058.6,0.19336,0.78504,0.37104,0.54549,0.11943,0.12012,NaN,NaN,NaN,NaN,NaN,1.3963,101322
0.088,0.23263,8.0605,156.88,0.041019,0,9.8221,0.86818,0,0,0,18458,6.5988,NaN,199.72,NaN,0.030329,1891289,3074.5,0.21696,0.78307,0.40045,0.54351,0.11944,0.12012,NaN,NaN,NaN,NaN,NaN,1.3963,101322
0.09,0.24881,8.3743,157.78,0.043873,0,9.8221,0.84543,0,0,0,18455,6.5983,NaN,199.72,NaN,0.030933,1928938,3090.4,0.24204,0.78108,0.42947,0.54152,0.11944,0.12012,NaN,NaN,NaN,NaN,NaN,1.3963,101322
0.092,0.26562,8.6899,158.67,0.046836,0,9.8221,0.82344,0,0,0,18451,6.5979,NaN,199.71,NaN,0.031555,1967769,3106.4,0.26858,0.77908,0.45793,0.53951,0.11944,0.12013,NaN,NaN,NaN,NaN,NaN,1.3963,101322
0.094,0.28305,9.0073,159.56,0.049909,0,9.8221,0.8022,0,0,0,18447,6.5974,NaN,199.71,NaN,0.032196,2007742,3122.3,0.29657,0.77707,0.48573,0.5375,0.11944,0.12013,NaN,NaN,NaN,NaN,NaN,1.3963,101322
0.096,0.3011,9.3265,160.46,0.053092,0,9.8221,0.78168,0,0,0,18444,6.5969,NaN,199.71,NaN,0.032855,2048817,3138.2,0.32601,0.77507,0.51275,0.53548,0.11945,0.12014,NaN,NaN,NaN,NaN,NaN,1.3963,101321
0.098,0.31979,9.6474,161.35,0.056387,0,9.8221,0.76187,0,0,0,18440,6.5965,NaN,199.7,NaN,0.033531,2090958,3154.1,0.35689,0.77306,0.53892,0.53346,0.11945,0.12015,NaN,NaN,NaN,NaN,NaN,1.3963,101321
0.1,0.33911,9.9702,162.25,0.059794,0,9.8221,0.74274,0,0,0,18437,6.596,NaN,199.7,NaN,0.034223,2134129,3170,0.3892,0.77106,0.56417,0.53145,0.11945,0.12015,NaN,NaN,NaN,NaN,NaN,1.3963,101321
0.102,0.35906,10.295,163.14,0.063313,0,9.8221,0.72428,0,0,0,18433,6.5955,NaN,199.69,NaN,0.034932,2178295,3186,0.42292,0.76906,0.58845,0.52945,0.11945,0.12016,NaN,NaN,NaN,NaN,NaN,1.3963,101321
0.104,0.37966,10.621,164.04,0.066945,0,9.8221,0.70646,0,0,0,18429,6.5951,NaN,199.69,NaN,0.035655,2223422,3201.9,0.45805,0.76707,0.61171,0.52745,0.11946,0.12017,NaN,NaN,NaN,NaN,NaN,1.3963,101321
0.106,0.40091,10.949,164.94,0.07069,0,9.8221,0.68927,0,0,0,18426,6.5946,NaN,199.69,NaN,0.036394,2269481,3217.8,0.49457,0.7651,0.63394,0.52547,0.11946,0.12017,NaN,NaN,NaN,NaN,NaN,1.3963,101320
0.108,0.4228,11.279,165.83,0.07455,0,9.8221,0.67267,0,0,0,18422,6.5942,NaN,199.68,NaN,0.037147,2316440,3233.7,0.53246,0.76314,0.65513,0.52349,0.11946,0.12018,NaN,NaN,NaN,NaN,NaN,1.3963,101320
0.11,0.44534,11.611,166.73,0.078525,0,9.8221,0.65666,0,0,0,18419,6.5937,NaN,199.68,NaN,0.037914,2364271,3249.6,0.57172,0.76119,0.67526,0.52154,0.11947,0.12019,NaN,NaN,NaN,NaN,NaN,1.3963,101320
0.112,0.46854,11.944,167.63,0.082615,0,9.8221,0.6412,0,0,0,18415,6.5932,NaN,199.67,NaN,0.038695,2412948,3265.5,0.61234,0.75926,0.69435,0.5196,0.11947,0.12019,NaN,NaN,NaN,NaN,NaN,1.3963,101320
0.114,0.49239,12.28,168.52,0.086822,0,9.8221,0.62628,0,0,0,18411,6.5928,NaN,199.67,NaN,0.039489,2462445,3281.5,0.6543,0.75735,0.7124,0.51767,0.11948,0.1202,NaN,NaN,NaN,NaN,NaN,1.3963,101319
0.116,0.51691,12.617,169.44,0.091145,0,9.8221,0.61187,0,0,0,18408,6.5923,186.79,199.66,-1.2521,0.040295,2512737,3301.4,0.69759,0.75546,0.72943,0.51577,0.11948,0.12021,19.957,-53.138,1.4767e-4,0,0,1.3963,101319
0.119,0.55493,13.126,171,0.097863,0,9.8221,0.59071,0,-0.022429,-5.0043e-8,18403,6.5917,187.27,199.66,-1.2056,0.041515,2588755,3331.2,0.76512,0.75269,0.75375,0.51298,0.11949,0.12022,19.24,-48.843,-4.4106e-4,0,-2.8383e-4,1.3963,101318
0.1235,0.6148,13.897,173.33,0.10848,0,9.8221,0.56095,0,-0.054993,-1.3575e-7,18396,6.5908,187.98,199.65,-1.1353,0.043394,2705948,3376,0.87184,0.74862,0.78609,0.50888,0.1195,0.12024,18.252,-42.897,3.3128e-5,0,-0.0015618,1.3962,101318
0.13025,0.71104,15.07,176.83,0.12566,0,9.8221,0.52038,0,-0.10117,5.7747e-8,18386,6.5895,189.05,199.64,-1.0299,0.046321,2888411,3442.7,1.0439,0.74272,0.82603,0.50293,0.11951,0.12028,16.947,-35,-2.3933e-4,0,-0.0046393,1.3962,101317
0.14025,0.86808,16.845,179.31,0.15391,0,9.8221,0.46806,0,-0.16288,4.1546e-7,18371,6.5876,190.62,199.62,-0.87577,0.050873,3172212,3472.7,1.3242,0.73443,0.86879,0.49455,0.11954,0.12034,15.347,-25.236,-3.4018e-4,0,-0.0099682,1.396,101315
0.15025,1.0427,18.639,177.54,0.18555,0,9.8221,0.42402,0,-0.2153,-1.8455e-7,18353,6.5852,192.12,199.6,-0.72822,0.055591,3466390,3436.9,1.6298,0.72678,0.89548,0.48681,0.11957,0.1204,14.085,-17.447,3.8588e-4,0,-0.014586,1.3958,101313
0.16025,1.2348,20.416,175.75,0.22061,0,9.8221,0.38725,0,-0.25711,-3.1057e-7,18334,6.5827,193.5,199.58,-0.59126,0.060351,3763141,3400.8,1.9522,0.71988,0.9101,0.4798,0.11961,0.12047,13.098,-11.289,-6.9586e-5,0,-0.01765,1.3956,101311
0.17025,1.4442,22.175,173.95,0.25907,0,9.8221,0.35618,0,-0.28708,-6.4123e-7,18315,6.5803,194.78,199.56,-0.46472,0.06513,4061070,3364.7,2.2891,0.71362,0.91632,0.47342,0.11965,0.12055,12.314,-6.3484,-4.0456e-4,0,-0.018894,1.3953,101308
0.18025,1.6708,23.916,172.15,0.30092,0,9.8221,0.32961,0,-0.30656,-9.1419e-7,18296,6.5778,195.96,199.54,-0.34801,0.069913,4359198,3328.5,2.6389,0.70793,0.91675,0.46761,0.11969,0.12064,11.27,-3.9032,3.779e-4,0,-0.018697,1.395,101305
0.19025,1.9144,25.639,170.34,0.34614,0,9.8221,0.30668,0,-0.32092,-4.9483e-7,18277,6.5754,197.04,199.52,-0.24045,0.074688,4656828,3292.4,2.9999,0.70273,0.91321,0.46227,0.11973,0.12073,10.269,-2.4511,4.9523e-5,0,-0.017954,1.3947,101303
0.20025,2.1749,27.343,168.54,0.39471,0,9.8221,0.28671,0,-0.33055,6.3733e-7,18258,6.5729,198.04,199.49,-0.14122,0.079447,4953408,3256.3,3.3699,0.69796,0.90666,0.45737,0.11978,0.12082,9.4217,-1.3136,4.6712e-4,0,-0.016834,1.3943,101299
0.21025,2.4519,29.03,166.72,0.44662,0,9.8221,0.26918,0,-0.33545,3.0882e-7,18239,6.5704,198.96,199.47,-0.049531,0.084182,5248512,3220.1,3.7415,0.69358,0.89661,0.45283,0.11982,0.12092,8.6961,-0.4157,-1.0133e-4,0,-0.015442,1.394,101296
0.22025,2.7454,30.699,165.26,0.50184,0,9.8221,0.25366,0,-0.33567,1.2377e-6,18220,6.568,199.81,199.45,0.035358,0.088888,5541814,3190.4,4.1155,0.68953,0.8846,0.44863,0.11988,0.12103,8.0691,0.29909,4.002e-4,0,-0.013868,1.3936,101293
0.23025,3.0552,32.352,165.1,0.56037,0,9.8221,0.23981,0,-0.33123,1.0991e-6,18201,6.5655,200.6,199.43,0.11425,0.093572,5833668,3184.5,4.4941,0.68578,0.87172,0.44471,0.11993,0.12114,7.5216,0.87134,-4.7134e-4,0,-0.012186,1.3933,101289
0.24025,3.3811,34.005,165.06,0.62219,0,9.8221,0.22728,0,-0.32216,1.5398e-6,18183,6.5632,201.34,199.41,0.18823,0.098267,6126214,3181,4.8815,0.68227,0.85857,0.44102,0.11999,0.12126,7.0365,1.3345,-7.4052e-5,0,-0.010452,1.3929,101285
0.25025,3.7233,35.656,165.01,0.68732,0,9.8221,0.21588,0,-0.30844,3.1914e-6,18165,6.5608,202.04,199.39,0.25783,0.10298,6419530,3177.4,5.2789,0.67896,0.84554,0.43753,0.12005,0.12138,6.6035,1.7115,-4.407e-4,0,-0.0087253,1.3926,101281
0.26025,4.0816,37.308,164.97,0.75578,0,9.8221,0.20546,0,-0.2901,3.8815e-6,18147,6.5585,202.69,199.37,0.32346,0.10769,6713501,3173.9,5.687,0.67585,0.83287,0.43423,0.12011,0.12151,6.2148,2.0172,-3.4693e-4,0,-0.0070568,1.3923,101277
0.27025,4.4562,38.959,164.93,0.82757,0,9.8221,0.19589,0,-0.26712,4.4311e-6,18129,6.5561,203.31,199.34,0.3855,0.11242,7008030,3170.3,6.1066,0.67291,0.8207,0.43109,0.12017,0.12164,5.8639,2.2657,-4.0281e-4,0,-0.0054906,1.392,101273
0.28025,4.8468,40.609,164.88,0.9027,0,9.8221,0.18707,0,-0.23952,4.7413e-6,18111,6.5538,203.89,199.32,0.44427,0.11716,7303037,3166.8,6.538,0.67013,0.8091,0.4281,0.12024,0.12178,5.5455,2.4681,3.6738e-4,0,-0.0040648,1.3917,101268
0.29025,5.2537,42.259,164.84,0.98118,0,9.8221,0.17889,0,-0.20729,9.4481e-7,18093,6.5514,204.44,199.3,0.5001,0.1219,7598453,3163.2,6.9816,0.6675,0.79811,0.42526,0.12031,0.12193,5.2549,2.6305,2.423e-4,0,-0.0028121,1.3915,101263
0.30025,5.6767,43.909,164.79,1.063,0,9.8221,0.17129,0,-0.17045,2.1198e-6,18075,6.5491,204.97,199.28,0.55326,0.12665,7894218,3159.7,7.4377,0.66501,0.78771,0.42254,0.12039,0.12209,4.9886,2.7616,-1.4716e-4,0,-0.0017615,1.3913,101258
0.31025,6.1158,45.558,164.74,1.1483,0,9.8221,0.1642,0,-0.12901,-3.6798e-7,18057,6.5467,205.47,199.26,0.60401,0.13141,8190283,3156.1,7.9367,0.66517,0.78087,0.42246,0.12047,0.12224,4.7434,2.866,-1.5146e-4,0,-9.3742e-4,1.3911,101253
0.32025,6.5711,47.206,164.7,1.2369,5.8003e-9,9.8221,0.15754,0,-0.082993,3.0538e-6,18039,6.5444,205.95,199.24,0.65259,0.13617,8486600,3152.6,8.4513,0.66536,0.77443,0.42241,0.12055,0.12241,4.5165,2.9478,-2.8343e-4,0,-3.613e-4,1.391,101248
0.33025,7.0425,48.854,164.65,1.3288,8.354e-9,9.8221,0.15128,0,-0.032403,3.173e-6,18021,6.542,206.41,199.22,0.69924,0.14093,8783134,3149,8.9815,0.66556,0.76835,0.42235,0.12063,0.12258,4.3056,3.011,-4.6185e-4,0,-5.1414e-5,1.391,101242
0.34025,7.53,50.502,164.59,1.4242,1.1458e-8,9.8221,0.14537,0,0.022733,6.5024e-6,18003,6.5396,206.85,199.2,0.74414,0.1457,9079851,3145.5,9.5272,0.66577,0.76262,0.42229,0.12072,0.12276,4.1087,3.0578,-2.8227e-4,0,2.3678e-5,1.391,101237
0.35025,8.0337,52.149,164.54,1.523,1.5253e-8,9.8221,0.13976,0,0.082382,2.1427e-6,17985,6.5373,207.27,199.17,0.78748,0.15047,9376722,3141.9,10.089,0.66598,0.75721,0.42223,0.12081,0.12294,3.9242,3.0904,-2.9931e-5,0,2.9155e-4,1.391,101231
0.36025,8.5535,53.796,164.49,1.6252,1.9825e-8,9.8221,0.13443,0,0.14649,3.074e-7,17967,6.5349,207.68,199.15,0.82946,0.15524,9673721,3138.4,10.666,0.6662,0.7521,0.42217,0.1209,0.12313,3.7505,3.1103,1.003e-4,0,8.6602e-4,1.3911,101225
0.37025,9.0893,55.442,164.47,1.7308,2.5188e-8,9.8221,0.12933,0,0.215,-2.9072e-6,17949,6.5326,208.08,199.13,0.87022,0.16002,9970826,3135.6,11.258,0.66643,0.74727,0.42211,0.12099,0.12333,3.5863,3.1189,3.6219e-4,0,0.0017558,1.3913,101218
0.38025,9.6413,57.087,164.57,1.8398,3.1321e-8,9.8221,0.12444,0,0.28782,-1.8349e-6,17931,6.5302,208.46,199.11,0.9099,0.16479,10268090,3134.7,11.867,0.66666,0.74269,0.42204,0.12109,0.12353,3.4305,3.1188,4.2979e-4,0,0.002967,1.3916,101212
0.39025,10.209,58.734,164.66,1.9522,3.8162e-8,9.8221,0.11973,0,0.3649,-3.5627e-6,17913,6.5279,208.84,199.09,0.94865,0.16958,10565690,3134,12.492,0.66691,0.73835,0.42197,0.12119,0.12374,3.282,3.1086,2.6749e-4,0,0.0045037,1.3919,101205
0.40025,10.794,60.382,164.75,2.068,4.5633e-8,9.8221,0.11518,0,0.44612,-4.0586e-6,17896,6.5256,209.21,199.07,0.98663,0.17437,10863620,3133.2,13.133,0.66715,0.73422,0.4219,0.1213,0.12395,3.1399,3.0918,4.3385e-4,0,0.0063667,1.3924,101198
0.41025,11.394,62.031,164.85,2.1872,5.3663e-8,9.8221,0.11077,0,0.53136,-8.6612e-6,17878,6.5233,209.57,199.05,1.024,0.17917,11161866,3132.5,13.79,0.66741,0.7303,0.42183,0.1214,0.12417,3.0035,3.0671,-3.959e-4,0,0.0085554,1.3929,101191
0.42025,12.01,63.68,164.94,2.3098,6.2089e-8,9.8221,0.10649,0,0.6205,-1.0874e-5,17861,6.521,209.93,199.03,1.0608,0.18397,1.146e7,3131.8,14.464,0.66767,0.72655,0.42176,0.12151,0.1244,2.8721,3.0351,3.4677e-4,0,0.011066,1.3935,101184
0.43025,12.643,65.331,165.03,2.4358,7.0696e-8,9.8221,0.1023,0,0.71338,-1.283e-5,17843,6.5187,210.28,199.01,1.0971,0.18878,11759258,3131,15.153,0.66794,0.72298,0.42168,0.12163,0.12463,2.745,2.9977,4.3928e-4,0,0.013891,1.3942,101177
0.44025,13.292,66.982,165.12,2.5652,7.9197e-8,9.8221,0.098208,0,0.80981,-1.7729e-5,17826,6.5164,210.63,198.98,1.1332,0.19359,12058382,3130.3,15.86,0.66822,0.71957,0.42161,0.12174,0.12487,2.6218,2.954,2.5793e-4,0,0.017021,1.395,101169
0.45025,13.957,68.634,165.21,2.698,8.7236e-8,9.8221,0.094189,0,0.9096,-1.239e-5,17809,6.5141,210.98,198.96,1.169,0.19841,12357780,3129.6,16.582,0.66851,0.7163,0.42153,0.12186,0.12512,2.5019,2.9041,2.7276e-5,0,0.020445,1.3959,101161
0.46025,14.638,70.288,165.29,2.8342,9.4466e-8,9.8221,0.090233,0,1.0125,-2.278e-5,17791,6.5118,211.33,198.94,1.2047,0.20323,12657441,3128.8,17.321,0.6688,0.71318,0.42144,0.12198,0.12537,2.385,2.8492,-3.5911e-5,0,0.024145,1.3969,101153
0.47025,15.335,71.942,165.38,2.9736,1.0048e-7,9.8221,0.08633,0,1.1183,-2.311e-5,17774,6.5095,211.67,198.92,1.2403,0.20806,12957358,3128.1,18.076,0.6691,0.71019,0.42136,0.12211,0.12563,2.2707,2.7885,-3.989e-4,0,0.028102,1.398,101145
0.48025,16.049,73.597,165.46,3.1165,1.048e-7,9.8221,0.08247,0,1.2266,-2.1514e-5,17756,6.5072,212.02,198.9,1.2759,0.21289,13257523,3127.4,18.848,0.6694,0.70732,0.42127,0.12224,0.12589,2.1586,2.7214,-1.7438e-4,0,0.032292,1.3992,101137
0.49025,16.779,75.253,165.55,3.2626,1.0694e-7,9.8221,0.078643,0,1.3371,-2.2228e-5,17739,6.5049,212.36,198.88,1.3115,0.21773,13557929,3126.6,19.636,0.66972,0.70458,0.42119,0.12237,0.12616,2.0484,2.6503,4.1823e-4,0,0.036689,1.4006,101128
0.50025,17.525,76.909,165.63,3.412,1.0647e-7,9.8221,0.074842,0,1.4495,-2.2483e-5,17721,6.5026,212.71,198.86,1.3474,0.22257,13858568,3125.9,20.441,0.67004,0.70196,0.4211,0.12251,0.12644,1.94,2.5731,1.2669e-4,0,0.041261,1.402,101119
0.51025,18.287,78.567,165.71,3.5647,1.0295e-7,9.8221,0.071061,0,1.5633,-1.9638e-5,17704,6.5002,213.06,198.84,1.3834,0.22742,14159433,3125.2,21.263,0.67037,0.69945,0.421,0.12264,0.12672,1.8331,2.4895,-4.3981e-4,0,0.045971,1.4036,101111
0.52025,19.065,80.225,165.79,3.7206,9.5907e-8,9.8221,0.067293,0,1.6781,-1.8556e-5,17686,6.4979,213.41,198.81,1.4197,0.23227,14460518,3124.4,22.102,0.67071,0.69706,0.42091,0.12278,0.12701,1.7275,2.4021,4.3923e-4,0,0.050781,1.4053,101101
0.53025,19.86,81.884,165.87,3.8797,8.4963e-8,9.8221,0.063533,0,1.7934,-1.9077e-5,17669,6.4956,213.76,198.79,1.4562,0.23713,14761815,3123.7,22.958,0.67105,0.69479,0.42081,0.12293,0.12731,1.623,2.3084,-1.3951e-5,0,0.055647,1.4071,101092
0.54025,20.671,83.544,165.94,4.0419,6.9723e-8,9.822,0.059778,0,1.9086,-2.2592e-5,17651,6.4933,214.12,198.77,1.4931,0.24199,15063318,3123,23.833,0.6714,0.69264,0.42071,0.12308,0.12761,1.5197,2.2081,4.9098e-4,0,0.060519,1.4091,101083
0.55025,21.499,85.204,166.02,4.2073,4.983e-8,9.822,0.056025,0,2.0231,-3.228e-5,17634,6.491,214.48,198.75,1.5304,0.24685,15365019,3122.2,24.725,0.67176,0.6906,0.42061,0.12323,0.12792,1.4173,2.1039,3.3982e-4,0,0.065347,1.4111,101073
0.56025,22.342,86.866,166.09,4.3757,2.4739e-8,9.822,0.052272,0,2.1363,-3.066e-5,17616,6.4887,214.85,198.73,1.568,0.25172,15666911,3121.5,25.637,0.67213,0.6887,0.42051,0.12338,0.12824,1.3159,1.9937,3.7262e-5,0,0.070075,1.4133,101063
0.57025,23.202,88.528,166.17,4.5472,-6.1275e-9,9.822,0.048517,0,2.2475,-3.0338e-5,17599,6.4863,215.22,198.71,1.6061,0.25659,15968986,3120.8,26.567,0.6725,0.68692,0.42041,0.12354,0.12856,1.2153,1.8775,1.1767e-5,0,0.074644,1.4156,101053
0.58025,24.079,90.19,166.24,4.7217,-4.3282e-8,9.822,0.04476,0,2.3559,-2.086e-5,17581,6.484,215.59,198.69,1.6445,0.26147,16271237,3120,27.518,0.67288,0.68528,0.4203,0.1237,0.12889,1.1157,1.7559,2.3678e-4,0,0.078992,1.418,101043
0.59025,24.971,91.853,166.31,4.8991,-8.7116e-8,9.822,0.041002,0,2.4608,-3.0434e-5,17564,6.4817,215.97,198.66,1.6834,0.26635,16573655,3119.3,28.49,0.67327,0.68378,0.42019,0.12386,0.12922,1.0169,1.6285,-4.6352e-5,0,0.083054,1.4205,101032
0.60025,25.881,93.517,166.38,5.0794,-1.3794e-7,9.822,0.037246,0,2.5613,-3.4161e-5,17546,6.4793,216.35,198.64,1.7227,0.27123,16876232,3118.6,29.482,0.67367,0.68242,0.42008,0.12403,0.12956,0.91912,1.4963,3.129e-5,0,0.086768,1.4231,101021
0.61025,26.806,95.181,166.45,5.2625,-1.9612e-7,9.822,0.033493,0,2.6566,-3.5512e-5,17529,6.477,216.74,198.62,1.7623,0.27612,17178959,3117.8,30.497,0.67407,0.68122,0.41997,0.1242,0.12991,0.82236,1.3593,-2.522e-4,0,0.090067,1.4259,101011
0.62025,27.748,96.846,166.51,5.4483,-2.6204e-7,9.822,0.029748,0,2.7456,-3.6514e-5,17512,6.4747,217.13,198.6,1.8022,0.28101,17481825,3117.1,31.535,0.67448,0.68018,0.41985,0.12437,0.13027,0.72673,1.2172,2.9169e-5,0,0.092887,1.4287,101000
0.63025,28.707,98.511,166.58,5.6368,-3.3601e-7,9.822,0.026015,0,2.8274,-1.8509e-5,17494,6.4723,217.52,198.58,1.8425,0.28591,17784822,3116.4,32.598,0.6749,0.6793,0.41973,0.12454,0.13063,0.63234,1.0696,4.302e-4,0,0.095165,1.4316,100988
0.64025,29.681,100.18,166.64,5.828,-4.18e-7,9.822,0.022301,0,2.9011,-7.622e-6,17477,6.47,217.91,198.55,1.883,0.2908,18087940,3115.6,33.685,0.67533,0.67859,0.41961,0.12472,0.13099,0.53932,0.91854,3.929e-4,0,0.096843,1.4346,100977
0.65025,30.673,101.84,166.7,6.0217,-5.0765e-7,9.822,0.018611,0,2.9655,-9.9678e-6,17459,6.4677,218.31,198.53,1.9236,0.2957,18391166,3114.9,34.799,0.67576,0.67806,0.41949,0.1249,0.13137,0.44784,0.76388,-4.3263e-4,0,0.097869,1.4377,100965
0.66025,31.681,103.51,166.77,6.2179,-6.043e-7,9.822,0.014955,0,3.0197,9.8869e-6,17442,6.4653,218.7,198.51,1.9643,0.30061,18694492,3114.2,35.939,0.6762,0.6777,0.41937,0.12509,0.13175,0.35806,0.60526,2.3045e-4,0,0.0982,1.4408,100953
0.67025,32.705,105.18,166.83,6.4164,-7.0703e-7,9.822,0.01134,0,3.0627,8.7054e-6,17424,6.463,219.1,198.49,2.005,0.30551,18997904,3113.4,37.108,0.67665,0.67752,0.41924,0.12528,0.13213,0.27017,0.4441,8.7239e-5,0,0.097795,1.444,100941
0.68025,33.746,106.84,166.88,6.6173,-8.1464e-7,9.822,0.0077775,0,3.0933,2.7859e-5,17407,6.4607,219.49,198.47,2.0455,0.31042,19301392,3112.7,38.305,0.67711,0.67752,0.41911,0.12547,0.13253,0.18438,0.28053,-9.4078e-6,0,0.096632,1.4472,100929
0.69025,34.803,108.51,166.94,6.8204,-9.2586e-7,9.822,0.0042772,0,3.1105,5.8535e-5,17389,6.4583,219.89,198.44,2.0857,0.31533,19604944,3112,39.532,0.67758,0.6777,0.41898,0.12567,0.13293,0.10091,0.11559,3.6389e-4,0,0.094696,1.4505,100917
0.70025,35.877,110.18,167,7.0257,-1.0392e-6,9.822,8.509e-4,0,3.1135,2.28e-4,17372,6.456,220.27,198.42,2.1256,0.32025,19908549,3111.2,40.79,0.67805,0.67805,0.41885,0.12586,0.13333,0.01998,-0.049858,3.6206e-4,0,0.091988,1.4538,100904
0.71025,36.968,111.85,167.05,7.233,-1.153e-6,9.822,0.0024887,0,-3.1012,7.8142e-5,17354,6.4536,220.1,198.4,2.1104,0.32516,20212194,3110.5,42.078,0.67853,0.67857,0.41872,0.12606,0.13374,0.058592,0.2121,5.6187e-5,0,-0.088528,1.457,100891
0.72025,38.075,113.51,167.11,7.4424,-1.2663e-6,9.822,0.0057283,0,-3.0734,1.7699e-5,17337,6.4513,219.74,198.38,2.0781,0.33008,20515869,3109.8,43.398,0.67901,0.67924,0.41858,0.12627,0.13416,0.13554,0.3658,1.7669e-4,0,-0.084379,1.4602,100878
0.73025,39.199,115.18,167.16,7.6536,-1.3778e-6,9.822,0.0088546,0,-3.03,-1.3571e-5,17319,6.4489,219.4,198.36,2.0473,0.335,2.082e7,3109,44.748,0.67951,0.68004,0.41844,0.12648,0.13459,0.21053,0.51035,2.0039e-4,0,-0.079623,1.4634,100865
0.74025,40.339,116.85,167.22,7.8666,-1.4858e-6,9.822,0.011854,0,-2.9711,3.7575e-7,17302,6.4466,219.08,198.33,2.0183,0.33992,21123263,3108.3,46.128,0.68001,0.68096,0.4183,0.12669,0.13502,0.28316,0.64592,-1.8356e-4,0,-0.074359,1.4666,100852
0.75025,41.496,118.52,167.27,8.0814,-1.5884e-6,9.822,0.014715,0,-2.8967,3.7445e-5,17284,6.4442,218.78,198.31,1.991,0.34484,21426961,3107.6,47.538,0.68052,0.68198,0.41816,0.1269,0.13546,0.35304,0.77166,5.6549e-5,0,-0.068683,1.4697,100838
0.76025,42.67,120.18,167.32,8.2978,-1.6841e-6,9.822,0.017424,0,-2.8072,3.2857e-5,17267,6.4418,218.49,198.29,1.9655,0.34976,21730647,3106.8,48.976,0.68104,0.68307,0.41801,0.12712,0.1359,0.41979,0.8876,-3.7572e-4,0,-0.062701,1.4726,100825
0.77025,43.86,121.85,167.37,8.5158,-1.7723e-6,9.822,0.019969,0,-2.7027,2.7473e-5,17250,6.4395,218.23,198.27,1.942,0.35469,22034314,3106.1,50.443,0.68156,0.68422,0.41787,0.12734,0.13635,0.483,0.99477,2.0895e-4,0,-0.05652,1.4755,100811
0.78025,45.067,123.52,167.42,8.7353,-1.8524e-6,9.822,0.022339,0,-2.5837,-8.6383e-6,17232,6.4371,217.99,198.24,1.9204,0.35961,22337952,3105.4,51.936,0.68209,0.6854,0.41772,0.12756,0.13681,0.54232,1.0922,-1.8098e-4,0,-0.050246,1.4783,100796
0.79025,46.291,125.18,167.47,8.9562,-1.9234e-6,9.822,0.024523,0,-2.4504,1.3161e-5,17215,6.4348,217.76,198.22,1.901,0.36454,22641556,3104.6,53.455,0.68263,0.6866,0.41757,0.12779,0.13728,0.59738,1.1795,4.2032e-4,0,-0.043985,1.4809,100782
0.80025,47.532,126.85,167.52,9.1784,-1.984e-6,9.822,0.026512,0,-2.3035,3.5153e-5,17197,6.4324,217.56,198.2,1.8837,0.36947,22945121,3103.9,54.997,0.68318,0.6878,0.41741,0.12802,0.13775,0.64783,1.2584,4.1408e-4,0,-0.03784,1.4834,100768
0.81025,48.789,128.52,167.57,9.4018,-2.0337e-6,9.822,0.028295,0,-2.1434,7.5328e-6,17180,6.43,217.38,198.18,1.8686,0.3744,23248642,3103.2,56.563,0.68373,0.68897,0.41726,0.12825,0.13822,0.69335,1.3275,-2.5992e-4,0,-0.031908,1.4858,100753
0.82025,50.063,130.19,167.62,9.6264,-2.0721e-6,9.822,0.029864,0,-1.9708,-9.1263e-6,17162,6.4277,217.23,198.15,1.8558,0.37933,23552117,3102.4,58.15,0.6843,0.69012,0.4171,0.12849,0.13871,0.73366,1.3878,-3.5993e-4,0,-0.02628,1.4879,100738
0.83025,51.353,131.85,167.67,9.8522,-2.0985e-6,9.822,0.031212,0,-1.7863,-1.5131e-5,17145,6.4253,217.1,198.13,1.8452,0.38426,23855543,3101.7,59.756,0.68487,0.69121,0.41694,0.12873,0.13919,0.76846,1.4391,3.664e-4,0,-0.02104,1.4899,100723
0.84025,52.661,133.52,167.71,10.079,-2.1113e-6,9.822,0.032331,0,-1.5907,-1.2969e-5,17127,6.4229,216.99,198.11,1.837,0.38919,24158922,3101,61.382,0.68544,0.69224,0.41678,0.12897,0.13969,0.79752,1.4809,3.7139e-4,0,-0.016265,1.4917,100707
0.85025,53.985,135.19,167.76,10.307,-2.1094e-6,9.8219,0.033216,0,-1.3849,-1.4915e-5,17110,6.4206,216.91,198.08,1.8311,0.39412,24462253,3100.2,63.024,0.68603,0.69319,0.41662,0.12922,0.14019,0.82063,1.5148,-2.3781e-4,0,-0.012022,1.4932,100692
0.86025,55.326,136.86,167.81,10.535,-2.0915e-6,9.8219,0.033862,0,-1.1697,-1.6536e-5,17092,6.4182,216.85,198.06,1.8277,0.39905,24765538,3099.5,64.683,0.68662,0.69406,0.41645,0.12947,0.1407,0.83761,1.5392,5.6635e-5,0,-0.0083656,1.4945,100676
0.87025,56.683,138.52,167.85,10.765,-2.0562e-6,9.8219,0.034265,0,-0.94615,-6.8638e-5,17075,6.4158,216.82,198.04,1.8266,0.40399,25068780,3098.8,66.356,0.68722,0.69483,0.41628,0.12972,0.14122,0.84834,1.5545,-4.7499e-4,0,-0.0053408,1.4957,100660
0.88025,58.058,140.19,167.89,10.996,-2.0018e-6,9.8219,0.034423,0,-0.71539,-6.3918e-5,17057,6.4134,216.81,198.02,1.828,0.40892,25371983,3098,68.043,0.68783,0.69551,0.41612,0.12997,0.14174,0.85272,1.5617,-3.4701e-4,0,-0.0029802,1.4965,100644
0.89025,59.449,141.86,167.93,11.227,-1.9257e-6,9.8219,0.034334,0,-0.47858,-4.7759e-5,17040,6.4111,216.82,197.99,1.8319,0.41386,25675152,3097.3,69.742,0.68844,0.6961,0.41594,0.13023,0.14227,0.85071,1.5601,-4.8909e-4,0,-0.0013021,1.4972,100628
0.90025,60.857,143.53,167.97,11.459,-1.8261e-6,9.8219,0.033999,0,-0.23704,-1.3761e-6,17022,6.4087,216.87,197.97,1.8382,0.4188,25978290,3096.6,71.455,0.68906,0.69659,0.41577,0.13049,0.1428,0.8423,1.549,6.4475e-5,0,-3.1197e-4,1.4975,100611
0.91025,62.281,145.2,168.01,11.692,-1.7018e-6,9.8219,0.033418,0,0.0078105,-1.4704e-5,17005,6.4063,216.93,197.95,1.8469,0.42374,26281404,3095.8,73.179,0.68969,0.69698,0.41559,0.13076,0.14334,0.82753,1.5283,-2.8789e-4,0,3.3086e-7,1.4976,100595
0.92025,63.723,146.87,168.05,11.926,-1.5523e-6,9.8219,0.032595,0,0.25445,-1.0653e-5,16987,6.4039,217.02,197.92,1.858,0.42868,26584498,3095.1,74.916,0.69033,0.69728,0.41541,0.13103,0.14389,0.80652,1.4985,-4.1591e-4,0,3.4311e-4,1.4975,100578
0.93025,65.181,148.54,168.09,12.16,-1.3776e-6,9.8219,0.031535,0,0.50097,2.7716e-6,16970,6.4015,217.14,197.9,1.8715,0.43362,26887578,3094.4,76.665,0.69098,0.6975,0.41523,0.1313,0.14444,0.77941,1.4571,3.8862e-4,0,0.0012999,1.4971,100561
0.94025,66.656,150.21,168.12,12.395,-1.1774e-6,9.8219,0.030243,0,0.74532,-2.1795e-5,16953,6.3991,217.28,197.88,1.8874,0.43857,27190646,3093.6,78.427,0.69163,0.69766,0.41505,0.13157,0.145,0.74642,1.4063,-1.6006e-4,0,0.0028128,1.4965,100543
0.95025,68.148,151.89,168.15,12.631,-9.5194e-7,9.8219,0.028729,0,0.9854,-3.0449e-5,16935,6.3967,217.44,197.85,1.9055,0.44351,27493708,3092.9,80.203,0.69229,0.69776,0.41487,0.13185,0.14557,0.70782,1.3435,-4.6209e-5,0,0.0048079,1.4956,100526
0.96025,69.657,153.56,168.18,12.868,-7.0108e-7,9.8219,0.027004,0,1.2189,-4.3421e-5,16918,6.3943,217.63,197.83,1.9259,0.44846,27796764,3092.2,81.995,0.69296,0.69781,0.41468,0.13213,0.14615,0.66395,1.2715,-2.5482e-4,0,0.0071956,1.4944,100508
0.97025,71.183,155.23,168.21,13.106,-4.2446e-7,9.8219,0.025079,0,1.4435,-7.2294e-5,16900,6.3919,217.83,197.81,1.9483,0.45341,2.81e7,3091.4,83.804,0.69364,0.69785,0.41449,0.13242,0.14673,0.6152,1.1891,1.1375e-4,0,0.0098727,1.493,100490
0.98025,72.725,156.91,168.24,13.345,-1.2119e-7,9.8219,0.022971,0,1.6567,-1.2181e-4,16883,6.3896,218.06,197.78,1.9727,0.45836,28402865,3090.7,85.632,0.69432,0.69787,0.4143,0.13271,0.14731,0.56203,1.096,-4.8094e-5,0,0.012725,1.4914,100472
0.99025,74.284,158.59,168.27,13.585,2.1043e-7,9.8219,0.020695,0,1.856,-1.4816e-4,16865,6.3872,218.31,197.76,1.9989,0.46332,28705907,3090,87.482,0.69501,0.69791,0.41411,0.133,0.14791,0.50493,0.99396,-2.3928e-4,0,0.015632,1.4895,100454
1.0003,75.86,160.26,168.29,13.826,5.7323e-7,9.8219,0.018273,0,2.039,-2.1367e-4,16848,6.3848,218.57,197.74,2.0268,0.46827,29008938,3089.2,89.357,0.69571,0.69799,0.41391,0.13329,0.14851,0.44448,0.88243,3.0898e-4,0,0.018469,1.4875,100435
1.0103,77.453,161.94,168.31,14.068,9.71e-7,9.8219,0.015725,0,2.2028,-2.1124e-4,16830,6.3824,218.85,197.71,2.0562,0.47323,29311954,3088.5,91.259,0.69642,0.69812,0.41371,0.13359,0.14911,0.38127,0.76299,1.2029e-4,0,0.021108,1.4853,100417
1.0203,79.062,163.62,168.34,14.311,1.4075e-6,9.8219,0.013075,0,2.3451,-2.3903e-4,16813,6.3799,219.14,197.69,2.0869,0.47819,29614945,3087.8,93.191,0.69714,0.69832,0.41351,0.13389,0.14973,0.31595,0.636,-1.7632e-4,0,0.02343,1.4829,100398
1.0303,80.689,165.3,168.36,14.556,1.8856e-6,9.8219,0.010349,0,2.4633,-2.678e-4,16795,6.3775,219.44,197.66,2.1185,0.48315,29917904,3087,95.155,0.69786,0.6986,0.41331,0.1342,0.15035,0.24921,0.5029,-3.4745e-4,0,0.025325,1.4804,100379
1.0403,82.332,166.98,168.38,14.802,2.4066e-6,9.8219,0.0075746,0,2.5552,-3.1947e-4,16778,6.3751,219.75,197.64,2.1509,0.48811,30220819,3086.3,97.155,0.69859,0.69899,0.41311,0.13451,0.15097,0.18176,0.36455,-3.7263e-4,0,0.026699,1.4777,100359
1.0503,83.992,168.67,168.4,15.049,2.971e-6,9.8219,0.0047818,0,2.6186,-4.5609e-4,16760,6.3727,220.07,197.62,2.1838,0.49308,30523678,3085.6,99.192,0.69933,0.69949,0.4129,0.13482,0.15161,0.11433,0.22178,2.0715e-4,0,0.02748,1.475,100340
1.0603,85.668,170.35,168.43,15.299,3.5769e-6,9.8218,0.0020011,0,2.6517,-0.0011146,16743,6.3703,220.38,197.59,2.2167,0.49804,30826468,3084.8,101.27,0.70007,0.7001,0.41269,0.13513,0.15225,0.047676,0.077937,4.4494e-4,0,0.027622,1.4723,100320
1.0703,87.362,172.03,168.45,15.549,4.223e-6,9.8218,7.3559e-4,0,-2.653,-0.0029828,16725,6.3679,220.53,197.57,2.2335,0.50301,31129176,3084.1,103.38,0.70083,0.70083,0.41248,0.13545,0.15289,0.017501,0.065779,-6.767e-5,0,-0.027106,1.4695,100300
1.0803,89.072,173.72,168.47,15.802,4.9076e-6,9.8218,0.0033957,0,-2.6216,-6.162e-4,16708,6.3655,220.24,197.55,2.2081,0.50797,31431789,3083.4,105.54,0.70159,0.70167,0.41227,0.13577,0.15354,0.081138,0.20522,6.8269e-5,0,-0.025955,1.4667,100280
1.0903,90.799,175.4,168.49,16.057,5.6295e-6,9.8218,0.0059467,0,-2.558,-3.2037e-4,16690,6.3631,219.98,197.52,2.1843,0.51294,31734293,3082.6,107.74,0.70236,0.70261,0.41206,0.1361,0.1542,0.14268,0.33631,4.3758e-4,0,-0.024235,1.464,100260
1.1003,92.542,177.09,168.51,16.313,6.3876e-6,9.8218,0.0083577,0,-2.463,-2.0887e-4,16673,6.3607,219.72,197.5,2.1622,0.51791,32036676,3081.9,109.97,0.70314,0.70363,0.41184,0.13643,0.15487,0.20132,0.45701,3.3357e-4,0,-0.022039,1.4614,100240
1.1103,94.303,178.77,168.53,16.572,7.1817e-6,9.8218,0.0106,0,-2.3377,-1.6936e-4,16656,6.3582,219.5,197.47,2.1423,0.52287,32338927,3081.2,112.24,0.70392,0.70471,0.41162,0.13676,0.15554,0.25626,0.56803,-2.892e-4,0,-0.01948,1.4589,100219
1.1203,96.08,180.46,168.55,16.833,8.0108e-6,9.8218,0.012645,0,-2.1838,-1.1618e-4,16638,6.3558,219.29,197.45,2.1246,0.52784,32641037,3080.4,114.54,0.70471,0.70583,0.4114,0.13709,0.15622,0.30675,0.6682,1.0258e-4,0,-0.016682,1.4565,100198
1.1303,97.874,182.14,168.57,17.096,8.874e-6,9.8218,0.01447,0,-2.0032,-1.074e-4,16621,6.3534,219.11,197.42,2.1095,0.53281,32942998,3079.7,116.87,0.70551,0.70697,0.41118,0.13743,0.1569,0.35209,0.75615,2.886e-4,0,-0.013776,1.4543,100177
1.1403,99.684,183.83,168.59,17.362,9.7698e-6,9.8218,0.016052,0,-1.798,-1.1189e-4,16603,6.351,218.96,197.4,2.0972,0.53777,33244805,3079,119.23,0.70632,0.70811,0.41095,0.13777,0.1576,0.39164,0.83198,-2.5229e-4,0,-0.010895,1.4523,100156
1.1503,101.51,185.52,168.61,17.63,1.0697e-5,9.8218,0.017372,0,-1.5707,-1.132e-4,16586,6.3485,218.84,197.38,2.0876,0.54274,33546455,3078.2,121.6,0.70714,0.70923,0.41073,0.13812,0.15829,0.42485,0.89477,1.8111e-4,0,-0.0081631,1.4505,100134
1.1603,103.36,187.21,168.62,17.901,1.1651e-5,9.8218,0.018415,0,-1.3241,-8.7816e-5,16568,6.3461,218.75,197.35,2.0811,0.54771,33847947,3077.5,124,0.70796,0.71031,0.4105,0.13846,0.159,0.45125,0.94505,-3.5892e-4,0,-0.0056972,1.449,100113
1.1703,105.22,188.89,168.63,18.175,1.2631e-5,9.8218,0.019169,0,-1.0612,-1.4435e-5,16551,6.3437,218.69,197.33,2.0777,0.55267,34149283,3076.8,126.42,0.70879,0.71134,0.41027,0.13882,0.15971,0.47046,0.98068,5.0397e-5,0,-0.003594,1.4478,100091
1.1803,107.09,190.58,168.64,18.451,1.3634e-5,9.8218,0.019626,0,-0.78542,-3.5966e-5,16533,6.3412,218.66,197.3,2.0774,0.55764,3.445e7,3076,128.84,0.70963,0.7123,0.41003,0.13917,0.16043,0.48221,1.0037,1.4752e-4,0,-0.0019338,1.4468,100069
1.1903,108.99,192.27,168.64,18.73,1.466e-5,9.8218,0.01978,0,-0.50006,3.8294e-5,16516,6.3388,218.66,197.28,2.0803,0.56261,34751497,3075.3,131.28,0.71047,0.71319,0.4098,0.13953,0.16115,0.48633,1.013,1.4291e-4,0,-7.7016e-4,1.4461,100047
1.2003,110.9,193.95,168.64,19.011,1.571e-5,9.8218,0.01963,0,-0.2091,1.0546e-5,16498,6.3364,218.7,197.25,2.0864,0.56758,35052385,3074.6,133.73,0.71133,0.714,0.40956,0.13989,0.16188,0.4828,1.0079,-3.7864e-4,0,-1.3233e-4,1.4458,100024
1.2103,112.82,195.64,168.63,19.296,1.6783e-5,9.8218,0.019181,0,0.083513,1.4793e-5,16481,6.3339,218.77,197.23,2.0956,0.57254,35353134,3073.8,136.2,0.71219,0.71475,0.40932,0.14025,0.16261,0.4717,0.98876,4.7575e-4,0,2.0743e-5,1.4457,1e5
1.2203,114.77,197.33,168.62,19.583,1.7883e-5,9.8218,0.01844,0,0.37351,-3.1761e-5,16463,6.3315,218.87,197.2,2.108,0.57751,35653750,3073.1,138.67,0.71305,0.71543,0.40908,0.14062,0.16336,0.45324,0.95461,-9.2779e-5,0,4.0784e-4,1.4459,99979
1.2303,116.73,199.01,168.61,19.873,1.9007e-5,9.8218,0.017419,0,0.65614,-1.1049e-5,16446,6.329,219.01,197.18,2.1233,0.58248,35954237,3072.4,141.16,0.71393,0.71606,0.40883,0.14099,0.16411,0.42775,0.907,-2.2307e-4,0,0.0012373,1.4465,99956
1.2403,118.71,200.7,168.59,20.165,2.0156e-5,9.8217,0.016134,0,0.92676,-2.1638e-5,16428,6.3266,219.17,197.15,2.1414,0.58745,36254598,3071.6,143.66,0.71481,0.71665,0.40859,0.14136,0.16486,0.3957,0.84451,-1.553e-4,0,0.0024269,1.4473,99933
1.2503,120.7,202.39,168.56,20.46,2.1329e-5,9.8217,0.014608,0,1.1804,-4.0978e-6,16411,6.3241,219.36,197.13,2.1621,0.59242,36554835,3070.9,146.18,0.71571,0.71722,0.40834,0.14174,0.16562,0.3577,0.76995,-3.2054e-4,0,0.0038715,1.4484,99909
1.2603,122.71,204.07,168.54,20.758,2.2524e-5,9.8217,0.012867,0,1.4123,2.871e-5,16394,6.3217,219.57,197.1,2.1852,0.59739,36854946,3070.2,148.73,0.71661,0.71778,0.40809,0.14212,0.16639,0.31445,0.68169,2.7691e-4,0,0.0054505,1.4498,99886
1.2703,124.74,205.76,168.51,21.059,2.374e-5,9.8217,0.010939,0,1.6178,-8.0858e-5,16376,6.3192,219.8,197.08,2.2105,0.60236,37154927,3069.4,151.3,0.71751,0.71837,0.40784,0.14251,0.16717,0.26677,0.58305,-3.3062e-4,0,0.0070348,1.4514,99862
1.2803,126.78,207.45,168.47,21.362,2.4975e-5,9.8217,0.0088608,0,1.7924,-1.0574e-4,16359,6.3168,220.06,197.05,2.2375,0.60733,37454773,3068.7,153.9,0.71843,0.71899,0.40758,0.1429,0.16795,0.21556,0.47353,6.3016e-5,0,0.0084948,1.4531,99838
1.2903,128.84,209.13,168.44,21.667,2.6223e-5,9.8217,0.0066689,0,1.9319,-1.87e-4,16341,6.3143,220.32,197.03,2.2659,0.6123,37754474,3068,156.54,0.71935,0.71967,0.40733,0.14329,0.16874,0.16182,0.35657,2.8771e-4,0,0.0097094,1.4551,99814
1.3003,130.92,210.82,168.41,21.975,2.7478e-5,9.8217,0.0044048,0,2.0327,-3.1587e-4,16324,6.3119,220.6,197,2.2953,0.61727,38054020,3067.2,159.22,0.72028,0.72042,0.40707,0.14368,0.16953,0.1066,0.23427,-4.0545e-4,0,0.010577,1.4572,99790
1.3103,133.01,212.5,168.38,22.284,2.873e-5,9.8217,0.0021119,0,2.0919,-5.4267e-4,16306,6.3094,220.88,196.98,2.3252,0.62224,38353397,3066.5,161.94,0.72122,0.72125,0.40681,0.14408,0.17033,0.050972,0.10701,8.6297e-5,0,0.011025,1.4593,99765
1.3203,135.12,214.18,168.34,22.596,2.9971e-5,9.8217,1.6464e-4,0,-2.1072,-0.0070147,16289,6.3069,221.13,196.95,2.3516,0.62721,38652592,3065.8,164.71,0.72216,0.72216,0.40654,0.14448,0.17114,0.003965,0.019839,3.159e-4,0,-0.01101,1.4615,99740
1.3303,137.25,215.87,168.31,22.91,3.1194e-5,9.8217,0.0023788,0,-2.0775,-4.6565e-4,16271,6.3045,220.92,196.93,2.3335,0.63218,38951590,3065,167.52,0.72312,0.72316,0.40628,0.14488,0.17196,0.057504,0.14452,-1.6246e-4,0,-0.010535,1.4637,99715
1.3403,139.39,217.55,168.28,23.225,3.2391e-5,9.8217,0.0044851,0,-2.0033,-1.9264e-4,16254,6.302,220.72,196.9,2.3168,0.63715,3.925e7,3064.3,170.37,0.72408,0.72423,0.40601,0.14529,0.17278,0.10881,0.26181,-2.5217e-4,0,-0.0096444,1.4659,99690
1.3503,141.55,219.23,168.25,23.543,3.3554e-5,9.8217,0.0064403,0,-1.8863,-6.4844e-5,16236,6.2995,220.54,196.88,2.3019,0.64212,39548942,3063.6,173.26,0.72505,0.72535,0.40574,0.1457,0.1736,0.15678,0.36935,4.9805e-4,0,-0.0084193,1.4679,99665
1.3603,143.73,220.91,168.22,23.862,3.4672e-5,9.8217,0.0082048,0,-1.7291,-3.3009e-5,16219,6.2971,220.39,196.85,2.2892,0.64709,39847273,3062.8,176.19,0.72602,0.72651,0.40547,0.14612,0.17443,0.20035,0.4653,-4.8312e-4,0,-0.0069668,1.4698,99639
1.3703,145.93,222.59,168.19,24.182,3.5731e-5,9.8217,0.0097428,0,-1.5354,7.9904e-5,16201,6.2946,220.26,196.83,2.279,0.65206,40145361,3062.1,179.15,0.72701,0.7277,0.4052,0.14653,0.17527,0.23857,0.54886,4.2623e-4,0,-0.0054098,1.4715,99614
1.3803,148.14,224.27,168.16,24.504,3.6716e-5,9.8217,0.011024,0,-1.3089,1.1484e-4,16184,6.2921,220.15,196.8,2.2716,0.65703,40443201,3061.4,182.14,0.728,0.72888,0.40492,0.14695,0.17612,0.27058,0.61896,-1.1389e-4,0,-0.0038725,1.473,99588
1.3903,150.36,225.95,168.13,24.827,3.7609e-5,9.8216,0.012022,0,-1.0546,1.0695e-4,16166,6.2896,220.08,196.78,2.2673,0.66199,40740790,3060.6,185.15,0.729,0.73004,0.40465,0.14738,0.17697,0.29569,0.67277,3.537e-4,0,-0.0024764,1.4743,99561
1.4003,152.61,227.63,168.1,25.151,3.8392e-5,9.8216,0.012719,0,-0.77793,-6.6274e-6,16149,6.2872,220.05,196.75,2.2662,0.66696,41038128,3059.9,188.18,0.73,0.73117,0.40437,0.14781,0.17783,0.31333,0.71137,2.9163e-4,0,-0.0013276,1.4752,99535
1.4103,154.87,229.3,168.06,25.477,3.9053e-5,9.8216,0.013101,0,-0.4848,3.2656e-5,16131,6.2847,220.04,196.72,2.2685,0.67192,41335217,3059.2,191.22,0.73101,0.73226,0.40409,0.14824,0.17869,0.32312,0.73388,-3.8929e-4,0,-5.0805e-4,1.4759,99509
1.4203,157.15,230.98,168.02,25.803,3.9585e-5,9.8216,0.013164,0,-0.18158,5.6937e-5,16114,6.2822,220.08,196.7,2.2741,0.67688,41632060,3058.4,194.28,0.73203,0.73329,0.4038,0.14867,0.17956,0.32489,0.73857,3.8232e-4,0,-7.0231e-5,1.4762,99482
1.4303,159.44,232.66,167.98,26.131,3.9982e-5,9.8216,0.012907,0,0.12495,1.0941e-5,16097,6.2797,220.14,196.67,2.2831,0.68184,41928663,3057.7,197.35,0.73306,0.73428,0.40352,0.14911,0.18044,0.31865,0.72701,1.0541e-4,0,3.2778e-5,1.4763,99455
1.4403,161.76,234.33,167.93,26.46,4.0243e-5,9.8216,0.012339,0,0.4275,2.4052e-5,16079,6.2772,220.24,196.65,2.2953,0.6868,42225029,3057,200.43,0.7341,0.73521,0.40323,0.14955,0.18132,0.30459,0.69885,6.3567e-5,0,3.7817e-4,1.476,99428
1.4503,164.08,236.01,167.88,26.79,4.037e-5,9.8216,0.011477,0,0.71861,1.0083e-4,16062,6.2747,220.38,196.62,2.3107,0.69176,42521163,3056.2,203.53,0.73514,0.73611,0.40294,0.14999,0.18221,0.28316,0.65357,-4.4299e-4,0,0.0010534,1.4754,99401
1.4603,166.43,237.69,167.82,27.122,4.0366e-5,9.8216,0.010344,0,0.99067,1.3627e-4,16044,6.2722,220.54,196.6,2.329,0.69672,42817067,3055.5,206.64,0.73619,0.73698,0.40265,0.15044,0.18311,0.25496,0.59203,4.4885e-5,0,0.0019736,1.4745,99373
1.4703,168.79,239.36,167.77,27.454,4.0236e-5,9.8216,0.0089705,0,1.2361,2.4245e-4,16027,6.2697,220.73,196.57,2.3499,0.70168,43112741,3054.8,209.78,0.73725,0.73785,0.40236,0.15089,0.18401,0.22083,0.51605,4.8289e-4,0,0.0030293,1.4733,99345
1.4803,171.17,241.04,167.71,27.788,3.9984e-5,9.8216,0.0073939,0,1.448,3.4076e-4,16009,6.2672,220.94,196.54,2.373,0.70664,43408181,3054,212.95,0.73832,0.73872,0.40206,0.15134,0.18491,0.18174,0.42737,3.9147e-4,0,0.0040991,1.4719,99317
1.4903,173.56,242.71,167.65,28.124,3.9616e-5,9.8216,0.005658,0,1.6199,3.8512e-4,15992,6.2647,221.17,196.52,2.398,0.7116,43703381,3053.3,216.15,0.73939,0.73963,0.40176,0.1518,0.18583,0.13882,0.32792,4.3961e-4,0,0.0050598,1.4703,99289
1.5003,175.98,244.39,167.59,28.461,3.9136e-5,9.8216,0.003811,0,1.7467,5.8624e-4,15974,6.2622,221.41,196.49,2.4242,0.71655,43998332,3052.6,219.39,0.74047,0.74058,0.40146,0.15226,0.18675,0.093329,0.2203,-4.2037e-4,0,0.0058016,1.4685,99261
1.5103,178.41,246.06,167.53,28.799,3.8556e-5,9.8216,0.0019054,0,1.8236,0.0011509,15957,6.2597,221.66,196.46,2.4513,0.72151,44293024,3051.8,222.68,0.74156,0.74159,0.40116,0.15272,0.18767,0.046569,0.10822,1.779e-5,0,0.0062378,1.4666,99233
1.5203,180.85,247.74,167.48,29.14,3.7883e-5,9.8216,4.1407e-6,0,-1.7741,0.51747,15939,6.2572,221.92,196.44,2.4784,0.72646,44587442,3051.1,226,0.74266,0.74266,0.40086,0.15319,0.18861,1.01e-4,0.0055941,-9.3927e-4,0,-0.005824,1.4647,99204
1.5303,183.31,249.41,167.42,29.482,3.7135e-5,9.8215,0.0018616,0,-1.8179,0.0011439,15922,6.2547,221.76,196.41,2.4654,0.73142,44881573,3050.4,229.38,0.74376,0.74379,0.40055,0.15366,0.18955,0.045561,0.11832,9.0927e-5,0,-0.0060327,1.4628,99175
1.5403,185.79,251.09,167.37,29.826,3.6334e-5,9.8215,0.003612,0,-1.7343,4.8047e-4,15904,6.2522,221.61,196.39,2.4536,0.73637,45175405,3049.6,232.8,0.74487,0.74497,0.40024,0.15413,0.19049,0.088681,0.22267,3.0171e-4,0,-0.0054171,1.4609,99146
1.5503,188.29,252.76,167.32,30.172,3.5511e-5,9.8215,0.0052036,0,-1.6001,3.5717e-4,15887,6.2497,221.48,196.36,2.4437,0.74132,45468925,3048.9,236.25,0.74599,0.74619,0.39994,0.15461,0.19144,0.12813,0.31809,-1.8188e-4,0,-0.0045502,1.4592,99117
1.5603,190.8,254.44,167.27,30.521,3.4691e-5,9.8215,0.0065898,0,-1.4198,3.2179e-4,15869,6.2472,221.38,196.33,2.4361,0.74627,45762125,3048.2,239.75,0.74711,0.74744,0.39962,0.15509,0.1924,0.1627,0.40002,3.9765e-4,0,-0.0035355,1.4576,99087
1.5703,193.33,256.11,167.22,30.872,3.3906e-5,9.8215,0.0077309,0,-1.1989,1.8819e-4,15852,6.2447,221.3,196.31,2.4311,0.75121,46054996,3047.4,243.27,0.74825,0.7487,0.39931,0.15557,0.19336,0.19132,0.46726,-9.9329e-5,0,-0.0024878,1.4562,99058
1.5803,195.87,257.78,167.16,31.225,3.3181e-5,9.8215,0.0085945,0,-0.94443,1.5298e-4,15835,6.2421,221.25,196.28,2.4292,0.75615,46347535,3046.7,246.82,0.74939,0.74994,0.39899,0.15606,0.19433,0.21311,0.519,9.7487e-5,0,-0.0015238,1.4551,99028
1.5903,198.43,259.45,167.1,31.581,3.254e-5,9.8215,0.0091573,0,-0.66418,5.2847e-5,15817,6.2396,221.24,196.25,2.4304,0.7611,4.664e7,3046,250.38,0.75053,0.75116,0.39868,0.15655,0.1953,0.22741,0.55376,-4.0735e-4,0,-7.4394e-4,1.4543,98998
1.6003,201.01,261.12,167.03,31.939,3.1999e-5,9.8215,0.0094047,0,-0.3668,1.2225e-4,15800,6.2371,221.26,196.23,2.435,0.76604,46931619,3045.2,253.97,0.75169,0.75235,0.39836,0.15704,0.19629,0.23381,0.56965,4.0167e-4,0,-2.24e-4,1.4537,98967
1.6103,203.61,262.8,166.95,32.3,3.1567e-5,9.8215,0.0093326,0,-0.061784,9.6543e-5,15782,6.2346,221.31,196.2,2.443,0.77097,47223168,3044.5,257.57,0.75285,0.7535,0.39804,0.15754,0.19727,0.23216,0.56701,-3.4713e-5,0,-6.2745e-6,1.4535,98937
1.6203,206.22,264.46,166.86,32.663,3.1255e-5,9.8215,0.0089468,0,0.24076,8.8431e-5,15765,6.232,221.4,196.17,2.4542,0.77591,47514393,3043.8,261.18,0.75402,0.75462,0.39771,0.15804,0.19826,0.22262,0.54612,-3.6351e-4,0,9.4071e-5,1.4536,98906
1.6303,208.85,266.13,166.77,33.029,3.1068e-5,9.8215,0.0082639,0,0.53075,3.1677e-5,15747,6.2295,221.52,196.14,2.4686,0.78084,47805296,3043,264.81,0.75519,0.75571,0.39739,0.15854,0.19926,0.20559,0.50713,-7.4649e-5,0,4.5145e-4,1.454,98876
1.6403,211.49,267.8,166.67,33.398,3.1003e-5,9.8215,0.0073104,0,0.79774,6.0315e-5,15730,6.227,221.67,196.12,2.4859,0.78578,48095880,3042.3,268.46,0.75638,0.75678,0.39706,0.15905,0.20027,0.18177,0.45078,3.6931e-5,0,0.0010072,1.4547,98845
1.6503,214.15,269.47,166.57,33.769,3.1052e-5,9.8215,0.0061227,0,1.0322,1.9981e-5,15712,6.2244,221.85,196.09,2.5057,0.79071,48386142,3041.6,272.14,0.75757,0.75785,0.39673,0.15956,0.20128,0.1521,0.37961,4.8737e-4,0,0.0016655,1.4556,98813
1.6603,216.83,271.13,166.46,34.142,3.1203e-5,9.8214,0.0047458,0,1.2251,4.661e-5,15695,6.2219,222.05,196.06,2.5276,0.79564,48676078,3040.8,275.85,0.75876,0.75894,0.3964,0.16007,0.20229,0.11777,0.29567,-1.667e-4,0,0.002317,1.4568,98782
1.6703,219.52,272.8,166.35,34.518,3.1436e-5,9.8214,0.0032322,0,1.3689,1.2646e-4,15677,6.2194,222.26,196.04,2.5511,0.80056,48965681,3040.1,279.6,0.75997,0.76005,0.39607,0.16058,0.20332,0.080102,0.20136,-2.002e-4,0,0.0028577,1.4582,98750
1.6803,222.23,274.46,166.24,34.895,3.1731e-5,9.8214,0.0016398,0,1.4576,2.3901e-4,15660,6.2168,222.48,196.01,2.5754,0.80549,49254940,3039.4,283.39,0.76118,0.7612,0.39573,0.1611,0.20435,0.040581,0.10132,3.419e-4,0,0.0032009,1.4597,98719
1.6903,224.96,276.13,166.14,35.275,3.2067e-5,9.8214,3.0185e-5,0,1.4872,0.0094581,15642,6.2143,222.71,195.98,2.6001,0.81041,49543843,3038.6,287.22,0.7624,0.7624,0.3954,0.16162,0.20538,7.4593e-4,-0.0010911,4.2493e-4,0,0.0032918,1.4612,98687
1.7003,227.7,277.79,166.03,35.657,3.2421e-5,9.8214,0.0015337,0,-1.4559,8.5928e-5,15625,6.2117,222.59,195.95,2.5915,0.81533,49832378,3037.9,291.1,0.76363,0.76365,0.39506,0.16215,0.20642,0.038012,0.10188,-4.4052e-4,0,-0.0031172,1.4628,98654
1.7103,230.46,279.45,165.93,36.04,3.2766e-5,9.8214,0.0029904,0,-1.3655,1.0219e-4,15607,6.2092,222.49,195.93,2.5836,0.82025,50120531,3037.2,295.02,0.76486,0.76493,0.39472,0.16268,0.20747,0.074326,0.19428,3.7357e-4,0,-0.0027095,1.4643,98622
1.7203,233.24,281.11,165.83,36.426,3.3078e-5,9.8214,0.0042832,0,-1.2202,1.278e-4,15590,6.2066,222.39,195.9,2.5774,0.82517,50408292,3036.4,298.98,0.7661,0.76624,0.39438,0.16321,0.20852,0.10674,0.27686,-2.3829e-4,0,-0.0021377,1.4656,98590
1.7303,236.03,282.76,165.73,36.812,3.3334e-5,9.8214,0.0053627,0,-1.0259,2.3483e-4,15572,6.2041,222.33,195.87,2.5736,0.83008,50695652,3035.7,302.97,0.76735,0.76757,0.39403,0.16374,0.20957,0.13395,0.34669,3.915e-4,0,-0.0014935,1.4668,98557
1.7403,238.84,284.42,165.63,37.201,3.3502e-5,9.8214,0.0061879,0,-0.79068,1.5405e-4,15555,6.2015,222.29,195.84,2.5726,0.83499,50982605,3035,306.99,0.7686,0.7689,0.39369,0.16428,0.21064,0.15487,0.39969,-3.9453e-4,0,-8.768e-4,1.4677,98524
1.7503,241.66,286.07,165.53,37.59,3.3551e-5,9.8214,0.0067288,0,-0.52446,3.3726e-4,15538,6.199,222.28,195.82,2.5745,0.83989,51269149,3034.2,311.04,0.76986,0.77021,0.39334,0.16482,0.2117,0.16868,0.4346,2.6719e-6,0,-3.813e-4,1.4684,98491
1.7603,244.51,287.73,165.42,37.982,3.3446e-5,9.8214,0.0069669,0,-0.23839,2.5939e-4,15520,6.1964,222.31,195.79,2.5797,0.8448,51555284,3033.5,315.1,0.77113,0.77151,0.39299,0.16536,0.21278,0.17486,0.45109,2.3509e-4,0,-7.7875e-5,1.4688,98457
1.7703,247.37,289.38,165.31,38.374,3.3156e-5,9.8214,0.0068966,0,0.055521,3.3717e-4,15503,6.1938,222.37,195.76,2.5881,0.8497,51841011,3032.8,319.18,0.77241,0.77278,0.39264,0.16591,0.21386,0.17322,0.44847,-1.9583e-4,0,4.1757e-6,1.4689,98424
1.7803,250.24,291.03,165.19,38.768,3.2651e-5,9.8213,0.0065253,0,0.34462,4.9123e-4,15485,6.1913,222.46,195.73,2.5997,0.8546,52126332,3032,323.28,0.77369,0.77402,0.39228,0.16646,0.21494,0.16396,0.42634,-1.0749e-4,0,1.5905e-4,1.4687,98390
1.7903,253.13,292.68,165.07,39.163,3.1906e-5,9.8213,0.0058735,0,0.61599,5.1033e-4,15468,6.1887,222.58,195.7,2.6143,0.85949,52411250,3031.3,327.4,0.77498,0.77525,0.39193,0.16701,0.21603,0.14758,0.38511,-4.8403e-4,0,5.0242e-4,1.4682,98356
1.8003,256.04,294.33,164.94,39.559,3.0899e-5,9.8213,0.0049744,0,0.85711,8.2284e-4,15450,6.1861,222.73,195.68,2.6315,0.86438,52695763,3030.6,331.54,0.77627,0.77647,0.39157,0.16757,0.21713,0.12494,0.32831,-4.6871e-4,0,9.6181e-4,1.4674,98322
1.8103,258.96,295.98,164.81,39.957,2.9608e-5,9.8213,0.0038725,0,1.0569,0.0010721,15433,6.1836,222.9,195.65,2.6509,0.86927,5.298e7,3029.8,335.72,0.77758,0.77769,0.39121,0.16813,0.21823,0.097206,0.25613,2.844e-4,0,0.0014463,1.4664,98288
1.8203,261.91,297.62,164.68,40.356,2.8018e-5,9.8213,0.0026218,0,1.2058,0.0012763,15415,6.181,223.09,195.62,2.6719,0.87416,53263561,3029.1,339.93,0.77888,0.77894,0.39085,0.16869,0.21934,0.065757,0.17355,-6.5426e-5,0,0.0018614,1.4653,98253
1.8303,264.86,299.27,164.56,40.758,2.6136e-5,9.8213,0.0012838,0,1.2958,0.0024351,15398,6.1784,223.29,195.59,2.6939,0.87904,53546830,3028.4,344.18,0.7802,0.78021,0.39049,0.16926,0.22045,0.032169,0.08433,-2.6043e-4,0,0.0021262,1.4639,98219
1.8403,267.84,300.91,164.43,41.16,2.399e-5,9.8213,7.5607e-5,0,-1.3222,0.041514,15380,6.1758,223.47,195.56,2.7146,0.88392,5.383e7,3027.6,348.47,0.78152,0.78152,0.39013,0.16983,0.22157,0.0018932,0.0069965,-1.652e-4,0,-0.0021893,1.4626,98184
1.8503,270.83,302.56,164.31,41.565,2.162e-5,9.8213,0.0013893,0,-1.2855,0.0021572,15363,6.1732,223.38,195.54,2.7085,0.8888,54112055,3026.9,352.8,0.78285,0.78287,0.38976,0.1704,0.2227,0.034883,0.096087,3.0669e-4,0,-0.0020471,1.4612,98149
1.8603,273.83,304.2,164.19,41.972,1.9074e-5,9.8213,0.0025927,0,-1.1858,0.0010709,15345,6.1707,223.3,195.51,2.7036,0.89367,54393988,3026.2,357.18,0.78419,0.78424,0.38939,0.17097,0.22383,0.065267,0.17789,-4.4975e-4,0,-0.0017229,1.4599,98113
1.8703,276.86,305.84,164.08,42.381,1.6402e-5,9.8213,0.0036271,0,-1.0296,8.3648e-4,15328,6.1681,223.24,195.48,2.7005,0.89854,54675455,3025.4,361.6,0.78553,0.78564,0.38902,0.17155,0.22496,0.09152,0.24825,2.7127e-4,0,-0.0012849,1.4587,98078
1.8803,279.9,307.49,163.97,42.792,1.366e-5,9.8213,0.0044428,0,-0.82493,6.6301e-4,15310,6.1655,223.2,195.45,2.6998,0.90341,54956457,3024.7,365.83,0.78644,0.78659,0.38821,0.17213,0.2261,0.11233,0.3038,-4.0689e-4,0,-8.1609e-4,1.4577,98042
1.8903,282.95,309.13,163.86,43.205,1.0917e-5,9.8212,0.0050017,0,-0.58289,7.606e-4,15293,6.1629,223.2,195.42,2.7019,0.90827,55237015,3024,370.01,0.78716,0.78736,0.3872,0.17271,0.22725,0.12668,0.34239,9.8221e-5,0,-4.0312e-4,1.457,98006
1.9003,286.02,310.76,163.75,43.621,8.2478e-6,9.8212,0.0052796,0,-0.31639,8.8298e-4,15275,6.1603,223.22,195.39,2.7069,0.91313,55517129,3023.2,374.2,0.78789,0.78811,0.38619,0.1733,0.2284,0.1339,0.3628,-1.7533e-4,0,-1.1752e-4,1.4565,97970
1.9103,289.11,312.4,163.62,44.039,5.7451e-6,9.8212,0.0052667,0,-0.039122,8.5239e-4,15258,6.1577,223.27,195.36,2.715,0.91799,55796800,3022.5,378.4,0.78863,0.78885,0.38519,0.17389,0.22955,0.1337,0.36251,-4.9507e-4,0,-1.778e-6,1.4563,97934
1.9203,292.21,314.04,163.49,44.46,3.5019e-6,9.8212,0.0049686,0,0.23398,0.0011082,15241,6.1551,223.36,195.33,2.7261,0.92285,56076029,3021.8,382.62,0.78938,0.78958,0.38418,0.17448,0.23071,0.12621,0.34363,-4.1801e-4,0,6.2933e-5,1.4565,97898
1.9303,295.33,315.67,163.35,44.883,1.605e-6,9.8212,0.0044063,0,0.48794,0.0011357,15223,6.1525,223.47,195.31,2.74,0.9277,56354818,3021,386.86,0.79014,0.79029,0.38318,0.17508,0.23188,0.11195,0.30674,-2.1184e-4,0,2.7086e-4,1.4568,97861
1.9403,298.47,317.31,163.2,45.308,1.2873e-7,9.8212,0.0036152,0,0.70864,0.0016521,15206,6.1499,223.61,195.28,2.7563,0.93254,56633165,3020.3,391.12,0.79091,0.79101,0.38218,0.17568,0.23305,0.091844,0.2521,3.2144e-4,0,5.6542e-4,1.4575,97824
1.9503,301.62,318.94,163.05,45.735,-8.6451e-7,9.8212,0.002644,0,0.88316,0.002163,15188,6.1473,223.77,195.25,2.7745,0.93739,56911067,3019.6,395.41,0.79168,0.79174,0.38117,0.17628,0.23423,0.067148,0.18555,-9.5094e-5,0,8.6922e-4,1.4583,97787
1.9603,304.79,320.57,162.9,46.165,-1.3279e-6,9.8212,0.0015513,0,1.0015,0.0037338,15171,6.1447,223.94,195.22,2.7941,0.94223,57188516,3018.8,399.73,0.79247,0.79249,0.38017,0.17689,0.23541,0.039379,0.10875,2.64e-4,0,0.0011065,1.4593,97750
1.9703,307.98,322.2,162.75,46.597,-1.2402e-6,9.8212,4.0303e-4,0,1.0568,0.013554,15153,6.1421,224.12,195.19,2.8143,0.94707,57465505,3018.1,404.09,0.79326,0.79326,0.37917,0.17749,0.2366,0.010225,0.027102,-1.9304e-4,0,0.0012196,1.4604,97713
1.9803,311.18,323.83,162.6,47.03,-6.1568e-7,9.8212,7.3178e-4,0,-1.0457,0.007323,15136,6.1394,224.14,195.16,2.8188,0.9519,57742023,3017.4,408.48,0.79407,0.79407,0.37817,0.1781,0.23779,0.018594,0.053218,-4.5553e-4,0,-0.001182,1.4615,97675
1.9903,314.39,325.45,162.46,47.466,4.9478e-7,9.8211,0.0017851,0,-0.96969,0.0028258,15118,6.1368,224.08,195.13,2.8157,0.95673,58018060,3016.6,412.91,0.79488,0.79491,0.37717,0.17872,0.23899,0.045469,0.12951,-4.695e-4,0,-0.0010062,1.4625,97638
2.0003,317.63,327.08,162.32,47.903,2.0084e-6,9.8211,0.0026943,0,-0.83373,0.0017921,15101,6.1342,224.03,195.1,2.8142,0.96156,58293606,3015.9,417.37,0.7957,0.79576,0.37617,0.17934,0.2402,0.068786,0.19474,3.6469e-4,0,-7.3646e-4,1.4635,97600
2.0103,320.88,328.7,162.18,48.342,3.8239e-6,9.8211,0.0034064,0,-0.64672,0.0013442,15083,6.1316,224.01,195.07,2.8148,0.96638,58568655,3015.2,421.86,0.79653,0.79662,0.37517,0.17996,0.24141,0.087141,0.24598,-4.6326e-4,0,-4.3876e-4,1.4643,97562
2.0203,324.14,330.32,162.04,48.782,5.8242e-6,9.8211,0.0038809,0,-0.421,0.0014525,15066,6.129,224.01,195.04,2.8179,0.9712,58843203,3014.4,426.37,0.79737,0.79749,0.37417,0.18058,0.24262,0.099449,0.2805,-3.4982e-4,0,-1.8411e-4,1.4648,97523
2.0303,327.42,331.94,161.89,49.224,7.8695e-6,9.8211,0.004093,0,-0.17126,0.001442,15048,6.1263,224.04,195.01,2.8237,0.97601,59117246,3013.7,430.91,0.79822,0.79835,0.37318,0.1812,0.24384,0.10503,0.29696,-1.8968e-4,0,-3.0168e-5,1.4651,97485
2.0403,330.72,333.55,161.74,49.667,9.7998e-6,9.8211,0.0040344,0,0.08685,0.0014906,15031,6.1237,224.1,194.98,2.8324,0.98083,59390786,3013,435.46,0.79907,0.79921,0.37218,0.18183,0.24506,0.10362,0.29384,-2.885e-4,0,7.6831e-6,1.4652,97446
2.0503,334.03,335.17,161.58,50.112,1.1447e-5,9.8211,0.0037142,0,0.33602,0.0014958,15013,6.1211,224.19,194.95,2.8438,0.98563,59663823,3012.2,440.02,0.79994,0.80005,0.37118,0.18246,0.24629,0.095461,0.27146,2.0871e-4,0,1.139e-4,1.465,97407
2.0603,337.36,336.79,161.42,50.558,1.2673e-5,9.8211,0.0031588,0,0.56022,0.0016562,14996,6.1184,224.3,194.92,2.8577,0.99044,59936356,3011.5,444.61,0.80081,0.80089,0.37019,0.1831,0.24753,0.081214,0.23169,4.0885e-4,0,3.1356e-4,1.4645,97368
2.0702,340.71,338.4,161.25,51.005,1.3376e-5,9.8211,0.0024099,0,0.74421,0.0020304,14979,6.1158,224.44,194.89,2.8736,0.99524,60208382,3010.8,449.23,0.8017,0.80174,0.3692,0.18374,0.24876,0.061962,0.1775,-4.333e-4,0,5.4806e-4,1.4638,97329
2.0802,344.07,340.01,161.07,51.455,1.349e-5,9.8211,0.0015218,0,0.87604,0.0031663,14961,6.1131,224.58,194.86,2.891,1,6.048e7,3010,454.15,0.80308,0.8031,0.3682,0.18489,0.24999,0.039123,0.11264,3.2083e-4,0,7.5221e-4,1.463,97290
2.0902,347.45,341.62,160.77,51.906,1.3001e-5,9.821,5.5833e-4,0,0.94616,0.0084248,14944,6.1105,224.74,194.83,2.9092,1.0048,60750726,3009.3,460.94,0.80769,0.80769,0.36721,0.19168,0.2488,0.014351,0.041151,5.4507e-5,0,8.6917e-4,1.462,97250
2.1002,350.85,343.23,160.47,52.358,1.1921e-5,9.821,4.115e-4,0,-0.95014,0.011029,14926,6.1078,224.81,194.8,2.9188,1.0096,61020780,3008.6,467.81,0.81231,0.81231,0.36622,0.19847,0.24762,0.010586,0.03166,4.1701e-4,0,-8.6829e-4,1.461,97210
2.1102,354.26,344.83,160.16,52.813,1.0309e-5,9.821,0.0013187,0,-0.88843,0.0034118,14909,6.1052,224.76,194.77,2.9173,1.0144,6.129e7,3007.8,474.74,0.81693,0.81695,0.36523,0.20524,0.24646,0.034003,0.0998,2.9016e-4,0,-7.521e-4,1.46,97170
2.1202,357.68,346.43,159.86,53.269,8.2514e-6,9.821,0.0020996,0,-0.76592,0.0017911,14891,6.1025,224.73,194.74,2.9171,1.0191,61558486,3007.1,481.74,0.82156,0.8216,0.36425,0.21201,0.24531,0.054256,0.159,-2.6506e-4,0,-5.5381e-4,1.4592,97130
