Time (s),Altitude (m),Total velocity (m/s),Total acceleration (m/s),Position East of launch (m),Position North of launch (m),Gravitational acceleration (m/s),Angle of attack (rad),Roll rate (rpm),Pitch rate (rpm),Yaw rate (rpm),Mass (g),Longitudinal moment of inertia (kgm),CP location (cm),CG location (cm),Stability margin calibers (?),Mach number (?),Reynolds number (?),Thrust (N),Drag force (N),Drag coefficient (?),Axial drag coefficient (?),Friction drag coefficient (?),Pressure drag coefficient (?),Base drag coefficient (?),Normal force coefficient (?),Pitch moment coefficient (?),Yaw moment coefficient (?),Roll damping coefficient (?),Pitch damping coefficient (?),Vertical orientation (zenith) (rad),Air pressure (Pa)
0,0,0,35.761,0,0,9.8257,1.3963,0,0,0,18553,6.611,NaN,199.83,NaN,0.023503,1465635,843,0.0031601,0.80982,0.0097128,0.57034,0.11941,0.12007,NaN,NaN,NaN,NaN,NaN,1.3963,101325
2e-3,7.0436e-5,0.071522,115.28,1.242e-5,0,9.8257,1.3875,0,0,0,18553,6.611,NaN,199.83,NaN,0.02354,1467967,2318.2,0.0036518,0.80965,0.011188,0.57017,0.11941,0.12007,NaN,NaN,NaN,NaN,NaN,1.3963,101325
4e-3,4.3838e-4,0.3021,126.65,7.7297e-5,0,9.8257,1.3593,0,0,0,18551,6.6107,NaN,199.83,NaN,0.023673,1476252,2529,0.0055587,0.80904,0.01684,0.56955,0.11941,0.12007,NaN,NaN,NaN,NaN,NaN,1.3963,101325
6e-3,0.0012829,0.55543,126.67,2.262e-4,0,9.8257,1.3288,0,0,0,18549,6.6104,NaN,199.82,NaN,0.02384,1486686,2529,0.0082673,0.80828,0.024695,0.56879,0.11941,0.12007,NaN,NaN,NaN,NaN,NaN,1.3963,101325
8e-3,0.0026264,0.8088,126.69,4.631e-4,0,9.8257,1.2987,0,0,0,18546,6.6101,NaN,199.82,NaN,0.024029,1498487,2529,0.011678,0.80742,0.034335,0.56793,0.11941,0.12008,NaN,NaN,NaN,NaN,NaN,1.3963,101325
0.01,0.0044689,1.0622,126.71,7.8799e-4,0,9.8257,1.2691,0,0,0,18543,6.6097,NaN,199.82,NaN,0.02424,1511625,2529,0.015843,0.80648,0.045775,0.56699,0.11941,0.12008,NaN,NaN,NaN,NaN,NaN,1.3963,101325
0.012,0.0068107,1.3157,126.73,0.0012009,0,9.8257,1.2401,0,0,0,18540,6.6093,NaN,199.81,NaN,0.024472,1526064,2529,0.020808,0.80545,0.058989,0.56596,0.11942,0.12008,NaN,NaN,NaN,NaN,NaN,1.3963,101325
0.014,0.0096517,1.5692,126.75,0.0017019,0,9.8257,1.2116,0,0,0,18537,6.6089,NaN,199.81,NaN,0.024723,1541770,2529,0.026611,0.80435,0.073912,0.56486,0.11942,0.12008,NaN,NaN,NaN,NaN,NaN,1.3963,101325
0.016,0.012992,1.8227,126.77,0.0022908,0,9.8257,1.1837,0,0,0,18534,6.6086,NaN,199.81,NaN,0.024995,1558705,2529,0.033285,0.80318,0.090449,0.56368,0.11942,0.12008,NaN,NaN,NaN,NaN,NaN,1.3963,101325
0.018,0.016832,2.0763,126.79,0.0029679,0,9.8257,1.1564,0,0,0,18531,6.6082,NaN,199.8,NaN,0.025286,1576829,2529,0.040853,0.80195,0.10848,0.56245,0.11942,0.12008,NaN,NaN,NaN,NaN,NaN,1.3963,101325
0.02,0.021171,2.3299,126.81,0.003733,0,9.8257,1.1298,0,0,0,18529,6.6078,NaN,199.8,NaN,0.025595,1596104,2529,0.049338,0.80066,0.12786,0.56115,0.11942,0.12009,NaN,NaN,NaN,NaN,NaN,1.3963,101325
0.022,0.02601,2.5836,126.83,0.0045862,0,9.8257,1.1038,0,0,0,18526,6.6075,NaN,199.8,NaN,0.025922,1616487,2529,0.058753,0.79931,0.14845,0.5598,0.11942,0.12009,NaN,NaN,NaN,NaN,NaN,1.3963,101325
0.024,0.031348,2.8373,126.85,0.0055275,0,9.8257,1.0784,0,0,0,18523,6.6071,NaN,199.79,NaN,0.026266,1637940,2529,0.069109,0.79792,0.17007,0.55841,0.11942,0.12009,NaN,NaN,NaN,NaN,NaN,1.3963,101325
0.026,0.037186,3.091,126.87,0.006557,0,9.8257,1.0537,0,0,0,18520,6.6067,NaN,199.79,NaN,0.026626,1660420,2529,0.080413,0.79648,0.19257,0.55697,0.11942,0.12009,NaN,NaN,NaN,NaN,NaN,1.3963,101325
0.028,0.043524,3.3448,126.9,0.0076745,0,9.8257,1.0297,0,0,0,18517,6.6064,NaN,199.79,NaN,0.027002,1683888,2529,0.092667,0.79501,0.21577,0.55549,0.11942,0.12009,NaN,NaN,NaN,NaN,NaN,1.3963,101324
0.03,0.050362,3.5986,126.92,0.0088802,0,9.8257,1.0064,0,0,0,18514,6.606,NaN,199.78,NaN,0.027394,1708303,2529,0.10587,0.79351,0.23952,0.55399,0.11942,0.1201,NaN,NaN,NaN,NaN,NaN,1.3963,101324
0.032,0.0577,3.8525,126.94,0.010174,0,9.8257,0.98373,0,0,0,18511,6.6056,NaN,199.78,NaN,0.0278,1733625,2529,0.12002,0.79198,0.26366,0.55246,0.11943,0.1201,NaN,NaN,NaN,NaN,NaN,1.3963,101324
0.034,0.065538,4.1064,126.96,0.011556,0,9.8257,0.96172,0,0,0,18508,6.6053,NaN,199.78,NaN,0.02822,1759817,2529,0.13511,0.79043,0.28804,0.5509,0.11943,0.1201,NaN,NaN,NaN,NaN,NaN,1.3963,101324
0.036,0.073876,4.3603,126.98,0.013026,0,9.8257,0.94036,0,0,0,18506,6.6049,NaN,199.78,NaN,0.028653,1786840,2529,0.15114,0.78886,0.31253,0.54932,0.11943,0.12011,NaN,NaN,NaN,NaN,NaN,1.3963,101324
0.038,0.082715,4.6143,127,0.014585,0,9.8257,0.91965,0,0,0,18503,6.6045,NaN,199.77,NaN,0.0291,1814658,2529,0.16809,0.78728,0.33701,0.54773,0.11943,0.12011,NaN,NaN,NaN,NaN,NaN,1.3963,101324
0.04,0.092053,4.8683,127.02,0.016231,0,9.8257,0.89957,0,0,0,18500,6.6042,NaN,199.77,NaN,0.029558,1843235,2529,0.18595,0.78568,0.36135,0.54613,0.11943,0.12011,NaN,NaN,NaN,NaN,NaN,1.3963,101324
0.042,0.10189,5.1224,127.04,0.017966,0,9.8257,0.8801,0,0,0,18497,6.6038,NaN,199.77,NaN,0.030028,1872538,2529,0.20472,0.78408,0.38546,0.54452,0.11943,0.12012,NaN,NaN,NaN,NaN,NaN,1.3963,101324
0.044,0.11223,5.3765,127.06,0.019789,0,9.8257,0.86124,0,0,0,18494,6.6034,NaN,199.76,NaN,0.030509,1902533,2529,0.22437,0.78247,0.40925,0.54291,0.11944,0.12012,NaN,NaN,NaN,NaN,NaN,1.3963,101324
0.046,0.12307,5.6307,127.08,0.021701,0,9.8257,0.84297,0,0,0,18491,6.6031,NaN,199.76,NaN,0.031,1933188,2529,0.2449,0.78086,0.43264,0.54129,0.11944,0.12012,NaN,NaN,NaN,NaN,NaN,1.3963,101324
0.048,0.13441,5.8849,127.1,0.0237,0,9.8257,0.82527,0,0,0,18488,6.6027,NaN,199.76,NaN,0.031502,1964474,2529,0.26629,0.77925,0.45556,0.53968,0.11944,0.12013,NaN,NaN,NaN,NaN,NaN,1.3963,101323
0.05,0.14625,6.1391,127.12,0.025788,0,9.8257,0.80812,0,0,0,18486,6.6023,NaN,199.75,NaN,0.032014,1996360,2529,0.28852,0.77764,0.47795,0.53806,0.11944,0.12013,NaN,NaN,NaN,NaN,NaN,1.3963,101323
0.052,0.1586,6.3934,127.14,0.027965,0,9.8257,0.79152,0,0,0,18483,6.602,NaN,199.75,NaN,0.032534,2028820,2529,0.31158,0.77604,0.49977,0.53645,0.11944,0.12014,NaN,NaN,NaN,NaN,NaN,1.3963,101323
0.054,0.17144,6.6477,127.16,0.030229,0,9.8257,0.77545,0,0,0,18480,6.6016,NaN,199.75,NaN,0.033063,2061826,2529,0.33546,0.77444,0.52098,0.53485,0.11945,0.12014,NaN,NaN,NaN,NaN,NaN,1.3963,101323
0.056,0.18478,6.902,127.18,0.032582,0,9.8257,0.75988,0,0,0,18477,6.6012,NaN,199.74,NaN,0.033601,2095353,2529,0.36014,0.77285,0.54155,0.53326,0.11945,0.12015,NaN,NaN,NaN,NaN,NaN,1.3963,101323
0.058,0.19863,7.1564,127.2,0.035023,0,9.8257,0.7448,0,0,0,18474,6.6009,NaN,199.74,NaN,0.034147,2129377,2529,0.3856,0.77127,0.56145,0.53167,0.11945,0.12015,NaN,NaN,NaN,NaN,NaN,1.3963,101323
0.06,0.21297,7.4108,127.22,0.037553,0,9.8257,0.7302,0,0,0,18471,6.6005,NaN,199.74,NaN,0.0347,2163875,2529,0.41183,0.76971,0.58068,0.5301,0.11945,0.12016,NaN,NaN,NaN,NaN,NaN,1.3963,101323
0.062,0.22782,7.6653,127.24,0.040171,0,9.8257,0.71606,0,0,0,18468,6.6001,NaN,199.73,NaN,0.03526,2198826,2529,0.43881,0.76815,0.59921,0.52853,0.11946,0.12016,NaN,NaN,NaN,NaN,NaN,1.3963,101322
0.064,0.24317,7.9198,127.26,0.042877,0,9.8257,0.70236,0,0,0,18466,6.5998,NaN,199.73,NaN,0.035828,2234207,2529,0.46653,0.76661,0.61704,0.52698,0.11946,0.12017,NaN,NaN,NaN,NaN,NaN,1.3963,101322
0.066,0.25902,8.1743,127.28,0.045672,0,9.8257,0.68909,0,0,0,18463,6.5994,NaN,199.73,NaN,0.036402,2.27e6,2529,0.49497,0.76508,0.63417,0.52544,0.11946,0.12017,NaN,NaN,NaN,NaN,NaN,1.3963,101322
0.068,0.27537,8.4289,127.3,0.048555,0,9.8257,0.67623,0,0,0,18460,6.599,NaN,199.72,NaN,0.036982,2306186,2529,0.52412,0.76356,0.65061,0.52392,0.11946,0.12018,NaN,NaN,NaN,NaN,NaN,1.3963,101322
0.07,0.29222,8.6836,127.31,0.051527,0,9.8257,0.66377,0,0,0,18457,6.5986,NaN,199.72,NaN,0.037569,2342747,2529,0.55396,0.76206,0.66636,0.52241,0.11947,0.12018,NaN,NaN,NaN,NaN,NaN,1.3963,101322
0.072,0.30958,8.9382,127.33,0.054587,0,9.8257,0.65169,0,0,0,18454,6.5983,NaN,199.72,NaN,0.038161,2379666,2529,0.58449,0.76058,0.68143,0.52092,0.11947,0.12019,NaN,NaN,NaN,NaN,NaN,1.3963,101321
0.074,0.32743,9.1929,127.35,0.057735,0,9.8257,0.63998,0,0,0,18451,6.5979,NaN,199.71,NaN,0.038758,2416928,2529,0.61568,0.75911,0.69584,0.51944,0.11947,0.1202,NaN,NaN,NaN,NaN,NaN,1.3963,101321
0.076,0.34579,9.4477,127.37,0.060972,0,9.8257,0.62862,0,0,0,18448,6.5975,NaN,199.71,NaN,0.039361,2454516,2529,0.64752,0.75766,0.70958,0.51798,0.11948,0.1202,NaN,NaN,NaN,NaN,NaN,1.3963,101321
0.078,0.36465,9.7024,127.39,0.064297,0,9.8257,0.61761,0,0,0,18446,6.5972,NaN,199.71,NaN,0.039969,2492416,2529,0.68,0.75622,0.72269,0.51653,0.11948,0.12021,NaN,NaN,NaN,NaN,NaN,1.3963,101321
0.08,0.38401,9.9573,127.41,0.067711,0,9.8257,0.60693,0,0,0,18443,6.5968,NaN,199.7,NaN,0.040582,2530616,2529,0.71312,0.7548,0.73517,0.51511,0.11948,0.12021,NaN,NaN,NaN,NaN,NaN,1.3963,101320
0.082,0.40387,10.212,127.43,0.071213,0,9.8257,0.59656,0,0,0,18440,6.5964,NaN,199.7,NaN,0.041199,2569101,2529,0.74685,0.7534,0.74705,0.51369,0.11948,0.12022,NaN,NaN,NaN,NaN,NaN,1.3963,101320
0.084,0.42424,10.467,127.45,0.074804,0,9.8257,0.5865,0,0,0,18437,6.5961,NaN,199.7,NaN,0.04182,2607860,2529,0.78118,0.75201,0.75834,0.5123,0.11949,0.12023,NaN,NaN,NaN,NaN,NaN,1.3963,101320
0.086,0.4451,10.722,127.47,0.078484,0,9.8257,0.57674,0,0,0,18434,6.5957,NaN,199.69,NaN,0.042446,2646881,2529,0.81611,0.75065,0.76905,0.51092,0.11949,0.12023,NaN,NaN,NaN,NaN,NaN,1.3963,101320
0.088,0.46647,10.977,127.49,0.082252,0,9.8257,0.56725,0,0,0,18431,6.5953,NaN,199.69,NaN,0.043076,2686153,2529,0.85162,0.74929,0.77922,0.50956,0.11949,0.12024,NaN,NaN,NaN,NaN,NaN,1.3963,101320
0.09,0.48834,11.232,127.51,0.086108,0,9.8257,0.55804,0,0,0,18428,6.595,NaN,199.69,NaN,0.04371,2725665,2529,0.8877,0.74796,0.78886,0.50821,0.1195,0.12025,NaN,NaN,NaN,NaN,NaN,1.3963,101319
0.092,0.51072,11.487,127.53,0.090053,0,9.8257,0.5491,0,0,0,18426,6.5946,188.28,199.68,-1.1092,0.044347,2765408,2529,0.92434,0.74664,0.79798,0.50689,0.1195,0.12026,17.865,-40.628,1.1059e-4,0,0,1.3963,101319
0.095,0.54522,11.87,127.55,0.09614,0,9.8257,0.53625,0,-0.020804,9.6454e-8,18422,6.5941,188.62,199.68,-1.0759,0.045313,2825593,2529,0.98031,0.7447,0.81062,0.50492,0.11951,0.12027,17.451,-38.12,-7.3466e-5,0,-2.0497e-4,1.3963,101319
0.0995,0.59909,12.444,127.59,0.10565,0,9.8257,0.51797,0,-0.051184,1.7839e-7,18417,6.5934,189.12,199.67,-1.0266,0.046774,2916712,2529,1.0665,0.74184,0.82766,0.50204,0.11952,0.12028,16.871,-34.599,3.0644e-4,0,-0.0011644,1.3963,101318
0.10625,0.68467,13.305,127.64,0.12078,0,9.8257,0.49262,0,-0.09478,2.9809e-7,18409,6.5924,189.86,199.67,-0.95404,0.048994,3055107,2529,1.2007,0.73773,0.84928,0.49789,0.11953,0.12031,16.085,-29.811,-7.6849e-5,0,-0.0036393,1.3963,101317
0.11625,0.82197,14.582,127.72,0.14509,0,9.8257,0.45904,0,-0.15463,-2.9215e-7,18397,6.5909,190.91,199.65,-0.85012,0.052335,3263428,2529,1.4097,0.73196,0.87386,0.49206,0.11955,0.12036,15.082,-23.658,-2.9421e-4,0,-0.0084887,1.3965,101315
0.12625,0.97185,15.86,127.81,0.17165,0,9.8257,0.42953,0,-0.20822,-3.7514e-7,18382,6.589,191.92,199.64,-0.7506,0.05573,3475068,2529,1.6301,0.72657,0.89118,0.48659,0.11957,0.1204,14.238,-18.442,-1.1591e-6,0,-0.013574,1.3967,101314
0.13625,1.1343,17.139,127.91,0.20045,0,9.8257,0.40342,0,-0.25488,0,18368,6.5872,192.88,199.62,-0.65591,0.059169,3689481,2529,1.8614,0.72153,0.90277,0.48147,0.1196,0.12046,13.524,-13.992,-3.8021e-4,0,-0.018045,1.3969,101312
0.14625,1.3094,18.419,128,0.23149,0,9.8257,0.38019,0,-0.29395,-3.779e-7,18354,6.5853,193.78,199.6,-0.56602,0.062646,3906228,2529,2.103,0.7168,0.90987,0.47666,0.11962,0.12051,12.915,-10.174,3.5037e-4,0,-0.02141,1.3972,101310
0.15625,1.497,19.7,128.09,0.26474,0,9.8257,0.35941,0,-0.32472,-3.9928e-7,18339,6.5835,194.64,199.59,-0.48078,0.066155,4124958,2529,2.3544,0.71236,0.91347,0.47213,0.11965,0.12057,12.393,-6.8746,-3.5337e-4,0,-0.02343,1.3975,101307
0.16625,1.6973,20.982,128.19,0.3002,0,9.8257,0.3407,0,-0.34699,1.1423e-6,18325,6.5816,195.46,199.57,-0.39999,0.069692,4345394,2529,2.6153,0.70818,0.91435,0.46786,0.11968,0.12063,11.765,-4.6815,-3.9698e-4,0,-0.024108,1.3979,101305
0.17625,1.9103,22.265,128.28,0.33785,0,9.8257,0.32381,0,-0.3653,2.3096e-6,18311,6.5798,196.23,199.55,-0.32349,0.073253,4567334,2529,2.8854,0.70425,0.9131,0.46383,0.11972,0.1207,11.014,-3.5387,4.555e-4,0,-0.024184,1.3982,101303
0.18625,2.1358,23.548,128.37,0.37769,0,9.8257,0.30848,0,-0.3803,6.8971e-7,18296,6.5779,196.96,199.54,-0.25104,0.076835,4790593,2529,3.1644,0.70053,0.91023,0.46001,0.11975,0.12077,10.347,-2.574,1.5904e-4,0,-0.023823,1.3986,101300
0.19625,2.3741,24.833,128.46,0.41969,0,9.8257,0.29452,0,-0.39194,-2.027e-7,18282,6.5761,197.65,199.52,-0.1824,0.080436,5015015,2529,3.4521,0.69702,0.90609,0.45639,0.11979,0.12084,9.7507,-1.7556,-1.7555e-4,0,-0.02309,1.399,101297
0.20625,2.625,26.118,128.55,0.46386,0,9.8257,0.28176,0,-0.4002,4.7589e-7,18268,6.5742,198.3,199.51,-0.11731,0.084054,5240467,2529,3.7453,0.6937,0.90027,0.45295,0.11982,0.12092,9.215,-1.0591,4.9909e-5,0,-0.022045,1.3994,101294
0.21625,2.8885,27.404,128.65,0.51017,0,9.8257,0.27004,0,-0.40503,3.5555e-7,18254,6.5723,198.92,199.49,-0.055531,0.087687,5466842,2529,4.043,0.69054,0.89298,0.44968,0.11986,0.121,8.7316,-0.46396,4.3216e-4,0,-0.020748,1.3999,101291
0.22625,3.1648,28.692,128.74,0.55863,0,9.8257,0.25924,0,-0.4064,8.3094e-7,18239,6.5705,199.5,199.47,0.0031708,0.091333,5694045,2529,4.3457,0.68755,0.88477,0.44656,0.1199,0.12108,8.2935,0.045173,-2.0736e-4,0,-0.019255,1.4003,101288
0.23625,3.4538,29.98,128.83,0.60921,0,9.8257,0.24927,0,-0.40429,3.2328e-6,18225,6.5686,200.06,199.46,0.059019,0.094992,5922000,2529,4.6543,0.6847,0.87603,0.44358,0.11995,0.12117,7.8947,0.48344,-9.6321e-5,0,-0.017615,1.4007,101284
0.24625,3.7554,31.269,128.92,0.66192,0,9.8257,0.24001,0,-0.39864,4.3517e-6,18211,6.5668,200.59,199.44,0.11223,0.098662,6150637,2529,4.9691,0.68198,0.86702,0.44073,0.11999,0.12127,7.5302,0.86058,-2.5012e-4,0,-0.015877,1.4011,101281
0.25625,4.0698,32.559,129.01,0.71673,0,9.8257,0.23141,0,-0.38945,3.8614e-6,18196,6.5649,201.1,199.42,0.16299,0.10234,6379901,2529,5.2905,0.67939,0.85794,0.43799,0.12004,0.12136,7.1959,1.1871,-3.9005e-4,0,-0.014083,1.4016,101277
0.26625,4.397,33.85,129.1,0.77364,0,9.8257,0.22338,0,-0.37667,4.1397e-6,18182,6.5631,201.58,199.41,0.2115,0.10603,6609741,2529,5.619,0.67692,0.84892,0.43537,0.12009,0.12146,6.888,1.4692,4.9395e-4,0,-0.012273,1.402,101273
0.27625,4.7368,35.141,129.19,0.83263,0,9.8257,0.21586,0,-0.36028,5.2495e-6,18168,6.5612,202.04,199.39,0.25793,0.10973,6840114,2529,5.9547,0.67456,0.84004,0.43286,0.12014,0.12157,6.6035,1.7136,-2.7866e-4,0,-0.010484,1.4023,101269
0.28625,5.0895,36.434,129.28,0.8937,0,9.8257,0.20881,0,-0.34023,2.3872e-6,18153,6.5593,202.48,199.37,0.30245,0.11344,7070982,2529,6.2979,0.6723,0.83138,0.43044,0.12019,0.12167,6.3396,1.926,-3.2521e-4,0,-0.0087485,1.4027,101265
0.29625,5.4549,37.728,129.37,0.95683,-6.195e-9,9.8257,0.20217,0,-0.31651,5.6706e-6,18139,6.5575,202.9,199.36,0.34521,0.11715,7302313,2529,6.6488,0.67014,0.82295,0.42811,0.12024,0.12178,6.0941,2.1113,1.5042e-5,0,-0.0070986,1.4031,101261
0.30625,5.833,39.022,129.46,1.022,-8.4541e-9,9.8257,0.1959,0,-0.28907,4.591e-6,18125,6.5556,203.31,199.34,0.38636,0.12088,7534077,2529,7.0075,0.66806,0.81479,0.42586,0.1203,0.1219,5.8649,2.2714,-1.0813e-4,0,-0.0055623,1.4034,101257
0.31625,6.224,40.317,129.55,1.0892,-1.1292e-8,9.8257,0.18996,0,-0.2579,6.3175e-6,18110,6.5537,203.7,199.32,0.42604,0.1246,7766250,2529,7.3742,0.66607,0.80691,0.4237,0.12036,0.12202,5.6502,2.4112,-6.361e-5,0,-0.0041663,1.4037,101252
0.32625,6.6277,41.614,129.64,1.1585,-1.4798e-8,9.8257,0.18432,0,-0.22296,5.7902e-6,18096,6.5519,204.08,199.31,0.46438,0.12834,7998810,2529,7.7593,0.66505,0.80038,0.42249,0.12042,0.12214,5.4484,2.5331,6.9866e-5,0,-0.0029352,1.4039,101247
0.33625,7.0443,42.911,129.73,1.2298,-1.9061e-8,9.8257,0.17896,0,-0.18421,9.7404e-6,18082,6.55,204.44,199.29,0.5015,0.13208,8231734,2529,8.167,0.6652,0.79542,0.42245,0.12048,0.12227,5.2581,2.6393,4.1406e-4,0,-0.0018917,1.4041,101242
0.34625,7.4737,44.209,129.82,1.3031,-2.4206e-8,9.8257,0.17383,0,-0.14163,1.1234e-5,18068,6.5481,204.8,199.27,0.53752,0.13583,8465004,2529,8.5845,0.66535,0.79061,0.42241,0.12054,0.1224,5.0782,2.7309,-1.6159e-4,0,-0.0010575,1.4043,101237
0.35625,7.9159,45.508,129.9,1.3784,-3.0397e-8,9.8257,0.16892,0,-0.095204,1.3471e-5,18053,6.5463,205.14,199.26,0.57254,0.13958,8698606,2529,9.0117,0.66551,0.78596,0.42237,0.12061,0.12253,4.9074,2.8098,-7.0813e-5,0,-4.5244e-4,1.4044,101232
0.36625,8.3709,46.807,129.99,1.4558,-3.7838e-8,9.8257,0.16421,0,-0.044885,1.1787e-5,18039,6.5444,205.48,199.24,0.60668,0.14334,8932524,2529,9.4488,0.66567,0.78146,0.42232,0.12067,0.12267,4.7449,2.879,4.1563e-4,0,-9.5365e-5,1.4045,101227
0.37625,8.8388,48.108,130.08,1.5351,-4.6749e-8,9.8257,0.15967,0,0.0093299,1.1091e-5,18025,6.5425,205.8,199.22,0.64003,0.14711,9166748,2529,9.8957,0.66583,0.77711,0.42228,0.12074,0.12281,4.5898,2.9376,3.3843e-4,0,3.9122e-6,1.4045,101221
0.38625,9.3196,49.409,130.17,1.6164,-5.7305e-8,9.8257,0.15528,0,0.067473,5.2421e-6,18010,6.5406,206.12,199.21,0.67268,0.15088,9401265,2529,10.352,0.666,0.7729,0.42223,0.12081,0.12296,4.4412,2.9871,4.956e-4,0,1.9452e-4,1.4045,101216
0.39625,9.8132,50.712,130.25,1.6997,-6.9626e-8,9.8257,0.15103,0,0.12955,2.923e-6,17996,6.5388,206.43,199.19,0.70473,0.15465,9636067,2529,10.819,0.66618,0.76881,0.42218,0.12089,0.12311,4.2984,3.0284,-4.913e-5,0,6.8247e-4,1.4044,101210
0.40625,10.32,52.015,130.34,1.785,-8.3788e-8,9.8256,0.14691,0,0.19554,3.9885e-6,17982,6.5369,206.74,199.17,0.73627,0.15843,9871144,2529,11.295,0.66635,0.76485,0.42213,0.12096,0.12326,4.1609,3.0618,-3.6019e-4,0,0.0014817,1.4042,101204
0.41625,10.839,53.319,130.42,1.8723,-9.9843e-8,9.8256,0.14289,0,0.26547,2.0658e-6,17967,6.535,207.04,199.15,0.76737,0.16222,10106488,2529,11.78,0.66654,0.76099,0.42208,0.12104,0.12342,4.028,3.0887,3.5886e-4,0,0.0026049,1.404,101198
0.42625,11.371,54.624,130.51,1.9616,-1.1787e-7,9.8256,0.13896,0,0.33929,4.207e-6,17953,6.5331,207.34,199.14,0.79811,0.16601,10342093,2529,12.276,0.66672,0.75725,0.42203,0.12112,0.12358,3.8992,3.1076,-3.2763e-4,0,0.0040631,1.4036,101192
0.43625,11.917,55.93,130.59,2.0529,-1.3792e-7,9.8256,0.13511,0,0.41699,1.136e-6,17939,6.5313,207.64,199.12,0.82858,0.1698,10577952,2529,12.781,0.66692,0.75359,0.42197,0.1212,0.12375,3.774,3.1216,-4.7722e-4,0,0.0058661,1.4032,101185
0.44625,12.475,57.236,130.68,2.1461,-1.6004e-7,9.8256,0.13133,0,0.49853,7.0923e-6,17925,6.5294,207.93,199.1,0.85885,0.1736,10814060,2529,13.295,0.66711,0.75003,0.42192,0.12128,0.12392,3.652,3.1283,-4.2074e-4,0,0.0080216,1.4028,101179
0.45625,13.046,58.544,130.76,2.2413,-1.8432e-7,9.8256,0.12761,0,0.58385,5.9957e-6,17910,6.5275,208.22,199.09,0.88898,0.1774,1.105e7,2529,13.818,0.66731,0.74655,0.42186,0.12136,0.12409,3.5327,3.1297,-3.903e-4,0,0.010536,1.4022,101172
0.46625,13.63,59.852,130.85,2.3386,-2.1089e-7,9.8256,0.12393,0,0.67289,7.8263e-6,17896,6.5256,208.52,199.07,0.91905,0.18121,11287002,2529,14.351,0.66752,0.74315,0.4218,0.12145,0.12427,3.4159,3.1258,4.1146e-4,0,0.013413,1.4015,101165
0.47625,14.226,61.161,130.93,2.4378,-2.3984e-7,9.8256,0.1203,0,0.76556,3.2274e-6,17882,6.5237,208.81,199.05,0.94911,0.18502,11523829,2529,14.893,0.66773,0.73982,0.42174,0.12154,0.12445,3.3011,3.1166,8.5898e-5,0,0.016654,1.4008,101158
0.48625,14.836,62.471,131.01,2.5391,-2.7127e-7,9.8256,0.11669,0,0.86179,5.7795e-6,17867,6.5219,209.1,199.03,0.97924,0.18884,11760887,2529,15.444,0.66795,0.73655,0.42168,0.12163,0.12464,3.1881,3.1013,-3.0812e-4,0,0.02026,1.3999,101151
0.49625,15.459,63.782,131.1,2.6423,-3.0526e-7,9.8256,0.1131,0,0.96144,1.265e-5,17853,6.52,209.4,199.02,1.0095,0.19266,11998173,2529,16.004,0.66817,0.73334,0.42162,0.12172,0.12483,3.0766,3.0812,-4.3662e-4,0,0.024226,1.399,101144
0.50625,16.095,65.094,131.18,2.7477,-3.4199e-7,9.8256,0.10953,0,1.0644,1.9011e-5,17839,6.5181,209.69,199,1.0399,0.19648,12235685,2529,16.573,0.66839,0.73019,0.42156,0.12181,0.12502,2.9664,3.0559,-1.7362e-4,0,0.028547,1.3979,101136
0.51625,16.743,66.406,131.26,2.855,-3.817e-7,9.8256,0.10596,0,1.1705,3.0837e-5,17824,6.5162,209.99,198.98,1.0706,0.20031,12473420,2529,17.151,0.66862,0.72709,0.42149,0.12191,0.12522,2.8573,3.0257,-9.9785e-5,0,0.033214,1.3968,101129
0.52625,17.405,67.72,131.34,2.9645,-4.2483e-7,9.8256,0.10239,0,1.2795,3.936e-5,17810,6.5143,210.29,198.97,1.1016,0.20414,12711374,2529,17.738,0.66885,0.72405,0.42143,0.12201,0.12542,2.749,2.99,1.8507e-5,0,0.038215,1.3955,101121
0.53625,18.08,69.034,131.43,3.076,-4.7203e-7,9.8256,0.09882,0,1.3913,2.9285e-5,17796,6.5124,210.59,198.95,1.1329,0.20798,1.295e7,2529,18.333,0.66909,0.72106,0.42136,0.12211,0.12562,2.6413,2.9486,5.4828e-5,0,0.043532,1.3941,101113
0.54625,18.767,70.349,131.51,3.1896,-5.2389e-7,9.8256,0.095237,0,1.5056,2.9208e-5,17781,6.5105,210.9,198.93,1.1646,0.21182,13187934,2529,18.938,0.66934,0.71812,0.42129,0.12221,0.12583,2.5342,2.9018,1.8829e-4,0,0.049146,1.3926,101105
0.55625,19.468,71.665,131.59,3.3054,-5.8089e-7,9.8256,0.091638,0,1.6221,2.4001e-5,17767,6.5087,211.22,198.91,1.1967,0.21567,13426535,2529,19.551,0.66958,0.71523,0.42122,0.12231,0.12605,2.4275,2.8503,1.9418e-4,0,0.055034,1.3909,101097
0.56625,20.181,72.982,131.67,3.4233,-6.4347e-7,9.8256,0.08802,0,1.7406,2.5457e-5,17753,6.5068,211.53,198.9,1.2293,0.21952,13665346,2529,20.173,0.66984,0.7124,0.42115,0.12242,0.12626,2.321,2.7918,3.9484e-4,0,0.061166,1.3892,101088
0.57625,20.908,74.299,131.75,3.5434,-7.1199e-7,9.8256,0.084378,0,1.8607,1.8545e-5,17739,6.5049,211.86,198.88,1.2624,0.22337,13904365,2529,20.805,0.67009,0.70962,0.42108,0.12253,0.12649,2.2148,2.7286,-4.4413e-4,0,0.067508,1.3873,101080
0.58625,21.647,75.617,131.83,3.6657,-7.8675e-7,9.8256,0.08071,0,1.982,1.6862e-5,17724,6.503,212.19,198.86,1.2961,0.22723,14143589,2529,21.445,0.67036,0.7069,0.42101,0.12264,0.12671,2.1086,2.659,2.6292e-4,0,0.074022,1.3853,101071
0.59625,22.4,76.936,131.91,3.7903,-8.6803e-7,9.8256,0.077013,0,2.1042,1.543e-6,17710,6.5011,212.52,198.84,1.3304,0.23109,14383016,2529,22.095,0.67062,0.70425,0.42093,0.12275,0.12694,2.0026,2.5835,-4.3588e-4,0,0.080666,1.3831,101062
0.60625,23.166,78.256,131.99,3.9172,-9.5587e-7,9.8256,0.073286,0,2.2268,6.3765e-6,17696,6.4992,212.86,198.83,1.3653,0.23496,14622643,2529,22.755,0.6709,0.70167,0.42086,0.12286,0.12718,1.8966,2.5018,-8.6625e-5,0,0.087391,1.3809,101053
0.61625,23.944,79.577,132.07,4.0464,-1.0502e-6,9.8256,0.069526,0,2.3493,4.6302e-6,17681,6.4973,213.21,198.81,1.4008,0.23883,14862466,2529,23.424,0.67117,0.69916,0.42078,0.12298,0.12742,1.7906,2.4145,-3.0033e-4,0,0.094143,1.3785,101044
0.62625,24.736,80.898,132.15,4.178,-1.151e-6,9.8256,0.065735,0,2.4711,1.7743e-5,17667,6.4954,213.56,198.79,1.437,0.2427,15102482,2529,24.104,0.67145,0.69673,0.4207,0.1231,0.12766,1.6846,2.3196,-1.0251e-4,0,0.10087,1.3759,101035
0.63625,25.54,82.22,132.23,4.312,-1.2583e-6,9.8256,0.061911,0,2.5918,2.0218e-5,17653,6.4935,213.92,198.77,1.4738,0.24658,15342687,2529,24.795,0.67174,0.6944,0.42062,0.12322,0.1279,1.5787,2.2191,-3.7639e-4,0,0.1075,1.3733,101025
0.64625,26.358,83.543,132.31,4.4485,-1.3724e-6,9.8256,0.058055,0,2.7106,3.6036e-5,17638,6.4916,214.29,198.76,1.5114,0.25046,15583076,2529,25.497,0.67203,0.69217,0.42054,0.12334,0.12815,1.4729,2.1119,-3.6472e-4,0,0.11397,1.3705,101016
0.65625,27.188,84.866,132.39,4.5875,-1.4936e-6,9.8256,0.054169,0,2.827,2.7393e-5,17624,6.4897,214.67,198.74,1.5496,0.25434,15823646,2529,26.211,0.67233,0.69004,0.42045,0.12346,0.12841,1.3673,1.9983,5.5095e-5,0,0.12021,1.3676,101006
0.66625,28.032,86.19,132.47,4.7291,-1.6224e-6,9.8256,0.050256,0,2.9401,3.9314e-5,17610,6.4878,215.05,198.72,1.5884,0.25823,16064390,2529,26.937,0.67263,0.68803,0.42037,0.12359,0.12867,1.262,1.8789,-1.4238e-4,0,0.12614,1.3646,100996
0.67625,28.888,87.515,132.55,4.8734,-1.7592e-6,9.8256,0.046317,0,3.0494,3.3132e-5,17596,6.4859,215.44,198.7,1.628,0.26213,16305302,2529,27.677,0.67293,0.68616,0.42028,0.12372,0.12893,1.157,1.7516,-9.7058e-5,0,0.13169,1.3614,100986
0.68625,29.757,88.84,132.63,5.0203,-1.9043e-6,9.8256,0.042357,0,3.1539,2.7509e-5,17581,6.484,215.83,198.69,1.6682,0.26602,16546378,2529,28.43,0.67324,0.68442,0.4202,0.12385,0.1292,1.0525,1.6188,-4.4766e-4,0,0.13677,1.3582,100976
0.69625,30.64,90.166,132.7,5.17,-2.058e-6,9.8256,0.038381,0,3.2528,4.0963e-5,17567,6.4821,216.24,198.67,1.7089,0.26992,16787609,2529,29.199,0.67356,0.68283,0.42011,0.12398,0.12947,0.94857,1.4799,1.5118e-4,0,0.14132,1.3548,100966
0.70625,31.535,91.492,132.78,5.3225,-2.2204e-6,9.8256,0.034393,0,3.3453,3.7983e-5,17553,6.4802,216.64,198.65,1.7503,0.27382,17028989,2529,29.983,0.67388,0.6814,0.42002,0.12412,0.12975,0.84543,1.335,-8.5772e-5,0,0.14525,1.3514,100955
0.71625,32.444,92.819,132.86,5.4779,-2.3917e-6,9.8256,0.0304,0,3.4305,5.4056e-5,17538,6.4783,217.06,198.63,1.7921,0.27773,17270510,2529,30.784,0.67421,0.68014,0.41993,0.12425,0.13003,0.74323,1.1837,-1.5035e-6,0,0.14847,1.3478,100944
0.72625,33.365,94.146,132.94,5.6362,-2.5723e-6,9.8256,0.026409,0,3.5074,6.7864e-5,17524,6.4763,217.47,198.61,1.8344,0.28164,17512163,2529,31.603,0.67454,0.67906,0.41983,0.12439,0.13031,0.64215,1.0272,-2.0113e-4,0,0.15093,1.3442,100934
0.73625,34.299,95.473,133.02,5.7976,-2.7627e-6,9.8256,0.022429,0,3.5752,9.4743e-5,17510,6.4744,217.89,198.6,1.8771,0.28555,17753940,2529,32.441,0.67487,0.67817,0.41974,0.12453,0.1306,0.54238,0.86575,-2.4847e-4,0,0.15255,1.3405,100923
0.74625,35.246,96.801,133.1,5.9621,-2.9634e-6,9.8256,0.018467,0,3.6327,1.2316e-4,17495,6.4725,218.32,198.58,1.92,0.28946,17995832,2529,33.298,0.67521,0.67747,0.41965,0.12467,0.13089,0.44414,0.69905,1.8048e-4,0,0.15328,1.3367,100912
0.75625,36.206,98.13,133.17,6.1298,-3.1754e-6,9.8256,0.014534,0,3.6792,1.5409e-4,17481,6.4706,218.74,198.56,1.9632,0.29338,18237829,2529,34.177,0.67556,0.67697,0.41955,0.12482,0.13119,0.34764,0.52913,-2.782e-5,0,0.15306,1.3329,100900
0.76625,37.18,99.458,133.25,6.3008,-3.3998e-6,9.8256,0.01064,0,3.7136,2.1031e-4,17467,6.4687,219.17,198.54,2.0064,0.2973,1.848e7,2529,35.077,0.67591,0.67667,0.41945,0.12496,0.13149,0.25312,0.35634,1.136e-4,0,0.15185,1.329,100889
0.77625,38.165,100.79,133.33,6.4751,-3.6374e-6,9.8256,0.0067963,0,3.7349,3.4614e-4,17452,6.4668,219.59,198.52,2.0495,0.30122,18722099,2529,35.999,0.67626,0.67658,0.41935,0.12511,0.1318,0.16081,0.18042,3.7871e-4,0,0.14963,1.3251,100877
0.78625,39.164,102.12,133.41,6.6528,-3.8895e-6,9.8256,0.0030154,0,3.7423,7.5548e-4,17438,6.4649,220.02,198.51,2.0924,0.30515,18964351,2529,36.945,0.67662,0.67668,0.41925,0.12526,0.1321,0.07097,0.0024869,-3.0133e-4,0,0.14639,1.3212,100866
0.79625,40.176,103.45,133.48,6.8341,-4.1574e-6,9.8256,6.9002e-4,0,-3.735,0.0032738,17424,6.463,220.28,198.49,2.1198,0.30907,19206669,2529,37.914,0.67698,0.67699,0.41915,0.12542,0.13242,0.016188,0.17637,7.2224e-7,0,-0.14214,1.3173,100854
0.80625,41.201,104.77,133.56,7.0189,-4.4425e-6,9.8256,0.0043064,0,-3.7123,5.1498e-4,17410,6.461,219.88,198.47,2.0827,0.313,19449041,2529,38.908,0.67735,0.67748,0.41905,0.12557,0.13274,0.10159,0.34819,-4.4838e-4,0,-0.13692,1.3134,100842
0.81625,42.238,106.1,133.63,7.2074,-4.746e-6,9.8256,0.0078196,0,-3.6742,2.6699e-4,17395,6.4591,219.5,198.45,2.0471,0.31693,19691459,2529,39.925,0.67773,0.67814,0.41894,0.12573,0.13306,0.18545,0.51059,8.8671e-5,0,-0.13082,1.3095,100830
0.82625,43.288,107.43,133.71,7.3997,-5.0694e-6,9.8255,0.011216,0,-3.621,1.8973e-4,17381,6.4572,219.13,198.43,2.0132,0.32086,19933912,2529,40.966,0.67811,0.67896,0.41883,0.12589,0.13338,0.26738,0.66267,2.7717e-4,0,-0.12397,1.3057,100817
0.83625,44.351,108.76,133.79,7.5958,-5.4142e-6,9.8255,0.014483,0,-3.5527,1.3718e-4,17367,6.4553,218.78,198.42,1.981,0.3248,20176391,2529,42.029,0.67849,0.6799,0.41873,0.12605,0.13371,0.34696,0.80367,2.7563e-4,0,-0.11647,1.3019,100805
0.84625,45.427,110.09,133.86,7.7959,-5.7818e-6,9.8255,0.017606,0,-3.4699,1.281e-4,17352,6.4533,218.45,198.4,1.9506,0.32873,20418888,2529,43.115,0.67888,0.68095,0.41862,0.12621,0.13405,0.42378,0.93525,4.4628e-4,0,-0.10846,1.2983,100792
0.85625,46.516,111.42,133.94,7.9999,-6.1736e-6,9.8255,0.020575,0,-3.3726,1.071e-4,17338,6.4514,218.14,198.38,1.9221,0.33267,20661396,2529,44.221,0.67927,0.68208,0.41851,0.12638,0.13439,0.49746,1.0566,4.9519e-4,0,-0.10006,1.2947,100779
0.86625,47.617,112.75,134.01,8.208,-6.5904e-6,9.8255,0.023377,0,-3.2615,7.498e-5,17324,6.4495,217.85,198.36,1.8957,0.3366,20903907,2529,45.347,0.67967,0.68327,0.4184,0.12655,0.13473,0.56759,1.1675,-4.227e-4,0,-0.091397,1.2912,100767
0.87625,48.731,114.08,134.09,8.4203,-7.0335e-6,9.8255,0.026002,0,-3.1369,7.1638e-5,17309,6.4476,217.58,198.34,1.8712,0.34054,21146416,2529,46.492,0.68007,0.6845,0.41828,0.12671,0.13508,0.63382,1.2685,1.5154e-4,0,-0.082602,1.2879,100753
0.88625,49.858,115.41,134.16,8.6369,-7.5038e-6,9.8255,0.02844,0,-2.9992,6.9377e-5,17295,6.4456,217.33,198.32,1.8489,0.34448,21388917,2529,47.654,0.68048,0.68575,0.41817,0.12689,0.13543,0.69578,1.3598,-3.7888e-4,0,-0.073796,1.2846,100740
0.89625,50.998,116.74,134.23,8.8577,-8.0023e-6,9.8255,0.03068,0,-2.849,9.2649e-5,17281,6.4437,217.11,198.31,1.8287,0.34842,21631407,2529,48.833,0.68089,0.687,0.41805,0.12706,0.13578,0.75313,1.4427,4.4234e-5,0,-0.065096,1.2816,100727
0.90625,52.15,118.07,134.31,9.083,-8.5293e-6,9.8255,0.032714,0,-2.6869,7.4003e-5,17267,6.4418,216.9,198.29,1.8108,0.35236,21873884,2529,50.026,0.68131,0.68822,0.41794,0.12723,0.13614,0.80555,1.5155,4.5026e-4,0,-0.05661,1.2787,100713
0.91625,53.315,119.4,134.38,9.3127,-9.0848e-6,9.8255,0.034535,0,-2.5134,4.7669e-5,17252,6.4399,216.72,198.27,1.7951,0.3563,22116344,2529,51.232,0.68173,0.6894,0.41782,0.12741,0.1365,0.85274,1.5796,-4.5334e-4,0,-0.048446,1.276,100700
0.92625,54.492,120.73,134.45,9.5469,-9.6691e-6,9.8255,0.036134,0,-2.3291,7.509e-5,17238,6.4379,216.57,198.25,1.7816,0.36025,22358789,2529,52.451,0.68216,0.69053,0.4177,0.12759,0.13687,0.89444,1.6342,-1.4825e-4,0,-0.0407,1.2734,100686
0.93625,55.682,122.06,134.52,9.7858,-1.0282e-5,9.8255,0.037506,0,-2.1349,7.8896e-5,17224,6.436,216.43,198.23,1.7705,0.36419,22601218,2529,53.68,0.68259,0.69158,0.41758,0.12777,0.13724,0.9304,1.6807,-4.6157e-4,0,-0.033458,1.2711,100672
0.94625,56.885,123.39,134.58,10.029,-1.0923e-5,9.8255,0.038646,0,-1.9313,1.0382e-4,17209,6.4341,216.32,198.21,1.7617,0.36814,22843635,2529,54.919,0.68303,0.69255,0.41746,0.12796,0.13762,0.96041,1.719,-4.7594e-4,0,-0.026797,1.2689,100658
0.95625,58.101,124.72,134.65,10.277,-1.1591e-5,9.8255,0.039548,0,-1.7191,1.0204e-4,17195,6.4321,216.24,198.2,1.7552,0.37208,23086041,2529,56.165,0.68347,0.69343,0.41733,0.12814,0.138,0.98429,1.7484,-4.0829e-4,0,-0.020785,1.267,100644
0.96625,59.329,126.05,134.71,10.53,-1.2284e-5,9.8255,0.040209,0,-1.4991,6.6475e-5,17181,6.4302,216.18,198.18,1.7512,0.37603,23328440,2529,57.419,0.68392,0.6942,0.41721,0.12833,0.13838,1.0019,1.7703,-4.2219e-4,0,-0.015476,1.2653,100629
0.97625,60.569,127.38,134.77,10.788,-1.2999e-5,9.8255,0.040626,0,-1.2721,7.0928e-5,17166,6.4282,216.14,198.16,1.7495,0.37998,23570838,2529,58.679,0.68437,0.69486,0.41708,0.12852,0.13877,1.0131,1.7838,-8.8565e-5,0,-0.010915,1.2639,100615
0.98625,61.823,128.71,134.83,11.051,-1.3737e-5,9.8255,0.040797,0,-1.0392,9.6378e-5,17152,6.4263,216.13,198.14,1.7502,0.38393,23813240,2529,59.943,0.68483,0.69541,0.41695,0.12871,0.13916,1.0179,1.7883,4.0437e-5,0,-0.0071348,1.2627,100600
0.99625,63.089,130.04,134.89,11.318,-1.4494e-5,9.8255,0.040722,0,-0.80126,1.2486e-4,17138,6.4244,216.14,198.12,1.7533,0.38788,24055651,2529,61.212,0.68529,0.69584,0.41682,0.12891,0.13956,1.0162,1.7858,-4.7059e-4,0,-0.0041557,1.2617,100585
1.0063,64.367,131.37,134.94,11.59,-1.5267e-5,9.8255,0.040401,0,-0.55932,1.4313e-4,17124,6.4224,216.18,198.1,1.7588,0.39183,24298078,2529,62.485,0.68576,0.69616,0.41669,0.1291,0.13996,1.008,1.7748,-1.3518e-4,0,-0.0019844,1.261,100570
1.0163,65.658,132.71,134.99,11.867,-1.6053e-5,9.8255,0.039836,0,-0.31445,1.625e-4,17109,6.4205,216.24,198.08,1.7666,0.39579,24540528,2529,63.762,0.68623,0.69636,0.41656,0.1293,0.14036,0.99337,1.7553,2.5237e-4,0,-6.1474e-4,1.2606,100555
1.0263,66.961,134.04,135.03,12.149,-1.6848e-5,9.8255,0.039029,0,-0.067932,1.7631e-4,17095,6.4185,216.33,198.06,1.7769,0.39974,24783006,2529,65.042,0.6867,0.69646,0.41643,0.1295,0.14077,0.97241,1.7275,-5.8274e-5,0,-2.8127e-5,1.2604,100540
1.0363,68.278,135.37,135.08,12.436,-1.7647e-5,9.8255,0.037984,0,0.17892,1.4703e-4,17081,6.4166,216.44,198.05,1.7894,0.4037,25025520,2529,66.326,0.68718,0.69646,0.41629,0.1297,0.14119,0.94526,1.6916,-1.3611e-4,0,1.9131e-4,1.2604,100524
1.0463,69.606,136.71,135.12,12.728,-1.8445e-5,9.8255,0.036706,0,0.42459,1.6474e-4,17066,6.4146,216.58,198.03,1.8043,0.40766,25268074,2529,67.614,0.68767,0.69636,0.41616,0.12991,0.1416,0.91209,1.645,-3.8381e-4,0,0.0010566,1.2607,100509
1.0563,70.948,138.05,135.15,13.025,-1.9236e-5,9.8255,0.035203,0,0.66732,1.9091e-4,17052,6.4127,216.73,198.01,1.8215,0.41162,25510675,2529,68.907,0.68816,0.69619,0.41602,0.13011,0.14203,0.87315,1.5882,8.0227e-5,0,0.00256,1.2613,100493
1.0663,72.302,139.38,135.18,13.327,-2.0018e-5,9.8255,0.033482,0,0.90535,2.014e-4,17038,6.4108,216.91,197.99,1.8408,0.41559,25753325,2529,70.206,0.68866,0.69596,0.41588,0.13032,0.14245,0.82871,1.5206,2.0782e-4,0,0.0046226,1.2621,100477
1.0763,73.668,140.72,135.21,13.633,-2.0783e-5,9.8255,0.031555,0,1.1367,2.2075e-4,17023,6.4088,217.12,197.97,1.8623,0.41956,25996029,2529,71.513,0.68916,0.69568,0.41574,0.13053,0.14288,0.77913,1.4436,-2.399e-4,0,0.0071502,1.2632,100461
1.0863,75.047,142.06,135.24,13.944,-2.1526e-5,9.8255,0.029433,0,1.3595,2.0393e-4,17009,6.4069,217.34,197.95,1.8859,0.42352,26238788,2529,72.828,0.68967,0.69537,0.4156,0.13075,0.14332,0.72479,1.3564,3.5017e-5,0,0.010037,1.2645,100445
1.0963,76.439,143.4,135.26,14.261,-2.2242e-5,9.8254,0.02713,0,1.5716,2.2072e-4,16995,6.4049,217.58,197.93,1.9114,0.4275,26481601,2529,74.155,0.69018,0.69506,0.41546,0.13096,0.14376,0.66611,1.2604,-1.3171e-4,0,0.013166,1.266,100428
1.1063,77.844,144.74,135.28,14.581,-2.2927e-5,9.8254,0.024662,0,1.771,2.0538e-4,16980,6.4029,217.84,197.91,1.9387,0.43147,26724469,2529,75.494,0.6907,0.69475,0.41531,0.13118,0.1442,0.6036,1.1539,4.4306e-4,0,0.016413,1.2678,100412
1.1163,79.261,146.08,135.3,14.907,-2.3576e-5,9.8254,0.022046,0,1.9555,2.3742e-4,16966,6.401,218.12,197.89,1.9677,0.43545,26967388,2529,76.849,0.69122,0.69448,0.41517,0.1314,0.14465,0.53776,1.0385,-3.0674e-4,0,0.019647,1.2697,100395
1.1263,80.691,147.43,135.32,15.237,-2.4187e-5,9.8254,0.019303,0,2.1229,2.4764e-4,16952,6.399,218.42,197.88,1.9982,0.43942,2.721e7,2529,78.223,0.69175,0.69427,0.41502,0.13162,0.1451,0.46916,0.91494,3.3611e-4,0,0.022739,1.2719,100379
1.1363,82.134,148.77,135.33,15.572,-2.4756e-5,9.8254,0.016454,0,2.2712,2.4273e-4,16938,6.3971,218.73,197.86,2.03,0.44341,27453358,2529,79.616,0.69228,0.69412,0.41487,0.13185,0.14556,0.39841,0.78315,-1.8144e-4,0,0.025561,1.2742,100362
1.1463,83.589,150.12,135.34,15.911,-2.5283e-5,9.8254,0.013521,0,2.3981,3.0117e-4,16923,6.3951,219.04,197.84,2.063,0.44739,27696396,2529,81.033,0.69281,0.69407,0.41472,0.13207,0.14602,0.32612,0.64478,-2.8685e-4,0,0.027993,1.2766,100345
1.1563,85.057,151.47,135.36,16.254,-2.5766e-5,9.8254,0.010529,0,2.5017,3.4594e-4,16909,6.3932,219.37,197.82,2.0968,0.45137,27939456,2529,82.475,0.69336,0.69412,0.41457,0.1323,0.14649,0.25295,0.50091,3.4824e-4,0,0.02993,1.2792,100327
1.1663,86.538,152.82,135.37,16.602,-2.6206e-5,9.8254,0.0075047,0,2.5802,4.3163e-4,16895,6.3912,219.71,197.8,2.1313,0.45536,28182528,2529,83.944,0.69391,0.6943,0.41442,0.13253,0.14696,0.17957,0.35093,-2.9218e-4,0,0.031284,1.2819,100310
1.1763,88.032,154.16,135.38,16.954,-2.6603e-5,9.8254,0.0044756,0,2.6318,6.9031e-4,16880,6.3892,220.05,197.78,2.166,0.45935,28425601,2529,85.443,0.69446,0.6946,0.41426,0.13277,0.14743,0.10666,0.19937,-1.1388e-4,0,0.031985,1.2846,100293
1.1863,89.539,155.51,135.39,17.311,-2.6961e-5,9.8254,0.0014701,0,2.6551,0.002058,16866,6.3873,220.38,197.76,2.2008,0.46334,28668662,2529,86.972,0.69502,0.69503,0.41411,0.133,0.14791,0.034893,0.044822,-3.6792e-4,0,0.031997,1.2874,100275
1.1963,91.059,156.87,135.4,17.671,-2.7284e-5,9.8254,0.0014822,0,-2.6488,0.0020555,16852,6.3853,220.39,197.74,2.2032,0.46733,28911699,2529,88.533,0.69558,0.69559,0.41395,0.13324,0.14839,0.035192,0.1088,-2.3105e-4,0,-0.031306,1.2901,100257
1.2063,92.592,158.22,135.41,18.036,-2.7582e-5,9.8254,0.0043512,0,-2.6126,7.1698e-4,16837,6.3833,220.08,197.72,2.1748,0.47132,29154701,2529,90.124,0.69615,0.69628,0.41379,0.13348,0.14888,0.10378,0.25591,-4.76e-4,0,-0.029943,1.2929,100239
1.2163,94.137,159.57,135.43,18.404,-2.7874e-5,9.8254,0.0071076,0,-2.5472,4.2639e-4,16823,6.3814,219.78,197.7,2.1479,0.47531,29397654,2529,91.745,0.69672,0.69707,0.41363,0.13372,0.14937,0.17025,0.39399,5.3611e-5,0,-0.027988,1.2956,100221
1.2263,95.696,160.92,135.44,18.776,-2.8179e-5,9.8254,0.0097233,0,-2.4534,3.3475e-4,16809,6.3794,219.5,197.68,2.1227,0.4793,29640548,2529,93.394,0.6973,0.69796,0.41347,0.13396,0.14987,0.23387,0.52222,-3.0092e-4,0,-0.025535,1.2982,100203
1.2363,97.268,162.28,135.46,19.152,-2.8518e-5,9.8254,0.012172,0,-2.3326,2.8429e-4,16795,6.3774,219.25,197.66,2.0995,0.4833,29883373,2529,95.069,0.69788,0.69891,0.41331,0.13421,0.15036,0.29389,0.63976,-2.4211e-4,0,-0.022702,1.3007,100184
1.2463,98.853,163.63,135.47,19.531,-2.8911e-5,9.8254,0.014429,0,-2.186,2.3226e-4,16780,6.3755,219.01,197.64,2.0786,0.48729,30126121,2529,96.767,0.69847,0.69991,0.41314,0.13446,0.15087,0.34964,0.74591,-1.9409e-4,0,-0.019614,1.3031,100166
1.2563,100.45,164.99,135.49,19.914,-2.9376e-5,9.8254,0.016473,0,-2.0153,2.0934e-4,16766,6.3735,218.8,197.62,2.06,0.49128,30368785,2529,98.485,0.69906,0.70093,0.41298,0.13471,0.15138,0.40046,0.84122,-1.4438e-4,0,-0.016401,1.3053,100147
1.2663,102.06,166.34,135.51,20.301,-2.9934e-5,9.8254,0.018283,0,-1.8224,1.6485e-4,16752,6.3715,218.62,197.6,2.0439,0.49528,30611360,2529,100.22,0.69966,0.70195,0.41281,0.13496,0.15189,0.44576,0.92473,-1.1459e-4,0,-0.013196,1.3073,100128
1.2763,103.69,167.7,135.53,20.691,-3.0602e-5,9.8254,0.019843,0,-1.6092,1.699e-4,16737,6.3695,218.46,197.59,2.0305,0.49927,30853844,2529,101.97,0.70026,0.70295,0.41264,0.13521,0.15241,0.48502,0.99469,-4.7467e-4,0,-0.010126,1.3091,100109
1.2863,105.32,169.05,135.55,21.084,-3.1398e-5,9.8254,0.021136,0,-1.3781,2.3619e-4,16723,6.3676,218.33,197.57,2.0199,0.50327,31096237,2529,103.73,0.70087,0.70392,0.41247,0.13547,0.15293,0.51777,1.0535,-6.5868e-5,0,-0.0073089,1.3107,100090
1.2963,106.97,170.41,135.57,21.48,-3.2339e-5,9.8254,0.022153,0,-1.1313,2.3334e-4,16709,6.3656,218.23,197.55,2.0123,0.50726,31338539,2529,105.5,0.70148,0.70483,0.4123,0.13573,0.15345,0.54363,1.0984,1.5307e-4,0,-0.0048488,1.312,100070
1.3063,108.64,171.76,135.59,21.88,-3.3443e-5,9.8253,0.022882,0,-0.87143,2.3217e-4,16694,6.3636,218.17,197.53,2.0077,0.51126,31580753,2529,107.27,0.7021,0.70566,0.41213,0.13599,0.15398,0.5623,1.1318,4.7141e-4,0,-0.0028322,1.313,100051
1.3163,110.31,173.12,135.61,22.283,-3.4725e-5,9.8253,0.023318,0,-0.60115,1.7711e-4,16680,6.3616,218.13,197.51,2.0062,0.51526,31822885,2529,109.05,0.70272,0.70642,0.41196,0.13625,0.15451,0.57358,1.1523,-4.1106e-4,0,-0.001327,1.3138,100031
1.3263,112,174.48,135.63,22.689,-3.62e-5,9.8253,0.023458,0,-0.3233,2.0493e-4,16666,6.3596,218.13,197.49,2.0077,0.51925,32064940,2529,110.83,0.70335,0.7071,0.41178,0.13652,0.15505,0.57735,1.1599,-3.8954e-4,0,-3.7796e-4,1.3143,100011
1.3363,113.71,175.83,135.64,23.099,-3.7877e-5,9.8253,0.023302,0,-0.040766,2.7517e-4,16651,6.3577,218.15,197.47,2.0122,0.52325,32306925,2529,112.62,0.70398,0.70768,0.41161,0.13678,0.15559,0.5736,1.1544,1.5768e-4,0,-5.918e-6,1.3145,99991
1.3463,115.42,177.19,135.66,23.511,-3.9769e-5,9.8253,0.022853,0,0.24309,2.2896e-4,16637,6.3557,218.21,197.45,2.0198,0.52725,32548846,2529,114.4,0.70462,0.70819,0.41143,0.13705,0.15614,0.5624,1.1359,1.3334e-4,0,2.0727e-4,1.3144,99971
1.3563,117.15,178.55,135.68,23.927,-4.1883e-5,9.8253,0.022119,0,0.52502,2.0119e-4,16623,6.3537,218.3,197.43,2.0304,0.53125,32790710,2529,116.19,0.70526,0.70861,0.41125,0.13732,0.15669,0.54396,1.1032,-7.6919e-5,0,9.5232e-4,1.314,99951
1.3663,118.89,179.91,135.69,24.346,-4.4223e-5,9.8253,0.021108,0,0.80119,1.4955e-4,16609,6.3517,218.42,197.41,2.0439,0.53525,33032523,2529,117.98,0.70591,0.70897,0.41107,0.1376,0.15724,0.51856,1.0576,6.9854e-5,0,0.0021848,1.3133,99931
1.3763,120.65,181.26,135.71,24.768,-4.6789e-5,9.8253,0.019835,0,1.0679,1.406e-4,16594,6.3497,218.57,197.39,2.0601,0.53925,33274290,2529,119.78,0.70656,0.70928,0.41089,0.13787,0.1578,0.4866,0.99897,-2.9366e-4,0,0.0038244,1.3123,99910
1.3863,122.42,182.62,135.72,25.193,-4.9576e-5,9.8253,0.018317,0,1.3216,1.5606e-4,16580,6.3477,218.74,197.37,2.0789,0.54325,33516014,2529,121.59,0.70722,0.70955,0.4107,0.13815,0.15837,0.44859,0.92685,2.8033e-4,0,0.0057711,1.3111,99889
1.3963,124.2,183.98,135.73,25.621,-5.2575e-5,9.8253,0.016576,0,1.5582,1.56e-4,16566,6.3457,218.94,197.35,2.1002,0.54725,33757698,2529,123.4,0.70788,0.7098,0.41052,0.13843,0.15893,0.40512,0.84333,3.5829e-4,0,0.007906,1.3095,99868
1.4063,126,185.34,135.75,26.053,-5.5777e-5,9.8253,0.014636,0,1.774,1.7864e-4,16551,6.3437,219.16,197.33,2.1236,0.55126,33999341,2529,125.23,0.70855,0.71005,0.41033,0.13871,0.15951,0.35687,0.74731,-4.5768e-4,0,0.0101,1.3078,99847
1.4163,127.81,186.69,135.76,26.489,-5.9169e-5,9.8253,0.012525,0,1.9653,2.3299e-4,16537,6.3418,219.4,197.31,2.1491,0.55527,34240940,2529,127.08,0.70922,0.71033,0.41014,0.139,0.16008,0.3046,0.64205,-2.1444e-4,0,0.012217,1.3058,99826
1.4263,129.63,188.05,135.78,26.927,-6.2735e-5,9.8253,0.010274,0,2.1288,3.1743e-4,16523,6.3398,219.66,197.29,2.1761,0.55927,34482491,2529,128.96,0.7099,0.71065,0.40995,0.13929,0.16066,0.24916,0.52786,-3.5876e-4,0,0.014131,1.3037,99805
1.4363,131.46,189.41,135.8,27.37,-6.6461e-5,9.8253,0.0079165,0,2.2611,3.6872e-4,16508,6.3378,219.93,197.27,2.2045,0.56328,34723986,2529,130.85,0.71059,0.71103,0.40976,0.13958,0.16125,0.19142,0.40637,2.3064e-4,0,0.015717,1.3014,99783
1.4463,133.31,190.77,135.82,27.816,-7.0329e-5,9.8253,0.0054887,0,2.3596,4.3148e-4,16494,6.3358,220.21,197.25,2.2339,0.56729,34965417,2529,132.78,0.71128,0.71149,0.40957,0.13987,0.16184,0.13231,0.27896,-3.5151e-5,0,0.016875,1.299,99762
1.4563,135.17,192.12,135.84,28.265,-7.4319e-5,9.8253,0.0030286,0,2.4217,6.9718e-4,16480,6.3338,220.5,197.23,2.2639,0.5713,35206773,2529,134.74,0.71197,0.71204,0.40938,0.14016,0.16243,0.072781,0.14729,3.0584e-4,0,0.017527,1.2965,99740
1.4663,137.04,193.48,135.86,28.719,-7.8406e-5,9.8253,5.7577e-4,0,2.4455,0.0032538,16466,6.3318,220.79,197.21,2.294,0.57531,35448044,2529,136.73,0.71267,0.71267,0.40918,0.14046,0.16303,0.013794,0.013946,1.0163e-4,0,0.017626,1.2939,99718
1.4763,138.93,194.84,135.89,29.176,-8.2563e-5,9.8253,0.0018294,0,-2.4299,9.5171e-4,16451,6.3298,220.67,197.19,2.2844,0.57932,35689217,2529,138.75,0.71337,0.7134,0.40899,0.14075,0.16363,0.043925,0.11791,2.8117e-4,0,-0.017163,1.2914,99696
1.4863,140.83,196.19,135.91,29.638,-8.676e-5,9.8252,0.0041467,0,-2.3749,3.6515e-4,16437,6.3278,220.44,197.17,2.2636,0.58333,3.593e7,2529,140.8,0.71408,0.71421,0.40879,0.14105,0.16424,0.099939,0.24288,-5.6687e-5,0,-0.016171,1.2888,99673
1.4963,142.74,197.55,135.94,30.104,-9.0971e-5,9.8252,0.0063372,0,-2.282,1.6639e-4,16423,6.3258,220.22,197.15,2.2443,0.58734,36171226,2529,142.89,0.7148,0.71509,0.40859,0.14136,0.16485,0.15328,0.35902,1.2613e-4,0,-0.014727,1.2864,99651
1.5063,144.67,198.9,135.97,30.574,-9.5172e-5,9.8252,0.008365,0,-2.1531,1.5233e-4,16408,6.3238,220.02,197.13,2.227,0.59136,36412042,2529,145.01,0.71552,0.71602,0.40839,0.14166,0.16546,0.203,0.46476,-2.0925e-4,0,-0.012934,1.2841,99628
1.5163,146.61,200.26,136,31.048,-9.9336e-5,9.8252,0.010197,0,-1.9905,2.1334e-4,16394,6.3217,219.84,197.11,2.2119,0.59537,36652722,2529,147.14,0.71624,0.71698,0.40819,0.14197,0.16608,0.24821,0.55998,-1.9465e-4,0,-0.010906,1.2819,99606
1.5263,148.56,201.61,136.03,31.527,-1.0344e-4,9.8252,0.011804,0,-1.7971,1.1529e-4,16380,6.3197,219.69,197.09,2.1993,0.59938,36893259,2529,149.3,0.71697,0.71796,0.40799,0.14228,0.1667,0.2881,0.6426,-3.5611e-5,0,-0.008772,1.2799,99583
1.5363,150.52,202.97,136.05,32.01,-1.0745e-4,9.8252,0.01316,0,-1.5764,1.1289e-4,16365,6.3177,219.57,197.06,2.1894,0.60339,37133651,2529,151.48,0.7177,0.71894,0.40778,0.14259,0.16733,0.32195,0.7113,3.2822e-4,0,-0.0066608,1.2781,99560
1.5463,152.5,204.32,136.07,32.498,-1.1136e-4,9.8252,0.014244,0,-1.3324,7.6941e-5,16351,6.3157,219.48,197.04,2.1825,0.6074,37373897,2529,153.66,0.71844,0.71988,0.40758,0.1429,0.16796,0.34917,0.76633,4.1817e-4,0,-0.004696,1.2766,99536
1.5563,154.49,205.67,136.08,32.991,-1.1513e-4,9.8252,0.01504,0,-1.0691,1.055e-4,16337,6.3137,219.42,197.02,2.1786,0.61141,37613999,2529,155.86,0.71918,0.72079,0.40737,0.14322,0.1686,0.36927,0.8071,5.2382e-5,0,-0.0029836,1.2754,99513
1.5663,156.49,207.03,136.09,33.488,-1.1875e-4,9.8252,0.015537,0,-0.79091,1.5273e-4,16322,6.3117,219.39,197,2.1779,0.61542,37853960,2529,158.06,0.71993,0.72165,0.40716,0.14353,0.16924,0.38191,0.83289,-1.4253e-4,0,-0.0016119,1.2744,99490
1.5763,158.51,208.38,136.1,33.99,-1.222e-4,9.8252,0.015729,0,-0.50269,1.252e-4,16308,6.3097,219.4,196.98,2.1804,0.61943,38093785,2529,160.27,0.72069,0.72245,0.40695,0.14385,0.16988,0.3869,0.84469,-2.5886e-4,0,-6.4279e-4,1.2737,99466
1.5863,160.54,209.73,136.09,34.497,-1.2547e-4,9.8252,0.015614,0,-0.20959,1.1367e-4,16294,6.3077,219.43,196.96,2.186,0.62344,38333480,2529,162.47,0.72145,0.72318,0.40674,0.14417,0.17053,0.38419,0.84037,-1.3899e-4,0,-1.1031e-4,1.2733,99442
1.5963,162.58,211.09,136.08,35.009,-1.2856e-4,9.8252,0.015198,0,0.083104,1.8712e-4,16280,6.3056,219.5,196.94,2.1949,0.62745,38573050,2529,164.68,0.72221,0.72386,0.40653,0.1445,0.17118,0.3739,0.82037,-1.2527e-4,0,1.7123e-5,1.2733,99418
1.6063,164.63,212.44,136.06,35.525,-1.3144e-4,9.8252,0.01449,0,0.37,1.5905e-4,16265,6.3036,219.61,196.92,2.2068,0.63146,38812502,2529,166.9,0.72298,0.72448,0.40632,0.14482,0.17184,0.35631,0.78621,-4.9342e-4,0,3.3513e-4,1.2735,99394
1.6163,166.7,213.79,136.03,36.046,-1.3413e-4,9.8252,0.013507,0,0.64533,2.4176e-4,16251,6.3016,219.74,196.9,2.2215,0.63547,39051839,2529,169.12,0.72375,0.72506,0.4061,0.14515,0.1725,0.33182,0.73663,-2.8439e-4,0,0.0010067,1.274,99370
1.6263,168.78,215.15,136,36.572,-1.3661e-4,9.8252,0.012269,0,0.90333,1.9233e-4,16237,6.2996,219.9,196.88,2.2391,0.63948,39291066,2529,171.35,0.72453,0.72562,0.40589,0.14548,0.17316,0.30104,0.67183,7.0905e-7,0,0.001948,1.2748,99346
1.6363,170.87,216.5,135.96,37.102,-1.389e-4,9.8252,0.010804,0,1.1384,1.8901e-4,16222,6.2976,220.08,196.86,2.259,0.64349,3.953e7,2529,173.59,0.72532,0.72616,0.40567,0.14582,0.17383,0.26468,0.59527,-3.7252e-4,0,0.0030553,1.2759,99321
1.6463,172.97,217.85,135.92,37.637,-1.41e-4,9.8251,0.0091439,0,1.3451,3.159e-4,16208,6.2955,220.29,196.84,2.2812,0.64751,39769185,2529,175.86,0.7261,0.72671,0.40545,0.14615,0.1745,0.22359,0.50598,-1.8772e-4,0,0.0042135,1.2772,99296
1.6563,175.09,219.21,135.87,38.176,-1.4293e-4,9.8251,0.0073248,0,1.5187,3.963e-4,16194,6.2935,220.51,196.82,2.3051,0.65152,40008072,2529,178.14,0.7269,0.72729,0.40523,0.14649,0.17518,0.17874,0.40703,1.4843e-4,0,0.0053049,1.2787,99271
1.6663,177.22,220.56,135.83,38.72,-1.4469e-4,9.8251,0.0053874,0,1.6545,4.8866e-4,16179,6.2915,220.75,196.8,2.3304,0.65553,40246835,2529,180.45,0.7277,0.72791,0.40501,0.14683,0.17586,0.13117,0.29918,-1.9005e-4,0,0.0062202,1.2804,99246
1.6763,179.37,221.92,135.78,39.269,-1.4632e-4,9.8251,0.0033756,0,1.7492,8.0586e-4,16165,6.2895,221,196.77,2.3566,0.65954,40485467,2529,182.79,0.7285,0.72859,0.40478,0.14717,0.17655,0.081992,0.18627,3.1775e-4,0,0.0068682,1.2822,99221
1.6863,181.52,223.27,135.74,39.821,-1.4784e-4,9.8251,0.0013354,0,1.7997,0.0020038,16151,6.2874,221.25,196.75,2.3834,0.66356,40723955,2529,185.16,0.72931,0.72932,0.40456,0.14751,0.17724,0.03236,0.069829,-9.6412e-5,0,0.0071833,1.284,99196
1.6963,183.69,224.63,135.7,40.378,-1.4926e-4,9.8251,6.8546e-4,0,-1.8041,0.0039266,16137,6.2854,221.36,196.73,2.3953,0.66757,40962289,2529,187.56,0.73013,0.73013,0.40433,0.14786,0.17793,0.016603,0.0468,-2.4314e-4,0,-0.0071326,1.2859,99171
1.7063,185.87,225.98,135.66,40.939,-1.5063e-4,9.8251,0.0026393,0,-1.7622,0.0010149,16122,6.2834,221.17,196.71,2.3794,0.67158,4.12e7,2529,190,0.73094,0.731,0.4041,0.14821,0.17863,0.064138,0.15888,-3.1043e-4,0,-0.0067239,1.2878,99145
1.7163,188.07,227.34,135.62,41.503,-1.5197e-4,9.8251,0.0044796,0,-1.6752,5.949e-4,16108,6.2813,221,196.69,2.3649,0.67559,41438450,2529,192.47,0.73177,0.73192,0.40388,0.14856,0.17934,0.1092,0.26377,4.1215e-6,0,-0.0060053,1.2896,99119
1.7263,190.28,228.69,135.59,42.072,-1.5332e-4,9.8251,0.0061634,0,-1.5459,4.7149e-4,16094,6.2793,220.85,196.67,2.3522,0.6796,41676256,2529,194.97,0.7326,0.73288,0.40365,0.14891,0.18004,0.15069,0.3592,-4.0007e-4,0,-0.0050538,1.2913,99093
1.7363,192.5,230.05,135.55,42.644,-1.5473e-4,9.8251,0.0076517,0,-1.3775,3.048e-4,16079,6.2772,220.72,196.65,2.3417,0.68361,41913867,2529,197.49,0.73343,0.73386,0.40341,0.14926,0.18075,0.18756,0.44359,-3.9678e-4,0,-0.0039662,1.2928,99067
1.7463,194.73,231.41,135.52,43.22,-1.5621e-4,9.8251,0.0089104,0,-1.1743,3.2282e-4,16065,6.2752,220.62,196.63,2.3337,0.68762,42151280,2529,200.03,0.73427,0.73485,0.40318,0.14962,0.18147,0.21892,0.51365,5.5517e-5,0,-0.002849,1.2942,99041
1.7563,196.98,232.76,135.5,43.8,-1.5782e-4,9.8251,0.0099114,0,-0.94153,2.2065e-4,16051,6.2732,220.54,196.61,2.3285,0.69163,42388491,2529,202.58,0.73511,0.73584,0.40295,0.14998,0.18219,0.24398,0.56964,4.4604e-4,0,-0.0018103,1.2953,99015
1.7663,199.24,234.12,135.47,44.383,-1.5957e-4,9.8251,0.010633,0,-0.68501,1.2584e-4,16036,6.2711,220.5,196.58,2.3262,0.69564,42625499,2529,205.15,0.73596,0.73679,0.40271,0.15034,0.18291,0.26215,0.61085,1.2298e-4,0,-9.473e-4,1.2961,98988
1.7763,201.51,235.47,135.44,44.97,-1.6148e-4,9.8251,0.011061,0,-0.411,1.7981e-4,16022,6.2691,220.49,196.56,2.3271,0.69965,42862308,2529,207.72,0.73682,0.73771,0.40248,0.1507,0.18364,0.273,0.63538,-1.3105e-4,0,-3.3714e-4,1.2967,98962
1.7863,203.8,236.83,135.41,45.56,-1.6359e-4,9.8251,0.011186,0,-0.12654,2.5201e-4,16008,6.267,220.51,196.54,2.3311,0.70365,43098920,2529,210.3,0.73767,0.73859,0.40224,0.15107,0.18437,0.27631,0.6442,1.7569e-4,0,-3.1595e-5,1.297,98935
1.7963,206.1,238.18,135.38,46.153,-1.6589e-4,9.825,0.011011,0,0.16132,3.1737e-4,15993,6.265,220.56,196.52,2.3383,0.70766,43335341,2529,212.88,0.73854,0.73943,0.402,0.15144,0.1851,0.27205,0.63579,3.2332e-6,0,5.0776e-5,1.297,98908
1.8063,208.41,239.53,135.34,46.75,-1.6841e-4,9.825,0.010542,0,0.44498,2.9565e-4,15979,6.2629,220.64,196.5,2.3486,0.71166,43571575,2529,215.47,0.73941,0.74023,0.40176,0.15181,0.18584,0.26043,0.61102,5.8605e-5,0,3.8202e-4,1.2966,98881
1.8163,210.74,240.89,135.31,47.351,-1.7116e-4,9.825,0.0097948,0,0.71666,3.0467e-4,15965,6.2609,220.76,196.48,2.3619,0.71567,43807626,2529,218.07,0.74028,0.74099,0.40152,0.15218,0.18658,0.24186,0.57029,-1.2064e-4,0,9.7989e-4,1.296,98853
1.8263,213.08,242.24,135.27,47.955,-1.7414e-4,9.825,0.0087931,0,0.96887,2.8525e-4,15951,6.2588,220.9,196.46,2.3778,0.71967,44043497,2529,220.67,0.74116,0.74173,0.40127,0.15255,0.18733,0.21694,0.51386,2.5693e-4,0,0.0017712,1.2952,98826
1.8363,215.43,243.59,135.23,48.562,-1.7735e-4,9.825,0.0075672,0,1.1942,3.2758e-4,15936,6.2568,221.07,196.43,2.3962,0.72368,44279188,2529,223.29,0.74204,0.74247,0.40103,0.15293,0.18808,0.18648,0.44412,-2.1486e-4,0,0.0026611,1.294,98798
1.8463,217.79,244.95,135.2,49.173,-1.8078e-4,9.825,0.0061541,0,1.3859,5.3108e-4,15922,6.2547,221.25,196.41,2.4166,0.72768,44514697,2529,225.93,0.74293,0.74321,0.40078,0.15331,0.18884,0.15144,0.36232,-4.3118e-4,0,0.003545,1.2927,98771
1.8563,220.17,246.3,135.17,49.788,-1.8441e-4,9.825,0.0045965,0,1.5382,7.7139e-4,15908,6.2527,221.46,196.39,2.4386,0.73168,4.475e7,2529,228.6,0.74382,0.74398,0.40054,0.15369,0.1896,0.11293,0.27145,3.7788e-4,0,0.0043198,1.2911,98743
1.8663,222.56,247.65,135.14,50.407,-1.8823e-4,9.825,0.0029415,0,1.6462,0.0011485,15893,6.2506,221.68,196.37,2.4618,0.73568,44985152,2529,231.29,0.74472,0.74478,0.40029,0.15407,0.19036,0.072143,0.17251,-2.1812e-4,0,0.0048942,1.2895,98715
1.8763,224.97,249,135.11,51.029,-1.9223e-4,9.825,0.0012397,0,1.7059,0.0027837,15879,6.2486,221.9,196.35,2.4856,0.73969,4.522e7,2529,234.01,0.74562,0.74563,0.40004,0.15445,0.19113,0.030351,0.07045,5.0297e-5,0,0.005199,1.2877,98687
1.8863,227.38,250.35,135.09,51.656,-1.964e-4,9.825,4.5616e-4,0,-1.715,0.0072267,15865,6.2465,222.02,196.33,2.4996,0.74369,45454802,2529,236.77,0.74653,0.74653,0.39979,0.15484,0.1919,0.011162,0.032789,-1.4644e-4,0,-0.0051984,1.2859,98658
1.8963,229.81,251.7,135.07,52.286,-2.007e-4,9.825,0.0020934,0,-1.6732,0.001451,15850,6.2444,221.88,196.3,2.4878,0.74769,45689301,2529,239.55,0.74744,0.74747,0.39953,0.15523,0.19267,0.051371,0.13267,5.0527e-5,0,-0.0048956,1.2841,98630
1.9063,232.26,253.05,135.05,52.921,-2.0511e-4,9.825,0.003621,0,-1.5822,7.5651e-4,15836,6.2424,221.75,196.28,2.4773,0.75169,45923570,2529,242.37,0.74836,0.74845,0.39928,0.15562,0.19345,0.089103,0.22546,9.5934e-5,0,-0.0043318,1.2824,98601
1.9163,234.71,254.39,135.04,53.56,-2.0961e-4,9.825,0.0049921,0,-1.4454,4.9976e-4,15822,6.2403,221.64,196.26,2.4685,0.75568,46157601,2529,245.21,0.74928,0.74947,0.39902,0.15601,0.19424,0.12315,0.30726,-1.4419e-4,0,-0.0035768,1.2808,98572
1.9263,237.18,255.74,135.02,54.203,-2.1417e-4,9.825,0.0061652,0,-1.2674,5.0419e-4,15808,6.2383,221.55,196.24,2.4619,0.75968,46391388,2529,248.08,0.7502,0.75049,0.39877,0.15641,0.19502,0.15243,0.378,-1.3693e-4,0,-0.0027216,1.2794,98543
1.9363,239.66,257.09,134.99,54.851,-2.1877e-4,9.8249,0.0071054,0,-1.0541,4.9639e-4,15793,6.2362,221.48,196.22,2.4578,0.76367,46624927,2529,250.96,0.75113,0.75152,0.39851,0.15681,0.19582,0.17602,0.43482,3.0029e-4,0,-0.0018631,1.2782,98514
1.9463,242.15,258.43,134.96,55.503,-2.2337e-4,9.8249,0.0077855,0,-0.81272,4.8347e-4,15779,6.2341,221.45,196.19,2.4565,0.76767,46858217,2529,253.86,0.75207,0.75253,0.39825,0.15721,0.19661,0.19316,0.47586,2.4412e-4,0,-0.001096,1.2772,98485
1.9563,244.66,259.78,134.93,56.16,-2.2793e-4,9.8249,0.008187,0,-0.55116,3.9991e-4,15765,6.232,221.44,196.17,2.4582,0.77166,47091260,2529,256.77,0.75301,0.75352,0.39799,0.15761,0.19741,0.20336,0.50079,-4.3351e-5,0,-4.9891e-4,1.2765,98456
1.9663,247.18,261.12,134.88,56.822,-2.3243e-4,9.8249,0.0083007,0,-0.27805,3.2106e-4,15750,6.23,221.47,196.15,2.4629,0.77565,47324057,2529,259.68,0.75396,0.75448,0.39773,0.15801,0.19821,0.20635,0.50869,2.5891e-4,0,-1.2567e-4,1.2761,98426
1.9763,249.71,262.46,134.82,57.488,-2.3681e-4,9.8249,0.0081266,0,-0.0023813,3.4984e-4,15736,6.2279,221.53,196.13,2.4706,0.77964,47556613,2529,262.6,0.75491,0.75541,0.39747,0.15842,0.19902,0.20209,0.49922,2.7156e-4,0,-9.1244e-9,1.2759,98396
1.9863,252.26,263.81,134.76,58.159,-2.4107e-4,9.8249,0.0076745,0,0.26633,4.003e-4,15722,6.2258,221.61,196.11,2.4813,0.78363,47788931,2529,265.53,0.75586,0.75631,0.3972,0.15883,0.19983,0.19085,0.47302,5.8038e-5,0,1.1298e-4,1.276,98366
1.9963,254.81,265.15,134.68,58.834,-2.4518e-4,9.8249,0.0069639,0,0.51882,3.9567e-4,15707,6.2238,221.73,196.08,2.4947,0.78761,48021013,2529,268.47,0.75682,0.75719,0.39694,0.15924,0.20064,0.17312,0.43132,-4.48e-5,0,4.2445e-4,1.2765,98336
2.0063,257.38,266.49,134.6,59.514,-2.4912e-4,9.8249,0.006023,0,0.74621,4.634e-4,15693,6.2217,221.87,196.06,2.5105,0.7916,48252861,2529,271.43,0.75778,0.75806,0.39667,0.15965,0.20146,0.14963,0.37498,-3.7324e-4,0,8.6927e-4,1.2771,98306
2.0163,259.97,267.83,134.51,60.198,-2.5288e-4,9.8249,0.0048883,0,0.93997,5.6496e-4,15679,6.2196,222.03,196.04,2.5285,0.79559,48484471,2529,274.4,0.75875,0.75894,0.39641,0.16006,0.20228,0.12133,0.30526,1.2453e-4,0,0.0013656,1.278,98276
2.0263,262.56,269.17,134.42,60.887,-2.5647e-4,9.8249,0.003604,0,1.0928,7.4815e-4,15664,6.2175,222.21,196.02,2.5481,0.79957,48715842,2529,277.39,0.75973,0.75983,0.39614,0.16048,0.20311,0.089347,0.22626,4.9277e-4,0,0.0018275,1.2791,98246
2.0363,265.17,270.52,134.33,61.58,-2.5988e-4,9.8249,0.0022195,0,1.1987,0.0011187,15650,6.2154,222.4,195.99,2.5688,0.80355,48946965,2529,280.41,0.7607,0.76074,0.39587,0.1609,0.20394,0.054953,0.1391,-2.994e-4,0,0.0021774,1.2803,98215
2.0463,267.79,271.86,134.24,62.278,-2.6313e-4,9.8249,7.8838e-4,0,1.2538,0.0031706,15636,6.2133,222.6,195.97,2.5901,0.80753,49177834,2529,283.46,0.76169,0.76169,0.39559,0.16132,0.20477,0.019494,0.048543,-6.2108e-5,0,0.0023586,1.2816,98184
2.0563,270.42,273.2,134.15,62.979,-2.6624e-4,9.8248,6.3377e-4,0,-1.2553,0.0039312,15622,6.2113,222.65,195.95,2.5979,0.81151,49408438,2529,286.54,0.76267,0.76268,0.39532,0.16174,0.20561,0.015678,0.043103,-4.4039e-4,0,-0.0023414,1.2829,98153
2.0662,273.07,274.54,134.07,63.685,-2.6925e-4,9.8248,0.0019915,0,-1.2035,0.0012773,15607,6.2092,222.55,195.93,2.5895,0.81549,49638768,2529,289.65,0.76367,0.7637,0.39505,0.16217,0.20645,0.04939,0.13041,2.1377e-4,0,-0.0021313,1.2842,98122
2.0762,275.73,275.88,133.99,64.394,-2.7218e-4,9.8248,0.0032321,0,-1.1008,8.6107e-4,15593,6.2071,222.45,195.9,2.5824,0.81947,49868816,2529,292.79,0.76466,0.76474,0.39477,0.16259,0.2073,0.08035,0.20901,-6.1838e-5,0,-0.0017661,1.2854,98091
2.0862,278.4,277.22,133.91,65.108,-2.7509e-4,9.8248,0.004308,0,-0.95177,7.0956e-4,15579,6.205,222.37,195.88,2.5772,0.82344,50098574,2529,295.96,0.76567,0.76581,0.3945,0.16302,0.20815,0.10733,0.27788,2.6124e-4,0,-0.0013075,1.2865,98060
2.0962,281.08,278.56,133.84,65.825,-2.7805e-4,9.8248,0.0051788,0,-0.76321,4.763e-4,15564,6.2029,222.32,195.86,2.5742,0.82742,50328037,2529,299.14,0.76667,0.76688,0.39422,0.16345,0.209,0.12927,0.33398,-4.0807e-4,0,-8.3277e-4,1.2874,98028
2.1062,283.78,279.89,133.76,66.546,-2.8109e-4,9.8248,0.0058128,0,-0.54272,3.47e-4,15550,6.2008,222.29,195.84,2.5737,0.83139,50557202,2529,302.34,0.76768,0.76794,0.39394,0.16388,0.20986,0.14532,0.37478,4.3384e-4,0,-4.1711e-4,1.2881,97997
2.1162,286.49,281.23,133.69,67.27,-2.8428e-4,9.8248,0.006188,0,-0.29948,2.5147e-4,15536,6.1987,222.29,195.81,2.5759,0.83535,50786070,2529,305.55,0.7687,0.76899,0.39366,0.16432,0.21072,0.15489,0.3995,2.0881e-4,0,-1.2581e-4,1.2885,97965
2.1262,289.22,282.57,133.61,67.998,-2.8764e-4,9.8248,0.0062932,0,-0.043722,1.5778e-4,15521,6.1966,222.32,195.79,2.581,0.83932,51014641,2529,308.77,0.76972,0.77002,0.39338,0.16476,0.21158,0.15765,0.40687,-2.7485e-4,0,-2.6565e-6,1.2887,97933
2.1362,291.95,283.9,133.54,68.73,-2.9118e-4,9.8248,0.0061283,0,0.21405,1.6999e-4,15507,6.1945,222.38,195.77,2.589,0.84329,51242918,2529,312,0.77074,0.77103,0.3931,0.1652,0.21245,0.15359,0.39803,-4.2445e-4,0,6.3078e-5,1.2886,97901
2.1462,294.7,285.24,133.46,69.465,-2.9493e-4,9.8248,0.0057043,0,0.46279,2.0647e-4,15493,6.1924,222.47,195.74,2.5997,0.84725,51470902,2529,315.24,0.77177,0.77202,0.39281,0.16564,0.21332,0.14298,0.37114,-4.3633e-8,0,2.9212e-4,1.2882,97869
2.1562,297.46,286.57,133.38,70.204,-2.9887e-4,9.8248,0.0050436,0,0.69154,1.3202e-4,15479,6.1903,222.58,195.72,2.6129,0.85121,51698596,2529,318.49,0.7728,0.773,0.39253,0.16608,0.21419,0.12639,0.33005,-1.5313e-6,0,6.4627e-4,1.2876,97836
2.1662,300.24,287.91,133.3,70.947,-3.0301e-4,9.8248,0.0041787,-5.146e-8,0.89047,1.3517e-4,15464,6.1882,222.72,195.7,2.6283,0.85517,51925998,2529,321.76,0.77384,0.77398,0.39224,0.16653,0.21507,0.10467,0.27394,-2.7054e-4,0,0.0010617,1.2868,97804
2.1762,303.03,289.24,133.22,71.693,-3.0732e-4,9.8247,0.0031512,-4.9777e-8,1.0505,3.4383e-4,15450,6.1861,222.87,195.68,2.6454,0.85913,52153107,2529,325.05,0.77488,0.77496,0.39196,0.16697,0.21595,0.078875,0.20734,4.7807e-4,0,0.001464,1.2858,97771
2.1862,305.83,290.57,133.15,72.443,-3.1178e-4,9.8247,0.0020097,-4.9438e-8,1.1642,6.0422e-4,15436,6.184,223.04,195.65,2.6638,0.86308,5.238e7,2529,328.36,0.77593,0.77596,0.39167,0.16742,0.21684,0.050262,0.13178,-2.6975e-4,0,0.0017818,1.2846,97738
2.1962,308.64,291.9,133.08,73.197,-3.1638e-4,9.8247,8.085e-4,-4.8729e-8,1.2266,0.0015625,15421,6.1819,223.21,195.63,2.6829,0.86704,52606423,2529,331.7,0.77698,0.77698,0.39138,0.16787,0.21773,0.020201,0.052122,1.3749e-4,0,0.0019601,1.2834,97705
2.2062,311.47,293.23,133.02,73.955,-3.2109e-4,9.8247,3.9595e-4,-4.9257e-8,-1.2346,0.0031027,15407,6.1798,223.3,195.61,2.6936,0.87099,52832617,2529,335.07,0.77803,0.77804,0.39109,0.16833,0.21862,0.0098946,0.028708,4.0732e-4,0,-0.0019679,1.2821,97672
2.2162,314.3,294.56,132.95,74.717,-3.2592e-4,9.8247,0.0015467,-5.0977e-8,-1.1879,7.2856e-4,15393,6.1777,223.21,195.58,2.6877,0.87494,53058491,2529,338.47,0.77909,0.77911,0.3908,0.16878,0.21952,0.038741,0.10578,4.0496e-4,0,-0.0018057,1.2808,97639
