Time (s),Altitude (m),Total velocity (m/s),Total acceleration (m/s),Position East of launch (m),Position North of launch (m),Gravitational acceleration (m/s),Angle of attack (rad),Roll rate (rpm),Pitch rate (rpm),Yaw rate (rpm),Mass (g),Longitudinal moment of inertia (kgm),CP location (cm),CG location (cm),Stability margin calibers (?),Mach number (?),Reynolds number (?),Thrust (N),Drag force (N),Drag coefficient (?),Axial drag coefficient (?),Friction drag coefficient (?),Pressure drag coefficient (?),Base drag coefficient (?),Normal force coefficient (?),Pitch moment coefficient (?),Yaw moment coefficient (?),Roll damping coefficient (?),Pitch damping coefficient (?),Vertical orientation (zenith) (rad),Air pressure (Pa)
0,0,0,35.764,0,0,9.8221,1.3963,0,0,0,18553,6.611,NaN,199.83,NaN,0.041129,2564862,843,0.0090054,0.75355,0.0090379,0.51385,0.11948,0.12022,NaN,NaN,NaN,NaN,NaN,1.3963,101325
2e-3,7.0442e-5,0.071529,115.28,1.2421e-5,0,9.8221,1.3912,0,0,0,18553,6.611,NaN,199.83,NaN,0.041166,2567169,2318.2,0.0097904,0.75347,0.009808,0.51376,0.11948,0.12022,NaN,NaN,NaN,NaN,NaN,1.3963,101325
4e-3,4.384e-4,0.30211,126.65,7.7302e-5,0,9.8221,1.3751,0,0,0,18551,6.6107,NaN,199.83,NaN,0.041293,2575049,2529,0.012613,0.75318,0.012558,0.51348,0.11949,0.12022,NaN,NaN,NaN,NaN,NaN,1.3963,101325
6e-3,0.0012829,0.55545,126.67,2.2621e-4,0,9.8221,1.3575,0,0,0,18549,6.6104,NaN,199.82,NaN,0.041444,2584475,2529,0.016254,0.75285,0.016066,0.51314,0.11949,0.12022,NaN,NaN,NaN,NaN,NaN,1.3963,101325
8e-3,0.0026265,0.80882,126.69,4.6312e-4,0,9.8221,1.34,0,0,0,18546,6.6101,NaN,199.82,NaN,0.041608,2594699,2529,0.020497,0.75248,0.020101,0.51277,0.11949,0.12023,NaN,NaN,NaN,NaN,NaN,1.3963,101325
0.01,0.0044691,1.0622,126.71,7.8802e-4,0,9.8221,1.3226,0,0,0,18543,6.6097,NaN,199.82,NaN,0.041784,2605711,2529,0.025374,0.75209,0.024674,0.51237,0.11949,0.12023,NaN,NaN,NaN,NaN,NaN,1.3963,101325
0.012,0.0068109,1.3157,126.73,0.0012009,0,9.8221,1.3054,0,0,0,18540,6.6093,NaN,199.81,NaN,0.041974,2617503,2529,0.030917,0.75167,0.029793,0.51196,0.11949,0.12023,NaN,NaN,NaN,NaN,NaN,1.3963,101325
0.014,0.009652,1.5692,126.75,0.0017019,0,9.8221,1.2884,0,0,0,18537,6.6089,NaN,199.81,NaN,0.042175,2630064,2529,0.037154,0.75123,0.035462,0.51151,0.11949,0.12023,NaN,NaN,NaN,NaN,NaN,1.3963,101325
0.016,0.012992,1.8227,126.77,0.0022909,0,9.8221,1.2715,0,0,0,18534,6.6086,NaN,199.81,NaN,0.042389,2643383,2529,0.044111,0.75077,0.041679,0.51104,0.11949,0.12023,NaN,NaN,NaN,NaN,NaN,1.3963,101325
0.018,0.016832,2.0763,126.8,0.002968,0,9.8221,1.2548,0,0,0,18531,6.6082,NaN,199.8,NaN,0.042614,2657449,2529,0.051813,0.75028,0.048439,0.51055,0.11949,0.12024,NaN,NaN,NaN,NaN,NaN,1.3963,101325
0.02,0.021172,2.33,126.82,0.0037331,0,9.8221,1.2383,0,0,0,18529,6.6078,NaN,199.8,NaN,0.042852,2672252,2529,0.06028,0.74977,0.055732,0.51004,0.11949,0.12024,NaN,NaN,NaN,NaN,NaN,1.3963,101325
0.022,0.02601,2.5836,126.84,0.0045864,0,9.8221,1.222,0,0,0,18526,6.6075,NaN,199.8,NaN,0.043101,2687779,2529,0.069533,0.74924,0.063547,0.5095,0.11949,0.12024,NaN,NaN,NaN,NaN,NaN,1.3963,101325
0.024,0.031349,2.8373,126.86,0.0055277,0,9.8221,1.2058,0,0,0,18523,6.6071,NaN,199.79,NaN,0.043361,2704018,2529,0.079589,0.74869,0.071866,0.50895,0.1195,0.12024,NaN,NaN,NaN,NaN,NaN,1.3963,101325
0.026,0.037187,3.0911,126.88,0.0065571,0,9.8221,1.1898,0,0,0,18520,6.6067,NaN,199.79,NaN,0.043633,2720958,2529,0.090465,0.74812,0.080673,0.50837,0.1195,0.12025,NaN,NaN,NaN,NaN,NaN,1.3963,101325
0.028,0.043526,3.3449,126.9,0.0076747,0,9.8221,1.1741,0,0,0,18517,6.6064,NaN,199.79,NaN,0.043915,2738584,2529,0.10217,0.74753,0.089945,0.50778,0.1195,0.12025,NaN,NaN,NaN,NaN,NaN,1.3963,101324
0.03,0.050364,3.5987,126.92,0.0088805,0,9.8221,1.1585,0,0,0,18514,6.606,NaN,199.78,NaN,0.044209,2756885,2529,0.11473,0.74692,0.099661,0.50717,0.1195,0.12025,NaN,NaN,NaN,NaN,NaN,1.3963,101324
0.032,0.057702,3.8526,126.94,0.010174,0,9.8221,1.1432,0,0,0,18511,6.6056,NaN,199.78,NaN,0.044513,2775847,2529,0.12814,0.7463,0.1098,0.50654,0.1195,0.12026,NaN,NaN,NaN,NaN,NaN,1.3963,101324
0.034,0.06554,4.1065,126.96,0.011556,0,9.8221,1.128,0,0,0,18508,6.6053,NaN,199.78,NaN,0.044827,2795457,2529,0.14242,0.74566,0.12032,0.5059,0.1195,0.12026,NaN,NaN,NaN,NaN,NaN,1.3963,101324
0.036,0.073878,4.3604,126.98,0.013027,0,9.8221,1.1131,0,0,0,18506,6.6049,NaN,199.78,NaN,0.045152,2815703,2529,0.15757,0.74501,0.13121,0.50524,0.11951,0.12027,NaN,NaN,NaN,NaN,NaN,1.3963,101324
0.038,0.082717,4.6144,127,0.014585,0,9.8221,1.0984,0,0,0,18503,6.6045,NaN,199.77,NaN,0.045487,2836570,2529,0.1736,0.74435,0.14244,0.50457,0.11951,0.12027,NaN,NaN,NaN,NaN,NaN,1.3963,101324
0.04,0.092056,4.8685,127.02,0.016232,0,9.8221,1.0839,0,0,0,18500,6.6042,NaN,199.77,NaN,0.045831,2858046,2529,0.19051,0.74367,0.15398,0.50388,0.11951,0.12027,NaN,NaN,NaN,NaN,NaN,1.3963,101324
0.042,0.10189,5.1225,127.04,0.017967,0,9.8221,1.0696,0,0,0,18497,6.6038,NaN,199.77,NaN,0.046185,2880118,2529,0.20832,0.74298,0.1658,0.50319,0.11951,0.12028,NaN,NaN,NaN,NaN,NaN,1.3963,101324
0.044,0.11223,5.3767,127.06,0.01979,0,9.8221,1.0555,0,0,0,18494,6.6034,NaN,199.76,NaN,0.046549,2902771,2529,0.22701,0.74227,0.17787,0.50248,0.11951,0.12028,NaN,NaN,NaN,NaN,NaN,1.3963,101324
0.046,0.12307,5.6308,127.08,0.021701,0,9.8221,1.0417,0,0,0,18491,6.6031,NaN,199.76,NaN,0.046921,2925994,2529,0.2466,0.74156,0.19017,0.50176,0.11952,0.12029,NaN,NaN,NaN,NaN,NaN,1.3963,101324
0.048,0.13442,5.885,127.1,0.023701,0,9.8221,1.028,0,0,0,18488,6.6027,NaN,199.76,NaN,0.047302,2949772,2529,0.26708,0.74084,0.20265,0.50103,0.11952,0.12029,NaN,NaN,NaN,NaN,NaN,1.3963,101323
0.05,0.14626,6.1392,127.12,0.025789,0,9.8221,1.0146,0,0,0,18486,6.6023,NaN,199.75,NaN,0.047692,2974093,2529,0.28846,0.74011,0.21531,0.50029,0.11952,0.1203,NaN,NaN,NaN,NaN,NaN,1.3963,101323
0.052,0.1586,6.3935,127.14,0.027965,0,9.8221,1.0014,0,0,0,18483,6.602,NaN,199.75,NaN,0.048091,2998944,2529,0.31072,0.73937,0.2281,0.49954,0.11952,0.1203,NaN,NaN,NaN,NaN,NaN,1.3963,101323
0.054,0.17144,6.6478,127.16,0.03023,0,9.8221,0.98847,0,0,0,18480,6.6016,NaN,199.75,NaN,0.048498,3024313,2529,0.33388,0.73862,0.24101,0.49879,0.11953,0.12031,NaN,NaN,NaN,NaN,NaN,1.3963,101323
0.056,0.18479,6.9022,127.18,0.032583,0,9.8221,0.97571,0,0,0,18477,6.6012,NaN,199.74,NaN,0.048913,3050185,2529,0.35793,0.73787,0.254,0.49803,0.11953,0.12031,NaN,NaN,NaN,NaN,NaN,1.3963,101323
0.058,0.19863,7.1566,127.2,0.035024,0,9.8221,0.96317,0,0,0,18474,6.6009,NaN,199.74,NaN,0.049336,3076550,2529,0.38286,0.73711,0.26706,0.49726,0.11953,0.12032,NaN,NaN,NaN,NaN,NaN,1.3963,101323
0.06,0.21298,7.411,127.22,0.037554,0,9.8221,0.95083,0,0,0,18471,6.6005,NaN,199.74,NaN,0.049766,3103395,2529,0.40868,0.73635,0.28015,0.49649,0.11953,0.12032,NaN,NaN,NaN,NaN,NaN,1.3963,101323
0.062,0.22783,7.6655,127.24,0.040172,0,9.8221,0.93871,0,0,0,18468,6.6001,NaN,199.73,NaN,0.050204,3130708,2529,0.43537,0.73558,0.29326,0.49571,0.11954,0.12033,NaN,NaN,NaN,NaN,NaN,1.3963,101322
0.064,0.24317,7.92,127.26,0.042878,0,9.8221,0.9268,0,0,0,18466,6.5998,NaN,199.73,NaN,0.05065,3158477,2529,0.46293,0.73481,0.30637,0.49493,0.11954,0.12033,NaN,NaN,NaN,NaN,NaN,1.3963,101322
0.066,0.25902,8.1746,127.28,0.045673,0,9.8221,0.9151,0,0,0,18463,6.5994,NaN,199.73,NaN,0.051102,3186691,2529,0.49136,0.73403,0.31945,0.49415,0.11954,0.12034,NaN,NaN,NaN,NaN,NaN,1.3963,101322
0.068,0.27538,8.4292,127.3,0.048556,0,9.8221,0.9036,0,0,0,18460,6.599,NaN,199.72,NaN,0.051562,3215337,2529,0.52066,0.73325,0.33249,0.49336,0.11955,0.12035,NaN,NaN,NaN,NaN,NaN,1.3963,101322
0.07,0.29223,8.6838,127.32,0.051528,0,9.8221,0.89231,0,0,0,18457,6.5986,NaN,199.72,NaN,0.052028,3244405,2529,0.5508,0.73247,0.34547,0.49257,0.11955,0.12035,NaN,NaN,NaN,NaN,NaN,1.3963,101322
0.072,0.30958,8.9385,127.34,0.054588,0,9.8221,0.88121,0,0,0,18454,6.5983,NaN,199.72,NaN,0.052501,3273885,2529,0.5818,0.73169,0.35837,0.49178,0.11955,0.12036,NaN,NaN,NaN,NaN,NaN,1.3963,101321
0.074,0.32744,9.1932,127.36,0.057736,0,9.8221,0.87031,0,0,0,18451,6.5979,NaN,199.71,NaN,0.05298,3303764,2529,0.61364,0.7309,0.37117,0.49098,0.11955,0.12036,NaN,NaN,NaN,NaN,NaN,1.3963,101321
0.076,0.3458,9.4479,127.38,0.060973,0,9.8221,0.85961,0,0,0,18448,6.5975,NaN,199.71,NaN,0.053465,3334033,2529,0.64631,0.73011,0.38387,0.49019,0.11956,0.12037,NaN,NaN,NaN,NaN,NaN,1.3963,101321
0.078,0.36466,9.7027,127.4,0.064299,0,9.8221,0.8491,0,0,0,18446,6.5972,NaN,199.71,NaN,0.053957,3364682,2529,0.67981,0.72933,0.39644,0.48939,0.11956,0.12038,NaN,NaN,NaN,NaN,NaN,1.3963,101321
0.08,0.38402,9.9575,127.42,0.067713,0,9.8221,0.83878,0,0,0,18443,6.5968,NaN,199.7,NaN,0.054454,3395700,2529,0.71413,0.72854,0.40889,0.48859,0.11956,0.12039,NaN,NaN,NaN,NaN,NaN,1.3963,101320
0.082,0.40388,10.212,127.44,0.071215,0,9.8221,0.82865,0,0,0,18440,6.5964,NaN,199.7,NaN,0.054958,3427077,2529,0.74927,0.72776,0.42118,0.4878,0.11957,0.12039,NaN,NaN,NaN,NaN,NaN,1.3963,101320
0.084,0.42425,10.467,127.45,0.074806,0,9.8221,0.8187,0,0,0,18437,6.5961,NaN,199.7,NaN,0.055467,3458805,2529,0.78521,0.72697,0.43332,0.487,0.11957,0.1204,NaN,NaN,NaN,NaN,NaN,1.3963,101320
0.086,0.44512,10.722,127.47,0.078486,0,9.8221,0.80893,0,0,0,18434,6.5957,NaN,199.69,NaN,0.055981,3490874,2529,0.82195,0.72619,0.4453,0.4862,0.11958,0.12041,NaN,NaN,NaN,NaN,NaN,1.3963,101320
0.088,0.46649,10.977,127.49,0.082254,0,9.8221,0.79933,0,0,0,18431,6.5953,NaN,199.69,NaN,0.056501,3523275,2529,0.85948,0.7254,0.45711,0.48541,0.11958,0.12042,NaN,NaN,NaN,NaN,NaN,1.3963,101320
0.09,0.48836,11.232,127.51,0.086111,0,9.8221,0.78992,0,0,0,18428,6.595,NaN,199.69,NaN,0.057025,3555999,2529,0.89779,0.72462,0.46874,0.48462,0.11958,0.12042,NaN,NaN,NaN,NaN,NaN,1.3963,101319
0.092,0.51073,11.487,127.54,0.090056,0,9.8221,0.78067,0,0,0,18426,6.5946,183.94,199.68,-1.5319,0.057555,3589037,2529,0.93687,0.72384,0.48018,0.48382,0.11959,0.12043,25.924,-88.501,-3.2873e-4,0,0,1.3963,101319
0.095,0.54524,11.87,127.56,0.096135,0,9.8221,0.76701,0,-0.076892,5.7101e-8,18422,6.5941,184.11,199.68,-1.5142,0.058353,3638764,2529,0.99699,0.72268,0.49712,0.48265,0.11959,0.12044,25.433,-85.602,1.1303e-4,0,-0.0016885,1.3963,101319
0.0995,0.59912,12.444,127.59,0.10561,0,9.8221,0.74725,0,-0.19139,-1.7443e-7,18417,6.5934,184.39,199.67,-1.4872,0.059569,3714586,2529,1.0902,0.72096,0.52164,0.4809,0.1196,0.12046,24.724,-81.4,-2.7939e-4,0,-0.010038,1.3963,101318
0.10625,0.68471,13.306,127.65,0.12062,0,9.8221,0.71917,0,-0.36114,-1.9684e-7,18409,6.5924,184.81,199.67,-1.4455,0.061435,3830911,2529,1.2367,0.7184,0.55635,0.47829,0.11962,0.12049,23.718,-75.423,-1.1841e-4,0,-0.033604,1.3965,101317
0.11625,0.82208,14.583,127.72,0.14462,0,9.8221,0.68079,0,-0.60793,-1.5299e-7,18397,6.5909,185.45,199.65,-1.3819,0.064283,4008422,2529,1.4678,0.71468,0.6031,0.47451,0.11964,0.12054,22.354,-67.271,2.801e-4,0,-0.086973,1.397,101315
0.12625,0.97204,15.861,127.82,0.1707,0,9.8221,0.64593,0,-0.84864,-5.4143e-7,18382,6.589,186.1,199.64,-1.317,0.067218,4191393,2529,1.7146,0.71107,0.64433,0.47082,0.11966,0.12059,21.132,-59.912,-1.4616e-4,0,-0.155,1.3978,101314
0.13625,1.1346,17.14,127.91,0.19884,0,9.8221,0.61423,0,-1.0828,-2.3201e-7,18368,6.5872,186.75,199.62,-1.2519,0.070229,4379123,2529,1.9761,0.70757,0.68031,0.46724,0.11969,0.12064,20.039,-53.292,2.4284e-4,0,-0.23115,1.3988,101312
0.14625,1.3098,18.42,128,0.22903,0,9.8221,0.58539,0,-1.3098,-4.5261e-7,18354,6.5853,187.4,199.6,-1.1872,0.073308,4571004,2529,2.2516,0.70418,0.71141,0.46377,0.11972,0.1207,19.064,-47.35,-1.6072e-5,0,-0.31045,1.4001,101310
0.15625,1.4977,19.7,128.09,0.26124,0,9.8221,0.55911,0,-1.5294,-9.0686e-7,18339,6.5835,188.04,199.59,-1.1236,0.076444,4766515,2529,2.5401,0.70092,0.73806,0.46042,0.11975,0.12076,18.194,-42.021,-4.5258e-5,0,-0.38922,1.4016,101307
0.16625,1.6982,20.982,128.18,0.29542,0,9.8221,0.53513,0,-1.7409,-2.1394e-6,18325,6.5816,188.66,199.57,-1.0613,0.079632,4965207,2529,2.8409,0.69778,0.76074,0.45718,0.11978,0.12082,17.418,-37.243,-1.7879e-4,0,-0.46477,1.4033,101305
0.17625,1.9114,22.264,128.27,0.33156,0,9.8221,0.51323,0,-1.944,-2.5691e-6,18311,6.5798,189.27,199.55,-1.0007,0.082866,5166697,2529,3.1537,0.69476,0.77989,0.45406,0.11981,0.12089,16.725,-32.956,4.9243e-4,0,-0.53522,1.4052,101303
0.18625,2.1373,23.548,128.36,0.36961,0,9.8221,0.49319,0,-2.1383,-3.0101e-6,18296,6.5779,189.85,199.54,-0.94209,0.086138,5370652,2529,3.4777,0.69186,0.79594,0.45105,0.11985,0.12096,16.106,-29.108,-1.6312e-4,0,-0.59929,1.4073,101300
0.19625,2.3759,24.832,128.45,0.40952,0,9.8221,0.47484,0,-2.3234,-1.5665e-6,18282,6.5761,190.42,199.52,-0.88551,0.089446,5576785,2529,3.8128,0.68907,0.80929,0.44815,0.11988,0.12104,15.552,-25.653,1.6373e-4,0,-0.65617,1.4097,101297
0.20625,2.6272,26.117,128.54,0.45125,0,9.8221,0.458,0,-2.499,-8.333e-7,18268,6.5742,190.96,199.51,-0.83108,0.092785,5784849,2529,4.1585,0.68639,0.8203,0.44535,0.11992,0.12112,15.056,-22.544,2.2337e-4,0,-0.70541,1.4122,101294
0.21625,2.8912,27.402,128.63,0.49476,0,9.8221,0.44254,0,-2.6646,-5.053e-7,18254,6.5723,191.48,199.49,-0.77886,0.096152,5994627,2529,4.5146,0.68382,0.82929,0.44266,0.11996,0.1212,14.61,-19.745,-2.6914e-4,0,-0.74681,1.4149,101291
0.22625,3.168,28.689,128.72,0.53998,0,9.8221,0.42831,0,-2.8199,2.1074e-6,18239,6.5705,191.98,199.47,-0.72885,0.099544,6205933,2529,4.8809,0.68135,0.83655,0.44006,0.12,0.12129,14.209,-17.221,-3.3367e-4,0,-0.78039,1.4178,101288
0.23625,3.4575,29.976,128.81,0.58686,0,9.8221,0.41521,0,-2.9646,4.0065e-6,18225,6.5686,192.45,199.46,-0.68103,0.10296,6418602,2529,5.2572,0.67897,0.84233,0.43755,0.12005,0.12138,13.848,-14.941,-1.4376e-4,0,-0.8063,1.4208,101284
0.24625,3.7599,31.264,128.9,0.63534,5.8713e-9,9.8221,0.40313,0,-3.0984,1.6376e-6,18211,6.5668,192.91,199.44,-0.63538,0.10639,6632491,2529,5.6436,0.67668,0.84684,0.43512,0.12009,0.12147,13.522,-12.879,-4.1072e-4,0,-0.82479,1.424,101281
0.25625,4.075,32.553,128.99,0.68536,7.2875e-9,9.8221,0.39196,0,-3.221,7.7645e-7,18196,6.5649,193.34,199.42,-0.59182,0.10984,6847474,2529,6.0399,0.67449,0.85028,0.43278,0.12014,0.12157,13.226,-11.009,2.71e-4,0,-0.83622,1.4273,101277
0.26625,4.403,33.842,129.08,0.73685,8.7797e-9,9.8221,0.38163,0,-3.332,-1.7851e-6,18182,6.5631,193.75,199.41,-0.55029,0.11331,7063440,2529,6.4462,0.67237,0.8528,0.43052,0.12019,0.12167,12.959,-9.3135,3.7093e-4,0,-0.84096,1.4307,101273
0.27625,4.7438,35.132,129.17,0.78974,1.0361e-8,9.8221,0.37206,0,-3.4313,-1.9291e-6,18168,6.5612,194.14,199.39,-0.51071,0.11679,7280293,2529,6.8623,0.67034,0.85456,0.42833,0.12024,0.12177,12.715,-7.7705,1.6614e-4,0,-0.83944,1.4343,101269
0.28625,5.0974,36.423,129.26,0.84397,1.206e-8,9.8221,0.36317,0,-3.5185,-2.3595e-6,18153,6.5593,194.51,199.37,-0.47298,0.12029,7497946,2529,7.2884,0.66838,0.85567,0.42621,0.12029,0.12188,12.493,-6.3645,3.518e-5,0,-0.8321,1.4379,101265
0.29625,5.4639,37.714,129.35,0.89946,1.3916e-8,9.8221,0.3549,0,-3.5933,-5.8775e-6,18139,6.5575,194.86,199.36,-0.43699,0.1238,7716322,2529,7.7244,0.66649,0.85624,0.42416,0.12034,0.12199,12.291,-5.0797,3.0628e-4,0,-0.81939,1.4416,101261
0.30625,5.8433,39.006,129.44,0.95613,1.6011e-8,9.8221,0.34719,0,-3.6558,-6.1811e-6,18125,6.5556,195.2,199.34,-0.40265,0.12731,7935357,2529,8.1746,0.66501,0.8568,0.42251,0.1204,0.12211,12.065,-4.0564,-8.6302e-5,0,-0.80191,1.4454,101256
0.31625,6.2356,40.299,129.53,1.0139,1.8446e-8,9.8221,0.34001,0,-3.7116,-4.8538e-6,18110,6.5537,195.52,199.32,-0.36992,0.13084,8155024,2529,8.6555,0.66515,0.85897,0.42247,0.12046,0.12223,11.742,-3.5609,3.6616e-4,0,-0.78259,1.4493,101252
0.32625,6.6408,41.592,129.61,1.0727,2.1318e-8,9.8221,0.3333,0,-3.7631,-3.2312e-6,18096,6.5519,195.82,199.31,-0.33873,0.13438,8375282,2529,9.1486,0.66529,0.86076,0.42243,0.12052,0.12235,11.443,-3.1128,-2.1875e-4,0,-0.76268,1.4532,101247
0.33625,7.0589,42.886,129.7,1.1325,2.4708e-8,9.8221,0.32704,0,-3.8105,2.7282e-6,18082,6.55,196.11,199.29,-0.30901,0.13793,8596081,2529,9.6539,0.66544,0.86222,0.42239,0.12058,0.12247,11.166,-2.7077,-1.0272e-5,0,-0.74231,1.4572,101242
0.34625,7.49,44.18,129.79,1.1932,2.8624e-8,9.8221,0.32119,0,-3.8538,4.4359e-7,18068,6.5481,196.39,199.27,-0.2807,0.14149,8817376,2529,10.171,0.66559,0.86339,0.42234,0.12064,0.1226,10.909,-2.3408,-3.6393e-5,0,-0.72159,1.4612,101237
0.35625,7.9341,45.475,129.88,1.2547,3.3054e-8,9.8221,0.31572,0,-3.893,9.0174e-7,18053,6.5463,196.65,199.26,-0.25372,0.14505,9039126,2529,10.701,0.66574,0.86433,0.4223,0.1207,0.12274,10.67,-2.0063,7.1932e-5,0,-0.70061,1.4652,101232
0.36625,8.3911,46.77,129.97,1.3169,3.7994e-8,9.8221,0.31059,0,-3.9281,1.0316e-7,18039,6.5444,196.9,199.24,-0.22799,0.14862,9261293,2529,11.244,0.6659,0.86506,0.42226,0.12077,0.12287,10.448,-1.7027,-8.1827e-5,0,-0.67945,1.4693,101227
0.37625,8.8611,48.066,130.06,1.3798,4.3434e-8,9.8221,0.30579,0,-3.9592,-3.3739e-6,18025,6.5425,197.13,199.22,-0.20346,0.1522,9483845,2529,11.798,0.66606,0.86562,0.42221,0.12084,0.12301,10.242,-1.4256,-2.3688e-4,0,-0.65817,1.4735,101221
0.38625,9.3441,49.362,130.14,1.4433,4.9416e-8,9.8221,0.30128,0,-3.9862,1.2381e-6,18010,6.5406,197.35,199.21,-0.18005,0.15578,9706748,2529,12.366,0.66623,0.86603,0.42216,0.12091,0.12315,10.049,-1.1728,-2.1279e-4,0,-0.63685,1.4776,101215
0.39625,9.84,50.659,130.23,1.5073,5.5948e-8,9.8221,0.29704,0,-4.0092,4.3855e-7,17996,6.5388,197.57,199.19,-0.1577,0.15937,9.93e6,2529,12.946,0.6664,0.86632,0.42212,0.12098,0.1233,9.8686,-0.9409,-3.0386e-4,0,-0.61554,1.4818,101210
0.40625,10.349,51.956,130.32,1.5718,6.2997e-8,9.8221,0.29305,0,-4.0282,4.9284e-6,17982,6.5369,197.77,199.17,-0.13633,0.16297,10153502,2529,13.538,0.66657,0.86645,0.42207,0.12105,0.12345,9.7,-0.72787,4.2377e-4,0,-0.59428,1.486,101204
0.41625,10.871,53.254,130.42,1.6365,7.0528e-8,9.8221,0.28929,0,-4.0431,-5.108e-7,17967,6.535,197.96,199.15,-0.1159,0.16656,10377302,2529,14.141,0.66675,0.86641,0.42202,0.12113,0.12361,9.542,-0.53252,-6.3929e-5,0,-0.5731,1.4902,101198
0.42625,11.406,54.552,130.51,1.7016,7.8516e-8,9.8221,0.28574,0,-4.054,-7.8722e-7,17953,6.5331,198.15,199.14,-0.096323,0.17017,10601355,2529,14.755,0.66694,0.86622,0.42197,0.1212,0.12376,9.3937,-0.35319,3.9023e-4,0,-0.55206,1.4945,101191
0.43625,11.954,55.85,130.6,1.7668,8.6992e-8,9.8221,0.28239,0,-4.0609,-5.3016e-8,17939,6.5313,198.32,199.12,-0.077555,0.17378,10825641,2529,15.381,0.66712,0.86591,0.42191,0.12128,0.12393,9.2542,-0.18608,1.526e-4,0,-0.53117,1.4987,101185
0.44625,12.516,57.149,130.69,1.8321,9.5951e-8,9.8221,0.27921,0,-4.0637,2.8019e-6,17925,6.5294,198.49,199.1,-0.059534,0.17739,1.105e7,2529,16.019,0.66731,0.8655,0.42186,0.12136,0.12409,9.1227,-0.032507,4.2956e-4,0,-0.51047,1.503,101178
0.45625,13.09,58.448,130.79,1.8974,1.0538e-7,9.8221,0.2762,0,-4.0624,-9.4512e-7,17910,6.5275,198.65,199.09,-0.042201,0.18101,11274842,2529,16.668,0.66751,0.86502,0.42181,0.12144,0.12426,8.9985,0.11045,-4.8489e-4,0,-0.48997,1.5072,101171
0.46625,13.677,59.747,130.88,1.9626,1.1524e-7,9.8221,0.27333,0,-4.057,6.5752e-6,17896,6.5256,198.81,199.07,-0.025502,0.18463,1.15e7,2529,17.329,0.66771,0.86449,0.42175,0.12153,0.12443,8.881,0.24334,-9.0843e-5,0,-0.4697,1.5115,101165
0.47625,14.278,61.047,130.97,2.0277,1.2548e-7,9.8221,0.2706,0,-4.0475,6.0745e-6,17882,6.5237,198.96,199.05,-0.0093813,0.18825,11724776,2529,18.003,0.66791,0.86391,0.42169,0.12161,0.12461,8.7694,0.36787,-1.8965e-4,0,-0.44967,1.5157,101158
0.48625,14.891,62.347,131.07,2.0925,1.3598e-7,9.8221,0.26799,0,-4.0337,1.2702e-5,17867,6.5219,199.1,199.03,0.0062128,0.19187,1.195e7,2529,18.688,0.66812,0.86329,0.42163,0.1217,0.12479,8.6633,0.48332,-2.626e-4,0,-0.4299,1.52,101150
0.49625,15.518,63.647,131.17,2.157,1.4658e-7,9.8221,0.26549,0,-4.0156,8.162e-6,17853,6.52,199.24,199.02,0.021332,0.1955,12175337,2529,19.386,0.66833,0.86264,0.42157,0.12179,0.12497,8.562,0.59259,2.8282e-4,0,-0.41039,1.5242,101143
0.50625,16.158,64.947,131.26,2.2211,1.5708e-7,9.8221,0.26308,0,-3.9932,6.1076e-6,17839,6.5181,199.37,199,0.036028,0.19914,12400825,2529,20.096,0.66855,0.86197,0.42151,0.12188,0.12516,8.465,0.69606,2.5286e-4,0,-0.39116,1.5284,101135
0.51625,16.811,66.248,131.36,2.2847,1.6737e-7,9.8221,0.26077,0,-3.9664,8.6084e-6,17824,6.5162,199.5,198.98,0.050348,0.20277,12626439,2529,20.818,0.66877,0.86128,0.42145,0.12197,0.12535,8.3719,0.79356,-3.0223e-4,0,-0.37222,1.5325,101128
0.52625,17.477,67.549,131.46,2.3476,1.773e-7,9.8221,0.25853,0,-3.935,3.6189e-6,17810,6.5143,199.63,198.97,0.064343,0.20641,12852171,2529,21.552,0.66899,0.86058,0.42139,0.12207,0.12554,8.2822,0.88608,-4.1392e-4,0,-0.35357,1.5367,101120
0.53625,18.156,68.851,131.56,2.4099,1.8673e-7,9.8221,0.25636,0,-3.8991,8.2387e-6,17796,6.5124,199.75,198.95,0.078058,0.21005,13078013,2529,22.298,0.66922,0.85986,0.42132,0.12216,0.12574,8.1955,0.97501,1.269e-4,0,-0.33521,1.5408,101112
0.54625,18.848,70.152,131.66,2.4714,1.9553e-7,9.8221,0.25424,0,-3.8584,-3.3161e-6,17781,6.5105,199.87,198.93,0.091542,0.21369,13303960,2529,23.057,0.66946,0.85913,0.42126,0.12226,0.12594,8.1113,1.0601,-5.8347e-6,0,-0.31717,1.5449,101104
0.55625,19.553,71.454,131.76,2.5321,2.0364e-7,9.8221,0.25217,0,-3.8129,-2.6254e-6,17767,6.5087,199.99,198.91,0.10484,0.21733,1.353e7,2529,23.827,0.66969,0.85838,0.42119,0.12236,0.12614,8.0293,1.1414,-4.3324e-5,0,-0.29944,1.5489,101096
0.56625,20.272,72.756,131.86,2.5918,2.111e-7,9.8221,0.25014,0,-3.7624,-6.4158e-6,17753,6.5068,200.11,198.9,0.118,0.22098,13756149,2529,24.61,0.66993,0.85762,0.42113,0.12246,0.12635,7.9491,1.2198,-3.3212e-4,0,-0.28202,1.5528,101087
0.57625,21.004,74.058,131.96,2.6505,2.1797e-7,9.822,0.24814,0,-3.7068,-7.3186e-6,17739,6.5049,200.23,198.88,0.13106,0.22463,13982383,2529,25.404,0.67018,0.85683,0.42106,0.12256,0.12656,7.8703,1.2961,-3.8069e-4,0,-0.26493,1.5567,101079
0.58625,21.749,75.361,132.06,2.708,2.2435e-7,9.822,0.24616,0,-3.6459,-2.139e-5,17724,6.503,200.34,198.86,0.14408,0.22828,14208709,2529,26.209,0.67043,0.85603,0.42099,0.12267,0.12677,7.7926,1.3706,-4.885e-4,0,-0.24817,1.5606,101070
0.59625,22.507,76.664,132.17,2.7644,2.3046e-7,9.822,0.24419,0,-3.5796,-1.3251e-5,17710,6.5011,200.46,198.84,0.15709,0.23193,14435123,2529,27.026,0.67068,0.85521,0.42092,0.12277,0.12699,7.7155,1.4435,-4.5357e-4,0,-0.23175,1.5644,101061
0.60625,23.278,77.967,132.27,2.8195,2.3662e-7,9.822,0.24222,0,-3.5076,-1.1975e-5,17696,6.4992,200.58,198.83,0.17015,0.23559,14661627,2529,27.854,0.67094,0.85436,0.42084,0.12288,0.12722,7.6389,1.515,3.9525e-4,0,-0.21568,1.5681,101052
0.61625,24.062,79.27,132.37,2.8732,2.431e-7,9.822,0.24026,0,-3.4298,-2.1329e-5,17681,6.4973,200.69,198.81,0.18329,0.23924,14888220,2529,28.694,0.6712,0.85347,0.42077,0.12299,0.12744,7.5624,1.5856,-1.5466e-4,0,-0.19997,1.5699,101043
0.62625,24.86,80.574,132.47,2.9254,2.503e-7,9.822,0.23828,0,-3.346,-2.7045e-5,17667,6.4954,200.81,198.79,0.19656,0.2429,15114906,2529,29.544,0.67147,0.85255,0.42069,0.1231,0.12767,7.4856,1.6559,3.8046e-4,0,-0.18462,1.5663,101033
0.63625,25.67,81.878,132.58,2.9761,2.5869e-7,9.822,0.23628,0,-3.2558,-3.2573e-5,17653,6.4935,200.93,198.77,0.21002,0.24657,15341687,2529,30.404,0.67174,0.85159,0.42062,0.12322,0.1279,7.4083,1.7252,1.9803e-4,0,-0.16965,1.5629,101024
0.64625,26.494,83.182,132.68,3.0252,2.6893e-7,9.822,0.23425,0,-3.1591,-2.746e-5,17638,6.4916,201.06,198.76,0.2237,0.25023,15568567,2529,31.274,0.67201,0.85058,0.42054,0.12333,0.12814,7.3302,1.7945,4.1734e-4,0,-0.15509,1.5595,101014
0.65625,27.331,84.486,132.78,3.0727,2.8174e-7,9.822,0.23219,0,-3.0557,-3.3211e-5,17624,6.4897,201.18,198.74,0.23765,0.2539,15795551,2529,32.154,0.67229,0.84952,0.42046,0.12345,0.12838,7.2509,1.8637,4.8272e-4,0,-0.14094,1.5562,101004
0.66625,28.181,85.791,132.89,3.1183,2.9785e-7,9.822,0.23008,0,-2.9451,-2.9662e-5,17610,6.4878,201.31,198.72,0.25193,0.25757,16022645,2529,33.043,0.67258,0.8484,0.42038,0.12357,0.12862,7.1702,1.9332,1.5417e-5,0,-0.12722,1.5531,100994
0.67625,29.045,87.097,132.99,3.1621,3.1795e-7,9.822,0.22792,0,-2.8271,-2.9882e-5,17596,6.4859,201.44,198.7,0.26658,0.26124,1.625e7,2529,33.941,0.67286,0.84721,0.4203,0.12369,0.12887,7.0878,2.0032,-3.8179e-4,0,-0.11396,1.5501,100984
0.68625,29.921,88.402,133.09,3.2041,3.4283e-7,9.822,0.22571,0,-2.7015,-3.7008e-5,17581,6.484,201.58,198.69,0.28167,0.26491,16477194,2529,34.847,0.67316,0.84595,0.42022,0.12381,0.12912,7.0034,2.0741,3.8664e-4,0,-0.1012,1.5472,100974
0.69625,30.811,89.709,133.19,3.244,3.7331e-7,9.822,0.22342,0,-2.5678,-3.8876e-5,17567,6.4821,201.72,198.67,0.29723,0.26859,16704667,2529,35.761,0.67345,0.8446,0.42014,0.12394,0.12938,6.9167,2.1446,1.3073e-4,0,-0.088944,1.5444,100964
0.70625,31.714,91.015,133.29,3.2819,4.1033e-7,9.822,0.22106,0,-2.4258,-4.0876e-5,17553,6.4802,201.87,198.65,0.31333,0.27227,16932287,2529,36.681,0.67375,0.84316,0.42005,0.12406,0.12964,6.8275,2.2168,-4.3888e-4,0,-0.077246,1.5418,100953
0.71625,32.63,92.323,133.39,3.3177,4.5488e-7,9.822,0.21861,0,-2.275,-5.462e-5,17538,6.4783,202.02,198.63,0.33002,0.27596,1.716e7,2529,37.608,0.67406,0.84163,0.41997,0.12419,0.1299,6.7354,2.2886,-5.644e-5,0,-0.06614,1.5393,100942
0.72625,33.559,93.63,133.48,3.3513,5.0812e-7,9.822,0.21608,0,-2.1151,-4.8379e-5,17524,6.4763,202.19,198.61,0.34737,0.27965,17388013,2529,38.54,0.67437,0.83998,0.41988,0.12432,0.13017,6.6401,2.3618,-2.4435e-5,0,-0.055673,1.5371,100931
0.73625,34.501,94.939,133.58,3.3827,5.7126e-7,9.822,0.21344,0,-1.9457,-5.3331e-5,17510,6.4744,202.35,198.6,0.36543,0.28334,17616147,2529,39.477,0.67468,0.83821,0.41979,0.12445,0.13044,6.5415,2.436,-1.1073e-4,0,-0.045894,1.5349,100920
0.74625,35.457,96.248,133.67,3.4119,6.4559e-7,9.822,0.21069,0,-1.7664,-4.6475e-5,17495,6.4725,202.53,198.58,0.38429,0.28703,17844483,2529,40.418,0.675,0.83631,0.41971,0.12458,0.13071,6.4392,2.5114,3.4312e-5,0,-0.036859,1.533,100909
0.75625,36.425,97.558,133.75,3.4387,7.3232e-7,9.822,0.20783,0,-1.5768,-4.0608e-5,17481,6.4706,202.71,198.56,0.40399,0.29074,18073036,2529,41.361,0.67532,0.83427,0.41961,0.12472,0.13099,6.3329,2.5868,4.4461e-4,0,-0.028628,1.5312,100898
0.76625,37.407,98.869,133.84,3.4632,8.3257e-7,9.822,0.20483,0,-1.3765,-6.5475e-5,17467,6.4687,202.91,198.54,0.42463,0.29444,18301825,2529,42.306,0.67565,0.83208,0.41952,0.12486,0.13127,6.2224,2.6636,1.4308e-4,0,-0.021272,1.5297,100886
0.77625,38.402,100.18,133.92,3.4852,9.4779e-7,9.822,0.2017,0,-1.1651,-4.973e-5,17452,6.4668,203.11,198.52,0.44627,0.29815,18530869,2529,43.251,0.67598,0.82972,0.41943,0.125,0.13156,6.1073,2.7403,1.8803e-4,0,-0.014862,1.5283,100875
0.78625,39.41,101.49,134,3.5049,1.0794e-6,9.822,0.19842,0,-0.94209,-5.7963e-5,17438,6.4649,203.33,198.51,0.46899,0.30187,1.876e7,2529,44.195,0.67632,0.82718,0.41934,0.12514,0.13185,5.9875,2.8174,-2.8469e-4,0,-0.0094798,1.5272,100863
0.79625,40.432,102.81,134.08,3.5221,1.229e-6,9.822,0.19499,0,-0.70715,-6.0577e-5,17424,6.463,203.56,198.49,0.49289,0.30559,1.899e7,2529,45.136,0.67666,0.82445,0.41924,0.12528,0.13214,5.8627,2.8947,4.7993e-4,0,-0.0052121,1.5264,100851
0.80625,41.466,104.12,134.15,3.5368,1.398e-6,9.822,0.19139,0,-0.45989,-8.5174e-5,17410,6.461,203.8,198.47,0.51805,0.30932,1.922e7,2529,46.074,0.67701,0.82151,0.41914,0.12543,0.13244,5.7326,2.9718,-3.4874e-4,0,-0.0021516,1.5258,100839
0.81625,42.514,105.44,134.21,3.549,1.588e-6,9.822,0.18762,0,-0.19992,-8.7382e-5,17395,6.4591,204.05,198.45,0.54457,0.31305,1.945e7,2529,47.007,0.67736,0.81836,0.41904,0.12557,0.13274,5.597,3.0488,-1.3449e-4,0,-3.9697e-4,1.5254,100826
0.82625,43.575,106.75,134.27,3.5588,1.8015e-6,9.822,0.18366,0,0.073076,-8.8092e-5,17381,6.4572,204.32,198.43,0.57256,0.31679,19680647,2529,47.932,0.67771,0.81498,0.41894,0.12572,0.13305,5.4556,3.1235,-2.1038e-4,0,5.1795e-5,1.5254,100814
0.83625,44.649,108.07,134.33,3.566,2.0404e-6,9.822,0.17951,0,0.35932,-8.2811e-5,17367,6.4553,204.61,198.42,0.60211,0.32054,19911674,2529,48.849,0.67808,0.81135,0.41884,0.12588,0.13336,5.3083,3.1946,-2.9974e-4,0,0.0012232,1.5256,100801
0.84625,45.736,109.39,134.38,3.5708,2.3071e-6,9.822,0.17515,0,0.65872,-8.9279e-5,17352,6.4533,204.91,198.4,0.63334,0.3243,20143116,2529,49.755,0.67844,0.80748,0.41874,0.12603,0.13367,5.1548,3.2608,-1.6806e-4,0,0.0040163,1.5261,100789
0.85625,46.837,110.71,134.42,3.5731,2.6033e-6,9.822,0.17057,0,0.97113,-1.01e-4,17338,6.4514,205.23,198.38,0.66637,0.32806,20374996,2529,50.65,0.67881,0.80334,0.41864,0.12618,0.13399,4.995,3.3201,4.9817e-4,0,0.0085302,1.527,100776
0.86625,47.95,112.04,134.46,3.573,2.9315e-6,9.822,0.16577,0,1.2962,-1.2276e-4,17324,6.4495,205.57,198.36,0.70131,0.33184,20607338,2529,51.53,0.67919,0.79893,0.41853,0.12634,0.13432,4.8287,3.3713,2.3955e-4,0,0.014854,1.5281,100763
0.87625,49.077,113.36,134.49,3.5704,3.2943e-6,9.822,0.16074,0,1.6335,-1.4499e-4,17309,6.4476,205.93,198.34,0.73829,0.33562,2.084e7,2529,52.396,0.67957,0.79425,0.41842,0.1265,0.13464,4.6559,3.4146,-4.9744e-4,0,0.023063,1.5297,100749
0.88625,50.218,114.69,134.52,3.5655,3.6949e-6,9.822,0.15547,0,1.9825,-1.2169e-4,17295,6.4456,206.32,198.32,0.77744,0.33941,21073509,2529,53.245,0.67996,0.78929,0.41832,0.12667,0.13498,4.4766,3.447,-3.9672e-4,0,0.033214,1.5316,100736
0.89625,51.371,116.01,134.54,3.5583,4.1362e-6,9.822,0.14996,0,2.3421,-9.8487e-5,17281,6.4437,206.72,198.31,0.81887,0.34321,21307381,2529,54.076,0.68035,0.78406,0.41821,0.12683,0.13531,4.2908,3.4679,-2.0463e-5,0,0.045339,1.5338,100723
0.90625,52.538,117.34,134.56,3.5488,4.6204e-6,9.822,0.14419,0,2.7115,-1.0467e-4,17267,6.4418,207.16,198.29,0.86273,0.34702,21541805,2529,54.889,0.68075,0.77856,0.4181,0.127,0.13566,4.0985,3.4769,-1.4241e-5,0,0.059441,1.5365,100709
0.91625,53.718,118.68,134.57,3.5372,5.1496e-6,9.8219,0.13817,0,3.0892,-1.0041e-4,17252,6.4399,207.62,198.27,0.90914,0.35085,21776799,2529,55.683,0.68115,0.77282,0.41798,0.12717,0.136,3.8999,3.4704,-2.6583e-4,0,0.075486,1.5395,100695
0.92625,54.911,120.01,134.58,3.5235,5.7255e-6,9.8219,0.13188,0,3.4738,-1.3194e-4,17238,6.4379,208.1,198.25,0.95822,0.35468,22012377,2529,56.458,0.68156,0.76684,0.41787,0.12734,0.13635,3.6952,3.4474,-2.6362e-4,0,0.093398,1.543,100681
0.93625,56.118,121.34,134.58,3.5078,6.3502e-6,9.8219,0.12534,0,3.8632,-1.107e-4,17224,6.436,208.62,198.23,1.0101,0.35852,22248551,2529,57.215,0.68197,0.76066,0.41775,0.12751,0.13671,3.4848,3.407,3.4927e-4,0,0.11305,1.5468,100667
0.94625,57.338,122.68,134.58,3.4903,7.0255e-6,9.8219,0.11853,0,4.2553,-1.409e-4,17209,6.4341,209.16,198.21,1.0649,0.36238,22485328,2529,57.956,0.68239,0.75431,0.41763,0.12769,0.13707,3.269,3.3469,2.7894e-4,0,0.13427,1.551,100653
0.95625,58.571,124.02,134.58,3.471,7.7536e-6,9.8219,0.11148,0,4.6475,-1.5164e-4,17195,6.4321,209.74,198.2,1.1227,0.36624,22722711,2529,58.682,0.68282,0.74784,0.41752,0.12787,0.13744,3.0482,3.2653,-3.5314e-4,0,0.1568,1.5557,100638
0.96625,59.818,125.36,134.58,3.4501,8.5364e-6,9.8219,0.10417,0,5.0369,-1.7251e-4,17181,6.4302,210.34,198.18,1.1836,0.37012,22960698,2529,59.399,0.68325,0.74131,0.41739,0.12805,0.13781,2.8231,3.1609,3.7189e-4,0,0.18034,1.5608,100623
0.97625,61.078,126.7,134.57,3.4278,9.376e-6,9.8219,0.096621,0,5.4202,-1.482e-4,17166,6.4282,210.98,198.16,1.2477,0.374,23199279,2529,60.11,0.68369,0.73478,0.41727,0.12823,0.13818,2.5943,3.0328,-1.2772e-4,0,0.20452,1.5663,100609
0.98625,62.352,128.04,134.57,3.4041,1.0274e-5,9.8219,0.088846,0,5.7937,-1.4597e-4,17152,6.4263,211.66,198.14,1.315,0.3779,23438441,2529,60.821,0.68413,0.72832,0.41715,0.12842,0.13857,2.3624,2.8776,3.4135e-4,0,0.22889,1.5695,100594
0.99625,63.638,129.39,134.57,3.3794,1.1232e-5,9.8219,0.08086,0,6.1534,-1.7302e-4,17138,6.4244,212.36,198.12,1.3856,0.38181,23678164,2529,61.54,0.68458,0.72203,0.41702,0.12861,0.13895,2.1285,2.696,1.0097e-4,0,0.25295,1.5632,100579
1.0063,64.939,130.73,134.57,3.3536,1.225e-5,9.8219,0.072683,0,6.4949,-1.7881e-4,17124,6.4224,213.1,198.1,1.4594,0.38573,23918418,2529,62.275,0.68504,0.71599,0.4169,0.1288,0.13934,1.8933,2.4866,-2.134e-4,0,0.27611,1.5566,100563
1.0163,66.253,132.08,134.57,3.3272,1.3329e-5,9.8219,0.064338,0,6.8134,-1.8164e-4,17109,6.4205,213.88,198.08,1.5363,0.38966,24159170,2529,63.036,0.6855,0.71031,0.41677,0.12899,0.13974,1.6579,2.249,3.6785e-4,0,0.29777,1.5496,100548
1.0263,67.58,133.42,134.58,3.3001,1.4469e-5,9.8219,0.055855,0,7.1039,-1.8874e-4,17095,6.4185,214.68,198.06,1.6163,0.39359,2.44e7,2529,63.833,0.68596,0.7051,0.41664,0.12919,0.14014,1.4234,1.9833,2.5844e-4,0,0.31728,1.5423,100532
1.0363,68.92,134.77,134.6,3.2728,1.5669e-5,9.8219,0.047268,0,7.3612,-2.3294e-4,17081,6.4166,215.51,198.05,1.6993,0.39754,24641995,2529,64.68,0.68644,0.70045,0.4165,0.12939,0.14054,1.1909,1.6901,1.9485e-5,0,0.33395,1.5347,100517
1.0463,70.275,136.11,134.62,3.2452,1.6929e-5,9.8219,0.038612,0,7.5798,-3.1854e-4,17066,6.4146,216.38,198.03,1.7848,0.40149,24883965,2529,65.587,0.68691,0.69648,0.41637,0.12959,0.14096,0.96159,1.3693,4.1003e-4,0,0.34716,1.5269,100501
1.0563,71.642,137.46,134.65,3.2179,1.8248e-5,9.8219,0.029933,0,7.7542,-4.2964e-4,17052,6.4127,217.26,198.01,1.8727,0.40545,25126230,2529,66.568,0.6874,0.69327,0.41623,0.12979,0.14137,0.73669,1.0232,-2.1128e-4,0,0.35627,1.5189,100485
1.0663,73.023,138.81,134.68,3.1908,1.9625e-5,9.8219,0.021277,0,7.879,-5.7523e-4,17038,6.4108,218.16,197.99,1.9625,0.40941,25368725,2529,67.634,0.68789,0.69092,0.4161,0.13,0.14179,0.51743,0.65486,1.2048e-4,0,0.36076,1.5107,100469
1.0763,74.418,140.15,134.72,3.1643,2.1062e-5,9.8219,0.012695,0,7.9489,-8.9819e-4,17023,6.4088,219.08,197.97,2.0538,0.41337,25611384,2529,68.797,0.68838,0.68948,0.41596,0.13021,0.14221,0.30507,0.2662,9.217e-5,0,0.36018,1.5024,100452
1.0863,75.826,141.49,134.77,3.1386,2.2557e-5,9.8219,0.0042455,0,7.9589,-0.0026657,17009,6.4069,220.01,197.95,2.1459,0.41734,25854140,2529,70.064,0.68888,0.68901,0.41582,0.13042,0.14264,0.10081,-0.13744,9.1108e-5,0,0.35427,1.4941,100436
1.0963,77.247,142.83,134.83,3.114,2.4108e-5,9.8219,0.0040126,0,-7.9046,-0.0027646,16995,6.4049,220.04,197.93,2.1508,0.42132,26096923,2529,71.443,0.68938,0.6895,0.41568,0.13063,0.14308,0.095276,0.54807,5.0221e-5,0,-0.34291,1.4858,100419
1.1063,78.682,144.17,134.89,3.0906,2.5727e-5,9.8219,0.012015,0,-7.786,-9.0907e-4,16980,6.4029,219.17,197.91,2.0681,0.42529,2.634e7,2529,72.931,0.68989,0.69088,0.41554,0.13084,0.14351,0.2887,0.92375,4.1412e-4,0,-0.32651,1.4775,100402
1.1163,80.13,145.51,134.96,3.0688,2.743e-5,9.8219,0.019701,0,-7.607,-5.4066e-4,16966,6.401,218.36,197.89,1.9907,0.42926,26582312,2529,74.518,0.69041,0.69303,0.41539,0.13106,0.14395,0.47873,1.2589,-2.7038e-4,0,-0.30595,1.4695,100385
1.1263,81.592,146.84,135.04,3.0488,2.9234e-5,9.8219,0.027014,0,-7.3721,-3.971e-4,16952,6.399,217.6,197.88,1.9189,0.43323,26824797,2529,76.19,0.69093,0.69577,0.41525,0.13128,0.1444,0.66344,1.555,-3.8547e-4,0,-0.28211,1.4616,100368
1.1363,83.067,148.18,135.12,3.0307,3.1158e-5,9.8219,0.033904,0,-7.0858,-3.074e-4,16938,6.3971,216.9,197.86,1.8529,0.4372,27067072,2529,77.935,0.69145,0.69896,0.4151,0.1315,0.14485,0.84095,1.8141,1.0917e-4,0,-0.25592,1.454,100351
1.1463,84.555,149.5,135.22,3.0149,3.3216e-5,9.8219,0.040327,0,-6.7526,-2.4485e-4,16923,6.3951,216.27,197.84,1.7928,0.44117,27309093,2529,79.737,0.69198,0.70244,0.41496,0.13172,0.1453,1.0095,2.0379,-3.3601e-4,0,-0.22826,1.4468,100333
1.1563,86.057,150.83,135.32,3.0015,3.5425e-5,9.8218,0.046245,0,-6.3767,-2.0733e-4,16909,6.3932,215.69,197.82,1.7386,0.44513,27550827,2529,81.582,0.69251,0.70608,0.41481,0.13194,0.14576,1.1674,2.2297,2.6741e-4,0,-0.19995,1.4399,100316
1.1663,87.572,152.15,135.43,2.9909,3.7799e-5,9.8218,0.051625,0,-5.9624,-1.9786e-4,16895,6.3912,215.18,197.8,1.6904,0.44909,27792251,2529,83.456,0.69305,0.70974,0.41466,0.13217,0.14622,1.3132,2.392,4.6779e-4,0,-0.17175,1.4335,100298
1.1763,89.1,153.47,135.54,2.9831,4.0353e-5,9.8218,0.05644,0,-5.5137,-1.9165e-4,16880,6.3892,214.72,197.78,1.6483,0.45305,28033352,2529,85.345,0.69359,0.71331,0.41451,0.1324,0.14668,1.4454,2.5267,2.9342e-4,0,-0.14432,1.4274,100280
1.1863,90.641,154.79,135.66,2.9784,4.3096e-5,9.8218,0.060666,0,-5.0342,-1.449e-4,16866,6.3873,214.33,197.76,1.6121,0.457,28274126,2529,87.237,0.69413,0.71669,0.41435,0.13263,0.14715,1.5629,2.6376,3.2436e-4,0,-0.11824,1.4219,100262
1.1963,92.196,156.11,135.78,2.9769,4.604e-5,9.8218,0.064287,0,-4.5273,-1.4796e-4,16852,6.3853,214,197.74,1.5819,0.46095,28514584,2529,89.119,0.69468,0.71979,0.4142,0.13286,0.14762,1.6647,2.7274,4.2017e-4,0,-0.094006,1.4169,100244
1.2063,93.763,157.42,135.89,2.9789,4.9192e-5,9.8218,0.067287,0,-3.9964,-1.4571e-4,16837,6.3833,213.73,197.72,1.5576,0.4649,28754744,2529,90.982,0.69524,0.72255,0.41405,0.13309,0.1481,1.7498,2.7972,-1.4262e-4,0,-0.072014,1.4124,100225
1.2163,95.344,158.73,136,2.9845,5.2561e-5,9.8218,0.069657,0,-3.4443,-1.2156e-4,16823,6.3814,213.52,197.7,1.5391,0.46884,28994632,2529,92.817,0.69579,0.72491,0.41389,0.13333,0.14858,1.8177,2.8502,-1.1951e-4,0,-0.052597,1.4085,100207
1.2263,96.938,160.04,136.09,2.9937,5.6152e-5,9.8218,0.071388,0,-2.874,-7.6995e-5,16809,6.3794,213.37,197.68,1.5264,0.47278,29234286,2529,94.615,0.69636,0.72682,0.41373,0.13357,0.14906,1.8677,2.8871,-7.9339e-5,0,-0.036014,1.4052,100188
1.2363,98.545,161.35,136.18,3.0068,5.9971e-5,9.8218,0.072479,0,-2.2881,-5.7804e-5,16795,6.3774,213.28,197.66,1.5195,0.47673,29473749,2529,96.371,0.69692,0.72826,0.41357,0.13381,0.14954,1.8995,2.9091,-1.4291e-5,0,-0.022452,1.4025,100169
1.2463,100.16,162.66,136.25,3.0238,6.4021e-5,9.8218,0.072928,0,-1.6893,-7.7964e-5,16780,6.3755,213.25,197.64,1.5182,0.48066,29713068,2529,98.079,0.6975,0.72921,0.41341,0.13405,0.15003,1.9129,2.9157,-2.4433e-5,0,-0.01204,1.4005,100150
1.2563,101.8,163.97,136.31,3.0447,6.8306e-5,9.8218,0.072737,0,-1.0805,-8.12e-5,16766,6.3735,213.28,197.62,1.5225,0.4846,29952297,2529,99.737,0.69807,0.72966,0.41325,0.13429,0.15053,1.9081,2.9096,-7.3058e-5,0,-0.0048455,1.399,100131
1.2663,103.44,165.28,136.35,3.0697,7.2826e-5,9.8218,0.071913,0,-0.46447,-1.275e-4,16752,6.3715,213.36,197.6,1.5324,0.48855,30191489,2529,101.34,0.69865,0.72962,0.41309,0.13453,0.15103,1.885,2.8894,4.4116e-4,0,-8.8105e-4,1.3982,100112
1.2763,105.1,166.59,136.37,3.0986,7.7578e-5,9.8218,0.070463,0,0.15575,-1.4218e-4,16737,6.3695,213.5,197.59,1.5479,0.49249,30430700,2529,102.89,0.69924,0.72911,0.41293,0.13478,0.15153,1.8441,2.8543,-2.0092e-4,0,9.7489e-5,1.398,100092
1.2863,106.77,167.9,136.37,3.1317,8.2556e-5,9.8218,0.068399,0,0.7763,-1.7277e-4,16723,6.3676,213.69,197.57,1.5689,0.49643,3.067e7,2529,104.39,0.69983,0.72816,0.41276,0.13503,0.15204,1.7858,2.7997,-4.8302e-4,0,0.0023837,1.3985,100073
1.2963,108.46,169.21,136.36,3.1686,8.7754e-5,9.8218,0.065737,0,1.3921,-1.843e-4,16709,6.3656,213.95,197.55,1.5953,0.50038,30909387,2529,105.84,0.70043,0.7268,0.4126,0.13528,0.15255,1.7108,2.722,3.4737e-4,0,0.007545,1.3997,100053
1.3063,110.16,170.53,136.33,3.2096,9.316e-5,9.8218,0.0625,0,1.9975,-1.6443e-4,16694,6.3636,214.25,197.53,1.6272,0.50434,31148957,2529,107.24,0.70103,0.7251,0.41243,0.13554,0.15307,1.6202,2.6213,-2.1492e-5,0,0.015293,1.4014,100033
1.3163,111.87,171.85,136.28,3.2544,9.8763e-5,9.8218,0.058713,0,2.5866,-2.0053e-4,16680,6.3616,214.62,197.51,1.6644,0.5083,31388730,2529,108.61,0.70164,0.72311,0.41226,0.1358,0.15359,1.5149,2.4962,-6.3288e-5,0,0.025247,1.4038,100013
1.3263,113.59,173.17,136.22,3.3029,1.0455e-4,9.8218,0.054409,0,3.153,-1.7803e-4,16666,6.3596,215.03,197.49,1.7068,0.51226,31628735,2529,109.96,0.70225,0.72091,0.41209,0.13605,0.15411,1.3963,2.346,4.4522e-4,0,0.036937,1.4068,99993
1.3363,115.33,174.49,136.15,3.3551,1.105e-4,9.8218,0.049627,0,3.6896,-2.2262e-4,16651,6.3577,215.5,197.47,1.7542,0.51623,31868987,2529,111.29,0.70287,0.7186,0.41191,0.13632,0.15464,1.2658,2.1708,2.4356e-4,0,0.049805,1.4104,99972
1.3463,117.08,175.82,136.08,3.4107,1.1661e-4,9.8218,0.044412,0,4.1891,-2.968e-4,16637,6.3557,216.02,197.45,1.8064,0.52021,32109492,2529,112.62,0.7035,0.71627,0.41174,0.13658,0.15518,1.1252,1.9697,-3.7863e-4,0,0.06323,1.4146,99952
1.3563,118.85,177.15,136.01,3.4697,1.2285e-4,9.8217,0.038816,0,4.644,-2.8082e-4,16623,6.3537,216.58,197.43,1.8631,0.52419,3.235e7,2529,113.97,0.70413,0.71403,0.41156,0.13685,0.15572,0.97632,1.7428,1.7051e-4,0,0.076534,1.4192,99931
1.3663,120.62,178.49,135.94,3.5318,1.292e-4,9.8217,0.032898,0,5.0464,-3.1009e-4,16609,6.3517,217.19,197.41,1.9239,0.52818,32591227,2529,115.35,0.70477,0.71199,0.41139,0.13712,0.15627,0.82105,1.4902,9.4057e-6,0,0.089015,1.4243,99910
1.3763,122.41,179.83,135.87,3.5968,1.3564e-4,9.8217,0.026721,0,5.3883,-3.953e-4,16594,6.3497,217.83,197.39,1.9882,0.53217,32832406,2529,116.79,0.70541,0.71025,0.41121,0.13739,0.15682,0.66146,1.2154,4.8355e-4,0,0.099974,1.4297,99889
1.3863,124.22,181.17,135.81,3.6645,1.4215e-4,9.8217,0.020359,0,5.6621,-5.6468e-4,16580,6.3477,218.5,197.37,2.0556,0.53617,33073741,2529,118.31,0.70606,0.70891,0.41103,0.13766,0.15737,0.4997,0.91852,-4.0399e-4,0,0.10876,1.4355,99868
1.3963,126.03,182.52,135.77,3.7346,1.4872e-4,9.8217,0.013889,0,5.8603,-7.5773e-4,16566,6.3457,219.2,197.35,2.1254,0.54017,33315181,2529,119.91,0.70671,0.70806,0.41084,0.13794,0.15793,0.33793,0.60349,-3.2806e-4,0,0.11479,1.4416,99847
1.4063,127.86,183.87,135.74,3.807,1.5531e-4,9.8217,0.0073945,0,5.9764,-0.0013445,16551,6.3437,219.91,197.33,2.1967,0.54417,33556669,2529,121.61,0.70737,0.70776,0.41066,0.13822,0.1585,0.17832,0.27409,1.0857e-5,0,0.11764,1.4478,99825
1.4163,129.71,185.22,135.72,3.8813,1.6192e-4,9.8217,9.6324e-4,0,6.0044,-0.010217,16537,6.3418,220.63,197.31,2.2687,0.54818,33798144,2529,123.43,0.70804,0.70804,0.41047,0.1385,0.15906,0.023024,-0.065171,-4.689e-4,0,0.11702,1.454,99804
1.4263,131.57,186.57,135.71,3.9574,1.6851e-4,9.8217,0.005313,0,-5.9408,-0.0018146,16523,6.3398,220.17,197.29,2.2257,0.55218,3.404e7,2529,125.37,0.70871,0.70891,0.41029,0.13878,0.15964,0.12784,0.39712,-3.4207e-4,0,-0.1129,1.4603,99782
1.4363,133.44,187.93,135.72,4.0349,1.7507e-4,9.8217,0.011342,0,-5.7883,-9.0313e-4,16508,6.3378,219.53,197.27,2.1657,0.55619,34280805,2529,127.41,0.70938,0.71029,0.4101,0.13907,0.16021,0.27539,0.70194,-3.3855e-5,0,-0.10565,1.4665,99760
1.4463,135.32,189.28,135.75,4.1137,1.8159e-4,9.8217,0.017037,0,-5.5526,-5.5718e-4,16494,6.3358,218.94,197.25,2.1103,0.56019,34521876,2529,129.55,0.71006,0.71209,0.40991,0.13935,0.1608,0.41719,0.97616,3.1961e-4,0,-0.095835,1.4724,99738
1.4563,137.22,190.64,135.79,4.1934,1.8805e-4,9.8217,0.022322,0,-5.24,-4.0792e-4,16480,6.3338,218.41,197.23,2.0601,0.5642,34762708,2529,131.77,0.71074,0.71418,0.40972,0.13964,0.16138,0.55088,1.2195,-4.7691e-4,0,-0.084146,1.4781,99716
1.4663,139.13,192,135.84,4.2738,1.9443e-4,9.8217,0.027126,0,-4.8575,-2.699e-4,16466,6.3318,217.93,197.21,2.0157,0.5682,35003263,2529,134.04,0.71143,0.71646,0.40953,0.13993,0.16197,0.67421,1.4298,-2.6662e-4,0,-0.071299,1.4834,99693
1.4763,141.06,193.36,135.9,4.3548,2.0073e-4,9.8217,0.031391,0,-4.4124,-1.9578e-4,16451,6.3298,217.51,197.19,1.9772,0.57219,35243519,2529,136.35,0.71213,0.71879,0.40934,0.14023,0.16256,0.78515,1.6107,1.3604e-4,0,-0.058014,1.4882,99671
1.4863,142.99,194.72,135.97,4.4361,2.0694e-4,9.8217,0.035066,0,-3.9121,-1.5764e-4,16437,6.3278,217.16,197.17,1.9451,0.57619,35483464,2529,138.66,0.71282,0.72108,0.40914,0.14052,0.16316,0.88188,1.7599,-3.5889e-4,0,-0.044976,1.4926,99648
1.4963,144.95,196.08,136.04,4.5174,2.1304e-4,9.8217,0.038111,0,-3.3642,-1.0711e-4,16423,6.3258,216.88,197.15,1.9195,0.58018,35723101,2529,140.97,0.71352,0.72321,0.40895,0.14082,0.16376,0.96285,1.8812,-3.98e-4,0,-0.032806,1.4964,99625
1.5063,146.91,197.44,136.1,4.5987,2.1901e-4,9.8217,0.040494,0,-2.7761,-1.1015e-4,16408,6.3238,216.66,197.13,1.9006,0.58417,35962446,2529,143.26,0.71423,0.72511,0.40875,0.14112,0.16436,1.0268,1.9739,-1.889e-4,0,-0.022035,1.4996,99602
1.5163,148.89,198.8,136.16,4.6798,2.2486e-4,9.8217,0.042192,0,-2.1556,-6.8384e-5,16394,6.3217,216.52,197.11,1.8884,0.58816,36201527,2529,145.51,0.71494,0.72672,0.40855,0.14142,0.16497,1.0727,2.039,2.7641e-4,0,-0.013107,1.5022,99579
1.5263,150.89,200.16,136.2,4.7606,2.3058e-4,9.8216,0.04319,0,-1.5102,-4.4686e-5,16380,6.3197,216.44,197.09,1.883,0.59214,3.644e7,2529,147.71,0.71566,0.72798,0.40835,0.14172,0.16558,1.1001,2.0782,-4.6726e-4,0,-0.0063472,1.5041,99555
1.5363,152.89,201.52,136.23,4.8411,2.3616e-4,9.8216,0.043483,0,-0.84785,2.4398e-5,16365,6.3177,216.44,197.06,1.8843,0.59613,36679053,2529,149.85,0.71638,0.72887,0.40815,0.14203,0.1662,1.1084,2.0911,4.9163e-4,0,-0.001974,1.5054,99532
1.5462,154.91,202.87,136.23,4.9209,2.4159e-4,9.8216,0.043077,0,-0.17788,3.373e-5,16351,6.3157,216.5,197.04,1.8924,0.6001,36917110,2529,151.93,0.7171,0.72939,0.40795,0.14233,0.16682,1.0979,2.078,8.3796e-5,0,-8.5745e-5,1.5059,99508
1.5561,156.92,204.22,136.22,4.9997,2.4684e-4,9.8216,0.041993,0,0.48786,8.2273e-5,16337,6.3137,216.63,197.02,1.907,0.60405,37153404,2529,153.93,0.71782,0.72954,0.40775,0.14264,0.16743,1.0692,2.0383,1.9803e-4,0,6.366e-4,1.5057,99485
1.5661,158.97,205.57,136.18,5.0786,2.5198e-4,9.8216,0.040239,0,1.1484,-5.8747e-5,16323,6.3117,216.82,197,1.928,0.60803,37391096,2529,155.89,0.71856,0.72938,0.40755,0.14295,0.16806,1.0225,1.9682,-3.2957e-4,0,0.003482,1.5049,99461
1.5761,161.03,206.93,136.13,5.1573,2.57e-4,9.8216,0.037843,0,1.7912,-3.6888e-5,16308,6.3097,217.08,196.98,1.9555,0.61202,3.763e7,2529,157.81,0.7193,0.72893,0.40734,0.14326,0.16869,0.95894,1.8665,3.2789e-4,0,0.0083604,1.5033,99436
1.5861,163.1,208.29,136.07,5.2357,2.6188e-4,9.8216,0.03485,0,2.4028,-9.9172e-5,16294,6.3077,217.41,196.96,1.9889,0.61601,37867994,2529,159.69,0.72004,0.72828,0.40713,0.14358,0.16933,0.87988,1.7352,3.3979e-4,0,0.014851,1.5011,99412
1.5961,165.19,209.65,136,5.314,2.6665e-4,9.8216,0.031312,0,2.9722,-1.3738e-4,16280,6.3057,217.79,196.94,2.028,0.62,38106527,2529,161.56,0.7208,0.72751,0.40692,0.1439,0.16997,0.7871,1.5733,3.8175e-4,0,0.022433,1.4983,99388
1.6061,167.29,211.01,135.92,5.3923,2.7133e-4,9.8216,0.027292,0,3.4877,-1.4751e-4,16265,6.3037,218.22,196.92,2.0723,0.624,38345135,2529,163.43,0.72155,0.72671,0.40671,0.14422,0.17062,0.68258,1.384,3.6531e-4,0,0.030496,1.4949,99363
1.6161,169.41,212.37,135.85,5.4707,2.7593e-4,9.8216,0.022864,0,3.9383,-2.0523e-4,16251,6.3016,218.71,196.9,2.1212,0.62801,38583813,2529,165.33,0.72232,0.72598,0.4065,0.14454,0.17127,0.56859,1.1681,-2.6241e-4,0,0.038393,1.491,99338
1.6261,171.54,213.73,135.78,5.5495,2.8049e-4,9.8216,0.018109,0,4.3131,-2.9535e-4,16237,6.2996,219.23,196.88,2.174,0.63201,38822542,2529,167.27,0.72308,0.72541,0.40629,0.14487,0.17193,0.44757,0.92788,-3.9535e-4,0,0.045467,1.4867,99313
1.6361,173.68,215.09,135.73,5.6289,2.8502e-4,9.8216,0.013118,0,4.602,-4.0992e-4,16223,6.2976,219.78,196.86,2.23,0.63602,39061294,2529,169.28,0.72386,0.72509,0.40607,0.1452,0.17259,0.32212,0.66752,1.8259e-4,0,0.051116,1.482,99288
1.6461,175.83,216.44,135.69,5.7091,2.8956e-4,9.8216,0.0079908,0,4.7962,-7.384e-4,16208,6.2956,220.36,196.84,2.2881,0.64003,3.93e7,2529,171.38,0.72464,0.7251,0.40586,0.14553,0.17325,0.1949,0.39073,3.3027e-4,0,0.054829,1.4771,99263
1.6561,178,217.8,135.68,5.7904,2.9414e-4,9.8216,0.002832,0,4.8883,-0.0022203,16194,6.2935,220.95,196.82,2.3475,0.64404,39538687,2529,173.58,0.72542,0.72548,0.40564,0.14586,0.17392,0.068602,0.105,1.6752e-4,0,0.056251,1.472,99237
1.6661,180.19,219.15,135.68,5.873,2.9879e-4,9.8216,0.0022496,0,-4.8731,-0.0027305,16180,6.2915,221.04,196.8,2.3585,0.64805,39777227,2529,175.89,0.72621,0.72625,0.40542,0.1462,0.1746,0.054476,0.18353,3.2739e-5,0,-0.055215,1.4669,99212
1.6761,182.38,220.5,135.7,5.9572,3.0356e-4,9.8216,0.0071433,0,-4.7509,-8.4927e-4,16165,6.2895,220.54,196.77,2.3114,0.65206,40015591,2529,178.3,0.72701,0.72738,0.4052,0.14653,0.17527,0.17427,0.45428,2.8385e-4,0,-0.051839,1.4618,99186
1.6861,184.59,221.85,135.74,6.0433,3.0848e-4,9.8215,0.011743,0,-4.5274,-5.5877e-4,16151,6.2875,220.07,196.75,2.2682,0.65607,40253732,2529,180.81,0.72781,0.72881,0.40498,0.14687,0.17596,0.28851,0.70139,-3.0346e-4,0,-0.046505,1.457,99160
1.6961,186.82,223.2,135.8,6.1314,3.1358e-4,9.8215,0.015954,0,-4.2105,-4.0825e-4,16137,6.2854,219.65,196.73,2.2296,0.66008,40491608,2529,183.39,0.72861,0.73044,0.40475,0.14722,0.17664,0.39447,0.91915,4.635e-4,0,-0.039738,1.4524,99134
1.7061,189.05,224.55,135.87,6.2219,3.189e-4,9.8215,0.019692,0,-3.8095,-3.8426e-4,16122,6.2834,219.29,196.71,2.1964,0.66409,40729190,2529,186.01,0.72942,0.73218,0.40453,0.14756,0.17733,0.48966,1.1076,4.8806e-5,0,-0.03214,1.4482,99108
1.7161,191.3,225.89,135.94,6.3149,3.2445e-4,9.8215,0.022884,0,-3.3346,-3.3119e-4,16108,6.2814,218.99,196.69,2.1692,0.66809,40966463,2529,188.67,0.73023,0.73394,0.4043,0.1479,0.17802,0.57184,1.2645,4.0122e-4,0,-0.024333,1.4444,99081
1.7261,193.57,227.23,136.01,6.4107,3.3026e-4,9.8215,0.025471,0,-2.7968,-3.3936e-4,16094,6.2793,218.75,196.67,2.1483,0.67209,41203425,2529,191.32,0.73105,0.73562,0.40408,0.14825,0.17872,0.63909,1.3904,2.8036e-4,0,-0.016914,1.4412,99055
1.7361,195.85,228.57,136.07,6.5093,3.3632e-4,9.8215,0.02741,0,-2.2078,-3.8664e-4,16080,6.2773,218.59,196.65,2.1341,0.67609,4.144e7,2529,193.95,0.73187,0.73715,0.40385,0.1486,0.17942,0.68991,1.4824,-3.0039e-4,0,-0.010417,1.4386,99028
1.7461,198.14,229.91,136.1,6.611,3.4265e-4,9.8215,0.028668,0,-1.5801,-3.4726e-4,16065,6.2752,218.49,196.63,2.1267,0.68008,41676475,2529,196.54,0.7327,0.73846,0.40362,0.14895,0.18013,0.72318,1.5433,-2.6029e-4,0,-0.0052732,1.4366,99001
1.7561,200.44,231.25,136.12,6.7158,3.4923e-4,9.8215,0.029228,0,-0.9264,-3.3346e-4,16051,6.2732,218.46,196.61,2.1264,0.68408,41912623,2529,199.09,0.73353,0.73951,0.40339,0.14931,0.18084,0.73826,1.5712,2.3688e-4,0,-0.0017917,1.4353,98974
1.7661,202.76,232.58,136.1,6.8238,3.5605e-4,9.8215,0.029089,0,-0.25979,-3.0204e-4,16037,6.2712,218.51,196.58,2.1329,0.68807,42148570,2529,201.58,0.73436,0.7403,0.40316,0.14966,0.18155,0.73496,1.5677,9.9523e-5,0,-1.3927e-4,1.4347,98947
1.7761,205.08,233.92,136.06,6.9347,3.6307e-4,9.8215,0.028262,0,0.40443,-2.9567e-4,16022,6.2691,218.63,196.56,2.1464,0.69206,42383811,2529,204.01,0.7352,0.74083,0.40292,0.15002,0.18226,0.71364,1.5309,2.5717e-4,0,3.3367e-4,1.4348,98920
1.7861,207.42,235.26,135.99,7.0491,3.7032e-4,9.8215,0.026771,0,1.0546,-3.218e-4,16008,6.2671,218.81,196.54,2.1664,0.69605,42619484,2529,206.39,0.73605,0.74112,0.40269,0.15038,0.18298,0.67497,1.4596,4.9586e-4,0,0.002243,1.4355,98892
1.7961,209.78,236.59,135.89,7.1666,3.7774e-4,9.8215,0.024658,0,1.6733,-4.8272e-4,15994,6.265,219.06,196.52,2.1929,0.70005,42855074,2529,208.74,0.7369,0.74123,0.40245,0.15074,0.18371,0.62021,1.3546,-3.164e-4,0,0.0055829,1.437,98865
1.8061,212.15,237.93,135.78,7.2871,3.8531e-4,9.8215,0.021978,0,2.2452,-4.7513e-4,15979,6.263,219.37,196.5,2.2251,0.70404,43090606,2529,211.07,0.73776,0.74122,0.40221,0.15111,0.18444,0.55106,1.2166,1.4e-4,0,0.0099384,1.439,98837
1.8161,214.53,239.27,135.65,7.4105,3.9299e-4,9.8215,0.018803,0,2.7547,-4.9966e-4,15965,6.2609,219.74,196.48,2.2627,0.70804,43326090,2529,213.4,0.73862,0.74118,0.40198,0.15147,0.18517,0.46965,1.0478,1.539e-4,0,0.014792,1.4416,98809
1.8261,216.93,240.62,135.52,7.5366,4.0074e-4,9.8214,0.015217,0,3.1873,-6.2899e-4,15951,6.2589,220.15,196.46,2.3047,0.71204,43561524,2529,215.76,0.73949,0.74118,0.40174,0.15184,0.18591,0.37841,0.85267,-9.7077e-5,0,0.019582,1.4448,98781
1.8361,219.34,241.96,135.4,7.6652,4.0853e-4,9.8214,0.011318,0,3.5295,-7.8524e-4,15937,6.2568,220.6,196.43,2.3505,0.71604,43796893,2529,218.17,0.74036,0.74131,0.40149,0.15221,0.18665,0.28008,0.63496,2.7881e-4,0,0.023747,1.4483,98753
1.8461,221.76,243.31,135.3,7.796,4.1631e-4,9.8214,0.0072119,0,3.7702,-0.001164,15922,6.2548,221.07,196.41,2.3989,0.72005,44032167,2529,220.64,0.74124,0.74163,0.40125,0.15259,0.1874,0.17755,0.39917,3.7253e-4,0,0.026797,1.4521,98724
1.8561,224.2,244.66,135.21,7.929,4.2407e-4,9.8214,0.0030147,0,3.8999,-0.0026181,15908,6.2527,221.56,196.39,2.4488,0.72405,44267307,2529,223.21,0.74212,0.74219,0.40101,0.15296,0.18815,0.073823,0.15204,-3.7699e-4,0,0.028358,1.4561,98696
1.8661,226.65,246,135.15,8.0637,4.3176e-4,9.8214,0.0011535,0,-3.9126,-0.0066056,15894,6.2507,221.8,196.37,2.4742,0.72805,44502270,2529,225.87,0.74301,0.74302,0.40076,0.15334,0.18891,0.028188,0.098306,-1.1654e-4,0,-0.028232,1.4602,98667
1.8761,229.11,247.35,135.11,8.1999,4.3938e-4,9.8214,0.0051707,0,-3.8075,-0.0014291,15879,6.2486,221.4,196.35,2.4371,0.73206,44737010,2529,228.63,0.7439,0.7441,0.40051,0.15372,0.18967,0.12715,0.33627,-9.1245e-5,0,-0.026445,1.4643,98638
1.8861,231.59,248.71,135.09,8.3375,4.469e-4,9.8214,0.0089202,0,-3.5905,-8.0953e-4,15865,6.2465,221.03,196.33,2.4033,0.73606,44971485,2529,231.46,0.7448,0.74539,0.40026,0.1541,0.19043,0.22063,0.55322,1.923e-5,0,-0.023263,1.4682,98609
1.8961,234.08,250.06,135.09,8.4761,4.5433e-4,9.8214,0.012296,0,-3.2706,-5.1459e-4,15851,6.2445,220.71,196.3,2.3738,0.74006,45205660,2529,234.37,0.7457,0.74682,0.40001,0.15449,0.1912,0.30573,0.74484,-5.7742e-5,0,-0.019096,1.4718,98580
1.9061,236.58,251.41,135.1,8.6156,4.6164e-4,9.8214,0.015205,0,-2.8596,-4.6876e-4,15836,6.2424,220.43,196.28,2.3495,0.74405,4.544e7,2529,237.3,0.74661,0.74831,0.39976,0.15488,0.19197,0.37981,0.90686,8.8131e-5,0,-0.014442,1.475,98550
1.9161,239.1,252.76,135.11,8.7557,4.6884e-4,9.8214,0.017571,0,-2.3707,-4.5682e-4,15822,6.2404,220.22,196.26,2.331,0.74804,45673035,2529,240.26,0.74752,0.74979,0.39951,0.15526,0.19274,0.44061,1.0368,-2.3744e-4,0,-0.0098209,1.4777,98521
1.9261,241.63,254.11,135.12,8.8962,4.7593e-4,9.8214,0.019336,0,-1.8192,-3.9194e-4,15808,6.2383,220.07,196.24,2.3188,0.75204,45906230,2529,243.2,0.74844,0.75117,0.39926,0.15566,0.19352,0.48631,1.1337,7.0214e-5,0,-0.0057222,1.4799,98491
1.9361,244.17,255.46,135.12,9.0371,4.8293e-4,9.8214,0.020456,0,-1.221,-3.2188e-4,15793,6.2362,220,196.22,2.3132,0.75602,46139116,2529,246.12,0.74936,0.75241,0.399,0.15605,0.1943,0.51557,1.1955,-4.8683e-4,0,-0.0025506,1.4815,98461
1.9461,246.73,256.81,135.1,9.1782,4.8986e-4,9.8214,0.020909,0,-0.59362,-2.9921e-4,15779,6.2342,219.99,196.19,2.3144,0.76001,46371719,2529,249,0.75028,0.75348,0.39875,0.15644,0.19509,0.52764,1.2216,-4.6187e-4,0,-5.9665e-4,1.4825,98431
1.9561,249.3,258.16,135.05,9.3194,4.9673e-4,9.8213,0.020693,0,0.045022,-6.4044e-5,15765,6.2321,220.05,196.17,2.3224,0.764,46604073,2529,251.83,0.75121,0.75434,0.39849,0.15684,0.19588,0.52233,1.2131,-4.6365e-4,0,3.3965e-6,1.4828,98401
1.9661,251.88,259.51,134.98,9.4609,5.0354e-4,9.8213,0.019822,-5.9444e-8,0.67615,5.9935e-5,15751,6.23,220.17,196.15,2.3371,0.76798,46836212,2529,254.62,0.75214,0.75503,0.39823,0.15724,0.19667,0.50005,1.1678,5.0158e-5,0,7.5818e-4,1.4824,98371
1.9761,254.48,260.86,134.88,9.6025,5.1032e-4,9.8213,0.018332,-5.257e-8,1.28,4.7534e-5,15736,6.2279,220.37,196.13,2.3581,0.77196,47068167,2529,257.37,0.75308,0.75556,0.39797,0.15764,0.19747,0.4618,1.0859,1.9001e-4,0,0.0026891,1.4814,98340
1.9861,257.09,262.21,134.78,9.7445,5.1705e-4,9.8213,0.016278,0,1.8364,-4.4946e-5,15722,6.2259,220.62,196.11,2.3849,0.77595,4.73e7,2529,260.1,0.75403,0.75599,0.39771,0.15804,0.19827,0.40916,0.97003,-4.8405e-4,0,0.0054794,1.4797,98310
1.9961,259.72,263.56,134.66,9.8869,5.2375e-4,9.8213,0.013735,0,2.3268,-2.5469e-5,15708,6.2238,220.93,196.08,2.4169,0.77993,47531611,2529,262.83,0.75498,0.75639,0.39745,0.15845,0.19908,0.34423,0.82279,-1.1267e-4,0,0.0087074,1.4775,98279
2.0061,262.36,264.9,134.55,10.03,5.3044e-4,9.8213,0.010792,-4.8689e-8,2.7336,1.9346e-5,15693,6.2217,221.28,196.06,2.4533,0.78392,47763111,2529,265.59,0.75593,0.75681,0.39719,0.15886,0.19989,0.26955,0.64983,3.4925e-5,0,0.011897,1.4749,98248
2.0161,265.01,266.25,134.45,10.174,5.3711e-4,9.8213,0.007555,0,3.0414,-3.0677e-5,15679,6.2196,221.67,196.04,2.4931,0.7879,47994450,2529,268.39,0.75689,0.75732,0.39692,0.15927,0.2007,0.18798,0.45416,-1.4104e-4,0,0.014579,1.4719,98217
2.0261,267.67,267.59,134.37,10.318,5.4378e-4,9.8213,0.004141,0,3.2382,1.4428e-4,15665,6.2175,222.08,196.02,2.535,0.79189,48225602,2529,271.26,0.75785,0.75798,0.39665,0.15968,0.20152,0.10261,0.24377,-2.9262e-4,0,0.016362,1.4686,98186
2.0361,270.35,268.93,134.31,10.464,5.5048e-4,9.8213,6.742e-4,0,3.3148,5.9445e-4,15650,6.2155,222.49,195.99,2.5778,0.79587,48456535,2529,274.21,0.75882,0.75883,0.39639,0.16009,0.20234,0.016636,0.026201,1.3793e-4,0,0.016974,1.4651,98154
2.0461,273.04,270.27,134.27,10.612,5.5719e-4,9.8213,0.002717,0,-3.2673,8.6759e-5,15636,6.2134,222.31,195.97,2.5621,0.79986,48687211,2529,277.25,0.7598,0.75985,0.39612,0.16051,0.20317,0.067278,0.18854,-8.1838e-5,0,-0.016329,1.4617,98123
2.0561,275.75,271.61,134.26,10.761,5.6394e-4,9.8213,0.0059066,0,-3.0994,1.4545e-4,15622,6.2113,222,195.95,2.5344,0.80384,48917593,2529,280.37,0.76077,0.76104,0.39585,0.16093,0.204,0.147,0.38715,2.6719e-4,0,-0.014549,1.4583,98091
2.0661,278.47,272.95,134.27,10.912,5.7075e-4,9.8213,0.0087785,0,-2.82,-5.7704e-5,15608,6.2092,221.73,195.93,2.5104,0.80782,49147652,2529,283.54,0.76176,0.76235,0.39558,0.16135,0.20483,0.21949,0.56284,-4.0693e-4,0,-0.011927,1.4552,98059
2.0761,281.2,274.28,134.28,11.065,5.7762e-4,9.8212,0.011231,-5.232e-8,-2.4417,4.8211e-5,15593,6.2071,221.51,195.9,2.491,0.81179,49377366,2529,286.76,0.76274,0.7637,0.3953,0.16177,0.20567,0.28195,0.71129,2.2983e-4,0,-0.0088548,1.4524,98027
2.0861,283.94,275.62,134.29,11.221,5.8456e-4,9.8212,0.013181,-5.4287e-8,-1.9805,-9.8694e-5,15579,6.205,221.34,195.88,2.477,0.81577,49606727,2529,289.99,0.76374,0.76505,0.39503,0.16219,0.20651,0.33201,0.82856,-7.2101e-5,0,-0.0057695,1.4501,97995
2.0961,286.7,276.95,134.29,11.379,5.9158e-4,9.8212,0.014565,-6.9893e-8,-1.4544,-1.0098e-4,15565,6.2029,221.24,195.86,2.4689,0.81974,49835740,2529,293.21,0.76473,0.76634,0.39475,0.16262,0.20736,0.36779,0.91072,1.0196e-4,0,-0.0030814,1.4483,97962
2.1061,289.47,278.28,134.27,11.54,5.9867e-4,9.8212,0.01534,-8.859e-8,-0.88358,-8.8427e-5,15550,6.2008,221.2,195.84,2.4671,0.82371,50064419,2529,296.41,0.76573,0.76751,0.39448,0.16305,0.2082,0.38804,0.95798,9.0099e-5,0,-0.0011265,1.4471,97930
2.1161,292.26,279.6,134.21,11.704,6.0582e-4,9.8212,0.015489,-7.927e-8,-0.28928,-1.8379e-4,15536,6.1987,221.22,195.81,2.4717,0.82767,50292788,2529,299.58,0.76674,0.76855,0.3942,0.16348,0.20906,0.39215,0.96946,-7.1841e-5,0,-1.1959e-4,1.4465,97897
2.1261,295.06,280.93,134.13,11.87,6.1303e-4,9.8212,0.015016,-9.3097e-8,0.30616,-1.9247e-4,15522,6.1966,221.31,195.79,2.4828,0.83164,50520874,2529,302.71,0.76775,0.76946,0.39392,0.16391,0.20991,0.38019,0.94423,3.9315e-4,0,1.3269e-4,1.4465,97864
2.1361,297.87,282.26,134.01,12.039,6.2028e-4,9.8212,0.013949,-1.1304e-7,0.87962,-3.0075e-4,15507,6.1945,221.47,195.77,2.4999,0.8356,50748704,2529,305.81,0.76876,0.77024,0.39364,0.16435,0.21077,0.3529,0.88097,3.1974e-4,0,0.001085,1.4471,97832
2.1461,300.69,283.59,133.87,12.211,6.2754e-4,9.8212,0.01234,-1.1029e-7,1.4077,-4.0906e-4,15493,6.1924,221.68,195.75,2.5227,0.83956,50976298,2529,308.89,0.76978,0.77094,0.39336,0.16478,0.21163,0.31172,0.78356,4.4357e-4,0,0.0027529,1.4483,97798
2.1561,303.53,284.91,133.72,12.385,6.348e-4,9.8212,0.010263,-1.0647e-7,1.8683,-4.0649e-4,15479,6.1903,221.94,195.72,2.5505,0.84353,51203668,2529,311.98,0.7708,0.77161,0.39308,0.16522,0.2125,0.25869,0.65545,2.7551e-4,0,0.0048042,1.45,97765
2.1661,306.38,286.24,133.56,12.562,6.4203e-4,9.8212,0.0078105,-1.1905e-7,2.2416,-5.8419e-4,15464,6.1882,222.25,195.7,2.5823,0.84749,51430813,2529,315.09,0.77183,0.7723,0.3928,0.16566,0.21337,0.19635,0.50016,-2.3947e-4,0,0.0068518,1.4522,97732
2.1761,309.24,287.57,133.41,12.741,6.4921e-4,9.8212,0.005093,-1.2127e-7,2.5108,-0.0010505,15450,6.1861,222.58,195.68,2.617,0.85145,51657720,2529,318.25,0.77286,0.77307,0.39251,0.16611,0.21425,0.12765,0.32593,-2.747e-4,0,0.0085171,1.4547,97698
2.1861,312.12,288.9,133.28,12.922,6.5631e-4,9.8212,0.0022324,-1.2029e-7,2.6636,-0.0024603,15436,6.184,222.93,195.65,2.6535,0.85541,51884367,2529,321.46,0.7739,0.77394,0.39223,0.16655,0.21512,0.05577,0.13849,3.6824e-4,0,0.0094971,1.4574,97664
2.1961,315.01,290.23,133.17,13.105,6.633e-4,9.8211,6.4241e-4,-1.2179e-7,-2.6919,-0.0082693,15422,6.1819,223.15,195.63,2.6767,0.85937,52110725,2529,324.75,0.77494,0.77495,0.39194,0.167,0.21601,0.016025,0.052511,2.9618e-4,0,-0.0096115,1.4602,97630
2.2061,317.91,291.56,133.09,13.289,6.7016e-4,9.8211,0.0034009,-1.1914e-7,-2.5949,-0.0015957,15407,6.1798,222.89,195.61,2.6538,0.86332,52336762,2529,328.12,0.77599,0.77608,0.39165,0.16745,0.21689,0.085221,0.23507,-1.3917e-4,0,-0.0088501,1.463,97596
2.2161,320.83,292.89,133.03,13.474,6.7688e-4,9.8211,0.005919,-1.221e-7,-2.3793,-9.8421e-4,15393,6.1777,222.66,195.58,2.6336,0.86727,52562450,2529,331.54,0.77704,0.77732,0.39136,0.1679,0.21778,0.14894,0.39945,-1.9919e-4,0,-0.0073734,1.4656,97562
2.2261,323.76,294.22,132.98,13.661,6.8345e-4,9.8211,0.008086,-1.2176e-7,-2.0577,-5.2772e-4,15379,6.1756,222.47,195.56,2.6172,0.87123,52787767,2529,335,0.7781,0.77861,0.39107,0.16835,0.21867,0.20422,0.53964,4.4008e-4,0,-0.0054652,1.4679,97528
