Time (s),Altitude (m),Total velocity (m/s),Total acceleration (m/s),Position East of launch (m),Position North of launch (m),Gravitational acceleration (m/s),Angle of attack (rad),Roll rate (rpm),Pitch rate (rpm),Yaw rate (rpm),Mass (g),Longitudinal moment of inertia (kgm),CP location (cm),CG location (cm),Stability margin calibers (?),Mach number (?),Reynolds number (?),Thrust (N),Drag force (N),Drag coefficient (?),Axial drag coefficient (?),Friction drag coefficient (?),Pressure drag coefficient (?),Base drag coefficient (?),Normal force coefficient (?),Pitch moment coefficient (?),Yaw moment coefficient (?),Roll damping coefficient (?),Pitch damping coefficient (?),Vertical orientation (zenith) (rad),Air pressure (Pa)
0,0,0,35.764,0,0,9.8221,1.3963,0,0,0,18553,6.611,NaN,199.83,NaN,0.041129,2564862,843,0.0090054,0.75355,0.0090379,0.51385,0.11948,0.12022,NaN,NaN,NaN,NaN,NaN,1.3963,101325
2e-3,7.0442e-5,0.071529,115.28,1.2421e-5,0,9.8221,1.3912,0,0,0,18553,6.611,NaN,199.83,NaN,0.041166,2567169,2318.2,0.0097904,0.75347,0.009808,0.51376,0.11948,0.12022,NaN,NaN,NaN,NaN,NaN,1.3963,101325
4e-3,4.384e-4,0.30211,126.65,7.7302e-5,0,9.8221,1.3751,0,0,0,18551,6.6107,NaN,199.83,NaN,0.041293,2575049,2529,0.012613,0.75318,0.012558,0.51348,0.11949,0.12022,NaN,NaN,NaN,NaN,NaN,1.3963,101325
6e-3,0.0012829,0.55545,126.67,2.2621e-4,0,9.8221,1.3575,0,0,0,18549,6.6104,NaN,199.82,NaN,0.041444,2584475,2529,0.016254,0.75285,0.016066,0.51314,0.11949,0.12022,NaN,NaN,NaN,NaN,NaN,1.3963,101325
8e-3,0.0026265,0.80882,126.69,4.6312e-4,0,9.8221,1.34,0,0,0,18546,6.6101,NaN,199.82,NaN,0.041608,2594699,2529,0.020497,0.75248,0.020101,0.51277,0.11949,0.12023,NaN,NaN,NaN,NaN,NaN,1.3963,101325
0.01,0.0044691,1.0622,126.71,7.8802e-4,0,9.8221,1.3226,0,0,0,18543,6.6097,NaN,199.82,NaN,0.041784,2605711,2529,0.025374,0.75209,0.024674,0.51237,0.11949,0.12023,NaN,NaN,NaN,NaN,NaN,1.3963,101325
0.012,0.0068109,1.3157,126.73,0.0012009,0,9.8221,1.3054,0,0,0,18540,6.6093,NaN,199.81,NaN,0.041974,2617503,2529,0.030917,0.75167,0.029793,0.51196,0.11949,0.12023,NaN,NaN,NaN,NaN,NaN,1.3963,101325
0.014,0.009652,1.5692,126.75,0.0017019,0,9.8221,1.2884,0,0,0,18537,6.6089,NaN,199.81,NaN,0.042175,2630064,2529,0.037154,0.75123,0.035462,0.51151,0.11949,0.12023,NaN,NaN,NaN,NaN,NaN,1.3963,101325
0.016,0.012992,1.8227,126.77,0.0022909,0,9.8221,1.2715,0,0,0,18534,6.6086,NaN,199.81,NaN,0.042389,2643383,2529,0.044111,0.75077,0.041679,0.51104,0.11949,0.12023,NaN,NaN,NaN,NaN,NaN,1.3963,101325
0.018,0.016832,2.0763,126.8,0.002968,0,9.8221,1.2548,0,0,0,18531,6.6082,NaN,199.8,NaN,0.042614,2657449,2529,0.051813,0.75028,0.048439,0.51055,0.11949,0.12024,NaN,NaN,NaN,NaN,NaN,1.3963,101325
0.02,0.021172,2.33,126.82,0.0037331,0,9.8221,1.2383,0,0,0,18529,6.6078,NaN,199.8,NaN,0.042852,2672252,2529,0.06028,0.74977,0.055732,0.51004,0.11949,0.12024,NaN,NaN,NaN,NaN,NaN,1.3963,101325
0.022,0.02601,2.5836,126.84,0.0045864,0,9.8221,1.222,0,0,0,18526,6.6075,NaN,199.8,NaN,0.043101,2687779,2529,0.069533,0.74924,0.063547,0.5095,0.11949,0.12024,NaN,NaN,NaN,NaN,NaN,1.3963,101325
0.024,0.031349,2.8373,126.86,0.0055277,0,9.8221,1.2058,0,0,0,18523,6.6071,NaN,199.79,NaN,0.043361,2704018,2529,0.079589,0.74869,0.071866,0.50895,0.1195,0.12024,NaN,NaN,NaN,NaN,NaN,1.3963,101325
0.026,0.037187,3.0911,126.88,0.0065571,0,9.8221,1.1898,0,0,0,18520,6.6067,NaN,199.79,NaN,0.043633,2720958,2529,0.090465,0.74812,0.080673,0.50837,0.1195,0.12025,NaN,NaN,NaN,NaN,NaN,1.3963,101325
0.028,0.043526,3.3449,126.9,0.0076747,0,9.8221,1.1741,0,0,0,18517,6.6064,NaN,199.79,NaN,0.043915,2738584,2529,0.10217,0.74753,0.089945,0.50778,0.1195,0.12025,NaN,NaN,NaN,NaN,NaN,1.3963,101324
0.03,0.050364,3.5987,126.92,0.0088805,0,9.8221,1.1585,0,0,0,18514,6.606,NaN,199.78,NaN,0.044209,2756885,2529,0.11473,0.74692,0.099661,0.50717,0.1195,0.12025,NaN,NaN,NaN,NaN,NaN,1.3963,101324
0.032,0.057702,3.8526,126.94,0.010174,0,9.8221,1.1432,0,0,0,18511,6.6056,NaN,199.78,NaN,0.044513,2775847,2529,0.12814,0.7463,0.1098,0.50654,0.1195,0.12026,NaN,NaN,NaN,NaN,NaN,1.3963,101324
0.034,0.06554,4.1065,126.96,0.011556,0,9.8221,1.128,0,0,0,18508,6.6053,NaN,199.78,NaN,0.044827,2795457,2529,0.14242,0.74566,0.12032,0.5059,0.1195,0.12026,NaN,NaN,NaN,NaN,NaN,1.3963,101324
0.036,0.073878,4.3604,126.98,0.013027,0,9.8221,1.1131,0,0,0,18506,6.6049,NaN,199.78,NaN,0.045152,2815703,2529,0.15757,0.74501,0.13121,0.50524,0.11951,0.12027,NaN,NaN,NaN,NaN,NaN,1.3963,101324
0.038,0.082717,4.6144,127,0.014585,0,9.8221,1.0984,0,0,0,18503,6.6045,NaN,199.77,NaN,0.045487,2836570,2529,0.1736,0.74435,0.14244,0.50457,0.11951,0.12027,NaN,NaN,NaN,NaN,NaN,1.3963,101324
0.04,0.092056,4.8685,127.02,0.016232,0,9.8221,1.0839,0,0,0,18500,6.6042,NaN,199.77,NaN,0.045831,2858046,2529,0.19051,0.74367,0.15398,0.50388,0.11951,0.12027,NaN,NaN,NaN,NaN,NaN,1.3963,101324
0.042,0.10189,5.1225,127.04,0.017967,0,9.8221,1.0696,0,0,0,18497,6.6038,NaN,199.77,NaN,0.046185,2880118,2529,0.20832,0.74298,0.1658,0.50319,0.11951,0.12028,NaN,NaN,NaN,NaN,NaN,1.3963,101324
0.044,0.11223,5.3767,127.06,0.01979,0,9.8221,1.0555,0,0,0,18494,6.6034,NaN,199.76,NaN,0.046549,2902771,2529,0.22701,0.74227,0.17787,0.50248,0.11951,0.12028,NaN,NaN,NaN,NaN,NaN,1.3963,101324
0.046,0.12307,5.6308,127.08,0.021701,0,9.8221,1.0417,0,0,0,18491,6.6031,NaN,199.76,NaN,0.046921,2925994,2529,0.2466,0.74156,0.19017,0.50176,0.11952,0.12029,NaN,NaN,NaN,NaN,NaN,1.3963,101324
0.048,0.13442,5.885,127.1,0.023701,0,9.8221,1.028,0,0,0,18488,6.6027,NaN,199.76,NaN,0.047302,2949772,2529,0.26708,0.74084,0.20265,0.50103,0.11952,0.12029,NaN,NaN,NaN,NaN,NaN,1.3963,101323
0.05,0.14626,6.1392,127.12,0.025789,0,9.8221,1.0146,0,0,0,18486,6.6023,NaN,199.75,NaN,0.047692,2974093,2529,0.28846,0.74011,0.21531,0.50029,0.11952,0.1203,NaN,NaN,NaN,NaN,NaN,1.3963,101323
0.052,0.1586,6.3935,127.14,0.027965,0,9.8221,1.0014,0,0,0,18483,6.602,NaN,199.75,NaN,0.048091,2998944,2529,0.31072,0.73937,0.2281,0.49954,0.11952,0.1203,NaN,NaN,NaN,NaN,NaN,1.3963,101323
0.054,0.17144,6.6478,127.16,0.03023,0,9.8221,0.98847,0,0,0,18480,6.6016,NaN,199.75,NaN,0.048498,3024313,2529,0.33388,0.73862,0.24101,0.49879,0.11953,0.12031,NaN,NaN,NaN,NaN,NaN,1.3963,101323
0.056,0.18479,6.9022,127.18,0.032583,0,9.8221,0.97571,0,0,0,18477,6.6012,NaN,199.74,NaN,0.048913,3050185,2529,0.35793,0.73787,0.254,0.49803,0.11953,0.12031,NaN,NaN,NaN,NaN,NaN,1.3963,101323
0.058,0.19863,7.1566,127.2,0.035024,0,9.8221,0.96317,0,0,0,18474,6.6009,NaN,199.74,NaN,0.049336,3076550,2529,0.38286,0.73711,0.26706,0.49726,0.11953,0.12032,NaN,NaN,NaN,NaN,NaN,1.3963,101323
0.06,0.21298,7.411,127.22,0.037554,0,9.8221,0.95083,0,0,0,18471,6.6005,NaN,199.74,NaN,0.049766,3103395,2529,0.40868,0.73635,0.28015,0.49649,0.11953,0.12032,NaN,NaN,NaN,NaN,NaN,1.3963,101323
0.062,0.22783,7.6655,127.24,0.040172,0,9.8221,0.93871,0,0,0,18468,6.6001,NaN,199.73,NaN,0.050204,3130708,2529,0.43537,0.73558,0.29326,0.49571,0.11954,0.12033,NaN,NaN,NaN,NaN,NaN,1.3963,101322
0.064,0.24317,7.92,127.26,0.042878,0,9.8221,0.9268,0,0,0,18466,6.5998,NaN,199.73,NaN,0.05065,3158477,2529,0.46293,0.73481,0.30637,0.49493,0.11954,0.12033,NaN,NaN,NaN,NaN,NaN,1.3963,101322
0.066,0.25902,8.1746,127.28,0.045673,0,9.8221,0.9151,0,0,0,18463,6.5994,NaN,199.73,NaN,0.051102,3186691,2529,0.49136,0.73403,0.31945,0.49415,0.11954,0.12034,NaN,NaN,NaN,NaN,NaN,1.3963,101322
0.068,0.27538,8.4292,127.3,0.048556,0,9.8221,0.9036,0,0,0,18460,6.599,NaN,199.72,NaN,0.051562,3215337,2529,0.52066,0.73325,0.33249,0.49336,0.11955,0.12035,NaN,NaN,NaN,NaN,NaN,1.3963,101322
0.07,0.29223,8.6838,127.32,0.051528,0,9.8221,0.89231,0,0,0,18457,6.5986,NaN,199.72,NaN,0.052028,3244405,2529,0.5508,0.73247,0.34547,0.49257,0.11955,0.12035,NaN,NaN,NaN,NaN,NaN,1.3963,101322
0.072,0.30958,8.9385,127.34,0.054588,0,9.8221,0.88121,0,0,0,18454,6.5983,NaN,199.72,NaN,0.052501,3273885,2529,0.5818,0.73169,0.35837,0.49178,0.11955,0.12036,NaN,NaN,NaN,NaN,NaN,1.3963,101321
0.074,0.32744,9.1932,127.36,0.057736,0,9.8221,0.87031,0,0,0,18451,6.5979,NaN,199.71,NaN,0.05298,3303764,2529,0.61364,0.7309,0.37117,0.49098,0.11955,0.12036,NaN,NaN,NaN,NaN,NaN,1.3963,101321
0.076,0.3458,9.4479,127.38,0.060973,0,9.8221,0.85961,0,0,0,18448,6.5975,NaN,199.71,NaN,0.053465,3334033,2529,0.64631,0.73011,0.38387,0.49019,0.11956,0.12037,NaN,NaN,NaN,NaN,NaN,1.3963,101321
0.078,0.36466,9.7027,127.4,0.064299,0,9.8221,0.8491,0,0,0,18446,6.5972,NaN,199.71,NaN,0.053957,3364682,2529,0.67981,0.72933,0.39644,0.48939,0.11956,0.12038,NaN,NaN,NaN,NaN,NaN,1.3963,101321
0.08,0.38402,9.9575,127.42,0.067713,0,9.8221,0.83878,0,0,0,18443,6.5968,NaN,199.7,NaN,0.054454,3395700,2529,0.71413,0.72854,0.40889,0.48859,0.11956,0.12039,NaN,NaN,NaN,NaN,NaN,1.3963,101320
0.082,0.40388,10.212,127.44,0.071215,0,9.8221,0.82865,0,0,0,18440,6.5964,NaN,199.7,NaN,0.054958,3427077,2529,0.74927,0.72776,0.42118,0.4878,0.11957,0.12039,NaN,NaN,NaN,NaN,NaN,1.3963,101320
0.084,0.42425,10.467,127.45,0.074806,0,9.8221,0.8187,0,0,0,18437,6.5961,NaN,199.7,NaN,0.055467,3458805,2529,0.78521,0.72697,0.43332,0.487,0.11957,0.1204,NaN,NaN,NaN,NaN,NaN,1.3963,101320
0.086,0.44512,10.722,127.47,0.078486,0,9.8221,0.80893,0,0,0,18434,6.5957,NaN,199.69,NaN,0.055981,3490874,2529,0.82195,0.72619,0.4453,0.4862,0.11958,0.12041,NaN,NaN,NaN,NaN,NaN,1.3963,101320
0.088,0.46649,10.977,127.49,0.082254,0,9.8221,0.79933,0,0,0,18431,6.5953,NaN,199.69,NaN,0.056501,3523275,2529,0.85948,0.7254,0.45711,0.48541,0.11958,0.12042,NaN,NaN,NaN,NaN,NaN,1.3963,101320
0.09,0.48836,11.232,127.51,0.086111,0,9.8221,0.78992,0,0,0,18428,6.595,NaN,199.69,NaN,0.057025,3555999,2529,0.89779,0.72462,0.46874,0.48462,0.11958,0.12042,NaN,NaN,NaN,NaN,NaN,1.3963,101319
0.092,0.51073,11.487,127.54,0.090056,0,9.8221,0.78067,0,0,0,18426,6.5946,183.94,199.68,-1.5319,0.057555,3589037,2529,0.93687,0.72384,0.48018,0.48382,0.11959,0.12043,25.924,-88.501,4.5681e-4,0,0,1.3963,101319
0.095,0.54524,11.87,127.56,0.096135,0,9.8221,0.76701,0,-0.076893,0,18422,6.5941,184.11,199.68,-1.5142,0.058353,3638764,2529,0.99699,0.72268,0.49712,0.48265,0.11959,0.12044,25.433,-85.602,-6.7229e-5,0,-0.0016885,1.3963,101319
0.0995,0.59912,12.444,127.59,0.10561,0,9.8221,0.74725,0,-0.19139,3.0417e-7,18417,6.5934,184.39,199.67,-1.4872,0.059569,3714586,2529,1.0902,0.72096,0.52164,0.4809,0.1196,0.12046,24.724,-81.4,4.3428e-4,0,-0.010038,1.3963,101318
0.10625,0.68471,13.306,127.65,0.12062,0,9.8221,0.71917,0,-0.36114,4.8753e-7,18409,6.5924,184.81,199.67,-1.4455,0.061435,3830911,2529,1.2367,0.7184,0.55635,0.47829,0.11962,0.12049,23.718,-75.423,-4.5465e-4,0,-0.033604,1.3965,101317
0.11625,0.82208,14.583,127.72,0.14462,0,9.8221,0.68079,0,-0.60793,7.6833e-7,18397,6.5909,185.45,199.65,-1.3819,0.064283,4008422,2529,1.4678,0.71468,0.6031,0.47451,0.11964,0.12054,22.354,-67.271,1.7217e-4,0,-0.086973,1.397,101315
0.12625,0.97204,15.861,127.82,0.1707,0,9.8221,0.64593,0,-0.84864,-2.4548e-7,18382,6.589,186.1,199.64,-1.317,0.067218,4191393,2529,1.7146,0.71107,0.64433,0.47082,0.11966,0.12059,21.132,-59.912,2.112e-4,0,-0.155,1.3978,101314
0.13625,1.1346,17.14,127.91,0.19884,0,9.8221,0.61423,0,-1.0828,-9.1003e-7,18368,6.5872,186.75,199.62,-1.2519,0.070229,4379123,2529,1.9761,0.70757,0.68031,0.46724,0.11969,0.12064,20.039,-53.293,2.9915e-4,0,-0.23115,1.3988,101312
0.14625,1.3098,18.42,128,0.22903,0,9.8221,0.58539,0,-1.3098,-1.1706e-6,18354,6.5853,187.4,199.6,-1.1872,0.073308,4571004,2529,2.2516,0.70418,0.71141,0.46377,0.11972,0.1207,19.064,-47.351,-2.107e-4,0,-0.31045,1.4001,101310
0.15625,1.4977,19.7,128.09,0.26124,0,9.8221,0.55911,0,-1.5294,-7.5143e-7,18339,6.5835,188.04,199.59,-1.1236,0.076444,4766515,2529,2.5401,0.70092,0.73806,0.46042,0.11975,0.12076,18.194,-42.021,3.4877e-4,0,-0.38922,1.4016,101307
0.16625,1.6982,20.982,128.18,0.29542,0,9.8221,0.53513,0,-1.7409,-1.8592e-6,18325,6.5816,188.66,199.57,-1.0613,0.079632,4965207,2529,2.8409,0.69778,0.76074,0.45718,0.11978,0.12082,17.418,-37.243,-1.7881e-4,0,-0.46477,1.4033,101305
0.17625,1.9114,22.264,128.27,0.33156,0,9.8221,0.51323,0.019512,-1.944,-1.7655e-6,18311,6.5798,189.27,199.55,-1.0007,0.082866,5166697,2529,3.1537,0.69476,0.77989,0.45406,0.11981,0.12089,16.725,-32.956,2.4938e-4,0,-0.53522,1.4052,101303
0.18625,2.1373,23.548,128.36,0.36961,0,9.8221,0.49319,0.26207,-2.1384,2.5693e-4,18296,6.5779,189.85,199.54,-0.94209,0.086138,5370652,2529,3.4777,0.69186,0.79594,0.45105,0.11985,0.12096,16.106,-29.109,2.0249e-4,0,-0.59929,1.4073,101300
0.19524,2.3512,24.702,128.45,0.4054,0,9.8221,0.47662,0.70341,-2.3052,0.0012311,18283,6.5761,190.36,199.52,-0.89105,0.08911,5555854,2529,3.7784,0.68935,0.80805,0.44844,0.11988,0.12103,15.606,-25.984,-1.979e-4,0,-0.65077,1.4094,101297
0.20067,2.4855,25.4,128.52,0.42776,0,9.8221,0.46721,1.0717,-2.4023,0.0024126,18273,6.5748,190.66,199.51,-0.8608,0.09092,5668614,2529,3.9644,0.68787,0.81443,0.4469,0.1199,0.12107,15.326,-24.232,9.2084e-5,0.07931,-0.67891,1.4108,101296
0.20547,2.607,26.016,128.56,0.44791,-1.4e-8,9.8221,0.45927,1.4323,-2.4855,0.0039371,18265,6.5739,190.92,199.5,-0.83485,0.092523,5768477,2529,4.131,0.6866,0.81952,0.44557,0.11992,0.12111,15.093,-22.77,-3.5355e-4,0.10418,-0.70182,1.412,101294
0.20958,2.7138,26.545,128.6,0.46556,-3.0178e-8,9.8221,0.4527,1.7857,-2.5553,0.0056728,18259,6.573,191.14,199.49,-0.81295,0.093905,5854634,2529,4.2761,0.68552,0.82351,0.44444,0.11993,0.12115,14.902,-21.571,-4.4001e-4,0.12798,-0.72007,1.4131,101293
0.21326,2.811,27.018,128.64,0.48157,-5.5521e-8,9.8221,0.44702,2.1349,-2.6161,0.0076104,18253,6.5723,191.33,199.49,-0.79372,0.095144,5931797,2529,4.4071,0.68458,0.8268,0.44345,0.11995,0.12118,14.738,-20.543,2.1585e-4,0.15104,-0.73524,1.4141,101292
0.21662,2.9012,27.45,128.67,0.4964,-9.2087e-8,9.8221,0.44199,2.4814,-2.6704,0.0097374,18248,6.5717,191.5,199.48,-0.77643,0.096278,6002448,2529,4.528,0.68373,0.82959,0.44256,0.11996,0.12121,14.594,-19.639,4.7483e-4,0.1735,-0.74816,1.415,101291
0.21973,2.9861,27.851,128.7,0.51031,-1.4197e-7,9.8221,0.43744,2.826,-2.7198,0.012047,18244,6.5711,191.66,199.48,-0.76063,0.097332,6068095,2529,4.6411,0.68295,0.83201,0.44174,0.11997,0.12123,14.465,-18.828,1.8106e-4,0.19547,-0.75935,1.4159,101290
0.22265,3.0669,28.226,128.72,0.5235,-2.073e-7,9.8221,0.43329,3.1691,-2.7651,0.014534,18239,6.5705,191.8,199.47,-0.74602,0.098321,6129736,2529,4.7479,0.68222,0.83412,0.44098,0.11999,0.12126,14.349,-18.091,1.2823e-4,0.21702,-0.76914,1.4167,101289
0.22541,3.1441,28.58,128.75,0.53609,-2.9026e-7,9.8221,0.42947,3.5111,-2.8071,0.017191,18235,6.57,191.94,199.47,-0.73239,0.099257,6188076,2529,4.8496,0.68155,0.836,0.44027,0.12,0.12128,14.241,-17.415,-1.187e-4,0.2382,-0.77779,1.4175,101288
0.22802,3.2184,28.918,128.77,0.54818,-3.9308e-7,9.8221,0.4259,3.8522,-2.8462,0.020014,18231,6.5695,192.07,199.46,-0.71959,0.10015,6243633,2529,4.947,0.68092,0.83768,0.4396,0.12001,0.1213,14.142,-16.79,9.7833e-5,0.25903,-0.78546,1.4183,101287
0.23053,3.2903,29.24,128.8,0.55983,-5.1803e-7,9.8221,0.42257,4.1926,-2.8829,0.022997,18228,6.569,192.19,199.46,-0.70751,0.101,6296804,2529,5.0407,0.68032,0.83919,0.43897,0.12002,0.12133,14.05,-16.209,2.4387e-4,0.27957,-0.7923,1.4191,101286
0.23293,3.36,29.549,128.82,0.57111,-6.6744e-7,9.8221,0.41944,4.5324,-2.9175,0.026139,18224,6.5685,192.3,199.46,-0.69604,0.10182,6347898,2529,5.1313,0.67975,0.84056,0.43837,0.12003,0.12135,13.964,-15.664,-1.515e-4,0.29981,-0.79841,1.4198,101286
0.23524,3.4277,29.847,128.84,0.58206,-8.437e-7,9.8221,0.41648,4.8716,-2.9503,0.029435,18221,6.5681,192.41,199.45,-0.68512,0.10261,6397164,2529,5.219,0.6792,0.84181,0.43779,0.12004,0.12137,13.882,-15.151,-3.0798e-4,0.3198,-0.80389,1.4205,101285
0.23747,3.4939,30.134,128.86,0.59271,-1.0492e-6,9.8221,0.41367,5.2105,-2.9813,0.032883,18218,6.5677,192.51,199.45,-0.67468,0.10338,6444804,2529,5.3042,0.67868,0.84295,0.43724,0.12005,0.12139,13.806,-14.668,-4.2816e-4,0.33954,-0.80879,1.4212,101284
0.23964,3.5585,30.413,128.88,0.6031,-1.2866e-6,9.8221,0.411,5.5489,-3.0108,0.036479,18214,6.5673,192.61,199.44,-0.66468,0.10412,6490987,2529,5.3871,0.67818,0.84399,0.43671,0.12006,0.12141,13.733,-14.21,-4.5891e-4,0.35904,-0.81319,1.4219,101283
0.24173,3.6218,30.683,128.9,0.61325,-1.5582e-6,9.8221,0.40846,5.887,-3.039,0.040222,18211,6.5669,192.71,199.44,-0.65507,0.10484,6535854,2529,5.4681,0.6777,0.84495,0.4362,0.12007,0.12143,13.665,-13.775,-2.3601e-4,0.37833,-0.81712,1.4225,101283
0.24377,3.6838,30.946,128.92,0.62319,-1.8667e-6,9.8221,0.40602,6.2248,-3.0659,0.044107,18208,6.5665,192.8,199.44,-0.64582,0.10554,6579525,2529,5.5472,0.67724,0.84583,0.43571,0.12008,0.12145,13.599,-13.361,-6.1703e-4,0.39742,-0.82064,1.4232,101282
0.24576,3.7448,31.202,128.94,0.63293,-2.2148e-6,9.8221,0.40369,6.5623,-3.0916,0.048134,18206,6.5661,192.89,199.43,-0.63689,0.10622,6622103,2529,5.6247,0.67679,0.84665,0.43524,0.12009,0.12147,13.537,-12.966,4.17e-5,0.4163,-0.82377,1.4238,101281
0.2477,3.8047,31.451,128.95,0.64249,-2.6052e-6,9.8221,0.40145,6.8997,-3.1163,0.052301,18203,6.5658,192.97,199.43,-0.62826,0.10689,6663676,2529,5.7006,0.67636,0.8474,0.43478,0.1201,0.12149,13.477,-12.586,-4.1196e-5,0.435,-0.82656,1.4245,101280
0.24959,3.8638,31.695,128.97,0.65189,-3.0406e-6,9.8221,0.39929,7.2367,-3.14,0.056604,18200,6.5654,193.05,199.43,-0.61991,0.10754,6704324,2529,5.7752,0.67594,0.8481,0.43433,0.12011,0.1215,13.419,-12.224,-3.0332e-4,0.45351,-0.82902,1.4251,101280
0.25144,3.9219,31.934,128.99,0.66113,-3.5239e-6,9.8221,0.39721,7.5736,-3.1627,0.061044,18197,6.565,193.13,199.42,-0.61181,0.10818,6744115,2529,5.8484,0.67553,0.84875,0.43389,0.12012,0.12152,13.364,-11.876,1.9952e-5,0.47186,-0.83118,1.4257,101279
0.25326,3.9793,32.168,129,0.67023,-4.058e-6,9.8221,0.3952,7.9104,-3.1846,0.065618,18195,6.5647,193.21,199.42,-0.60395,0.10881,6783109,2529,5.9205,0.67513,0.84935,0.43347,0.12012,0.12154,13.311,-11.54,-5.1179e-4,0.49003,-0.83306,1.4263,101278
0.25503,4.036,32.397,129.02,0.67919,-4.6457e-6,9.8221,0.39327,8.2469,-3.2057,0.070325,18192,6.5644,193.29,199.42,-0.59632,0.10942,6821360,2529,5.9914,0.67475,0.84991,0.43306,0.12013,0.12156,13.26,-11.218,-3.2269e-4,0.50805,-0.83468,1.4269,101278
0.25678,4.0919,32.621,129.04,0.68803,-5.2902e-6,9.8221,0.39139,8.5834,-3.226,0.075162,18190,6.564,193.36,199.42,-0.58889,0.11003,6858916,2529,6.0613,0.67437,0.85043,0.43266,0.12014,0.12157,13.211,-10.907,-8.2589e-4,0.52591,-0.83606,1.4275,101277
0.25849,4.1473,32.842,129.05,0.69675,-5.9945e-6,9.8221,0.38957,8.9196,-3.2456,0.080129,18187,6.5637,193.43,199.41,-0.58165,0.11062,6895821,2529,6.1302,0.67401,0.85092,0.43227,0.12015,0.12159,13.164,-10.606,-2.6116e-4,0.54363,-0.83721,1.428,101276
0.26017,4.202,33.059,129.07,0.70536,-6.7616e-6,9.8221,0.38781,9.2558,-3.2646,0.085225,18185,6.5634,193.5,199.41,-0.5746,0.1112,6932115,2529,6.1982,0.67365,0.85137,0.43188,0.12016,0.12161,13.118,-10.316,-7.2011e-4,0.5612,-0.83815,1.4286,101276
0.26182,4.2562,33.272,129.08,0.71387,-7.5948e-6,9.8221,0.3861,9.5918,-3.2828,0.090448,18182,6.5631,193.57,199.41,-0.56772,0.11178,6967831,2529,6.2653,0.6733,0.85179,0.43151,0.12017,0.12162,13.074,-10.034,-4.6458e-4,0.57862,-0.83888,1.4292,101275
0.26345,4.3098,33.482,129.1,0.72229,-8.4973e-6,9.8221,0.38443,9.9278,-3.3005,0.095796,18180,6.5628,193.64,199.4,-0.56101,0.11234,7003004,2529,6.3317,0.67296,0.85218,0.43114,0.12017,0.12164,13.031,-9.7625,-3.9373e-4,0.59592,-0.83943,1.4298,101274
0.26505,4.363,33.689,129.11,0.73061,-9.4725e-6,9.8221,0.38282,10.264,-3.3176,0.10127,18178,6.5625,193.7,199.4,-0.55444,0.1129,7037662,2529,6.3973,0.67262,0.85255,0.43078,0.12018,0.12166,12.989,-9.4988,-0.0012651,0.61308,-0.8398,1.4303,101274
0.26663,4.4157,33.892,129.13,0.73884,-1.0524e-5,9.8221,0.38124,10.599,-3.3341,0.10687,18175,6.5622,193.76,199.4,-0.54802,0.11345,7071832,2529,6.4621,0.67229,0.85289,0.43043,0.12019,0.12167,12.949,-9.2424,-0.0010251,0.63011,-0.83999,1.4309,101273
0.26819,4.468,34.093,129.14,0.74699,-1.1654e-5,9.8221,0.37971,10.935,-3.3501,0.11259,18173,6.5619,193.83,199.4,-0.54175,0.11399,7105539,2529,6.5263,0.67197,0.8532,0.43009,0.1202,0.12169,12.909,-8.9929,-0.0013552,0.64702,-0.84003,1.4314,101273
0.26972,4.5199,34.291,129.15,0.75507,-1.2868e-5,9.8221,0.37821,11.271,-3.3655,0.11843,18171,6.5616,193.89,199.39,-0.5356,0.11452,7138806,2529,6.5899,0.67166,0.8535,0.42975,0.1202,0.1217,12.871,-8.7509,-0.0012877,0.66381,-0.83991,1.4319,101272
0.27124,4.5714,34.487,129.17,0.76306,-1.4168e-5,9.8221,0.37675,11.606,-3.3805,0.12439,18169,6.5613,193.95,199.39,-0.52957,0.11505,7171655,2529,6.6528,0.67135,0.85377,0.42941,0.12021,0.12172,12.834,-8.516,-0.0014977,0.68047,-0.83964,1.4325,101271
0.27273,4.6225,34.68,129.18,0.77099,-1.5558e-5,9.8221,0.37533,11.941,-3.395,0.13047,18167,6.5611,194,199.39,-0.52367,0.11557,7204104,2529,6.7152,0.67104,0.85403,0.42909,0.12022,0.12174,12.798,-8.2873,-0.0016274,0.69703,-0.83923,1.433,101271
0.27421,4.6732,34.87,129.19,0.77885,-1.7042e-5,9.8221,0.37394,12.277,-3.409,0.13666,18165,6.5608,194.06,199.39,-0.51788,0.11608,7236171,2529,6.777,0.67075,0.85426,0.42877,0.12023,0.12175,12.763,-8.0636,-0.0017459,0.71346,-0.83869,1.4335,101270
0.27567,4.7237,35.059,129.21,0.78665,-1.8623e-5,9.8221,0.37258,12.612,-3.4226,0.14298,18162,6.5605,194.12,199.38,-0.5122,0.11659,7267875,2529,6.8383,0.67045,0.85448,0.42845,0.12023,0.12177,12.728,-7.846,-0.0018024,0.72979,-0.83803,1.4341,101270
0.27711,4.7738,35.245,129.22,0.79438,-2.0306e-5,9.8221,0.37125,12.947,-3.4357,0.14941,18160,6.5602,194.17,199.38,-0.50662,0.1171,7299230,2529,6.8991,0.67016,0.85469,0.42814,0.12024,0.12178,12.695,-7.6348,-0.001677,0.74601,-0.83723,1.4346,101269
0.27854,4.8236,35.429,129.23,0.80205,-2.2094e-5,9.8221,0.36995,13.282,-3.4485,0.15596,18158,6.56,194.23,199.38,-0.50115,0.1176,7330251,2529,6.9594,0.66988,0.85487,0.42783,0.12025,0.1218,12.662,-7.4275,-0.0021842,0.76213,-0.83633,1.4351,101268
0.27995,4.8732,35.611,129.25,0.80967,-2.3991e-5,9.8221,0.36867,13.618,-3.4608,0.16262,18156,6.5597,194.28,199.38,-0.49577,0.11809,7360952,2529,7.0192,0.6696,0.85505,0.42753,0.12026,0.12181,12.63,-7.2256,-0.0021363,0.77814,-0.8353,1.4356,101268
0.28135,4.9225,35.791,129.26,0.81723,-2.6002e-5,9.8221,0.36743,13.953,-3.4728,0.1694,18154,6.5594,194.33,199.37,-0.49048,0.11858,7391345,2529,7.0787,0.66933,0.85521,0.42724,0.12026,0.12183,12.599,-7.0278,-0.00232,0.79405,-0.83417,1.4361,101267
0.28273,4.9715,35.97,129.27,0.82474,-2.813e-5,9.8221,0.3662,14.288,-3.4843,0.17629,18152,6.5592,194.38,199.37,-0.48528,0.11906,7421444,2529,7.1377,0.66906,0.85535,0.42694,0.12027,0.12184,12.569,-6.835,-0.0019935,0.80986,-0.83294,1.4366,101267
0.2841,5.0203,36.147,129.28,0.8322,-3.0379e-5,9.8221,0.36501,14.623,-3.4955,0.18329,18150,6.5589,194.43,199.37,-0.48016,0.11954,7451258,2529,7.1963,0.66879,0.85549,0.42666,0.12028,0.12186,12.539,-6.6466,-0.002258,0.82558,-0.8316,1.4371,101266
0.28545,5.0688,36.322,129.3,0.83962,-3.2754e-5,9.8221,0.36383,14.958,-3.5064,0.1904,18148,6.5587,194.48,199.37,-0.47513,0.12001,7480800,2529,7.2545,0.66853,0.85561,0.42637,0.12029,0.12187,12.51,-6.4621,-0.0024106,0.8412,-0.83017,1.4376,101266
0.2868,5.1172,36.495,129.31,0.84698,-3.526e-5,9.8221,0.36268,15.292,-3.5169,0.19763,18146,6.5584,194.53,199.36,-0.47017,0.12048,7510078,2529,7.3124,0.66827,0.85572,0.42609,0.12029,0.12189,12.481,-6.2812,-0.0021328,0.85672,-0.82865,1.4381,101265
0.28813,5.1653,36.667,129.32,0.8543,-3.7899e-5,9.8221,0.36155,15.627,-3.527,0.20496,18145,6.5582,194.58,199.36,-0.4653,0.12095,7539103,2529,7.3699,0.66802,0.85583,0.42582,0.1203,0.1219,12.453,-6.1052,-0.0031213,0.87216,-0.82703,1.4386,101264
0.28945,5.2132,36.837,129.33,0.86158,-4.0678e-5,9.8221,0.36044,15.962,-3.5369,0.2124,18143,6.5579,194.63,199.36,-0.46049,0.12141,7567883,2529,7.4271,0.66777,0.85592,0.42554,0.12031,0.12192,12.426,-5.932,-0.0025144,0.8875,-0.82533,1.4391,101264
0.29075,5.2609,37.006,129.34,0.86882,-4.36e-5,9.8221,0.35935,16.297,-3.5464,0.21995,18141,6.5577,194.67,199.36,-0.45575,0.12187,7596427,2529,7.484,0.66752,0.856,0.42527,0.12031,0.12193,12.399,-5.7624,-0.0032227,0.90276,-0.82354,1.4396,101263
0.29205,5.3085,37.173,129.36,0.87601,-4.667e-5,9.8221,0.35828,16.631,-3.5556,0.22761,18139,6.5574,194.72,199.36,-0.45109,0.12232,7624743,2529,7.5406,0.66727,0.85607,0.42501,0.12032,0.12195,12.373,-5.5966,-0.0030168,0.91793,-0.82167,1.44,101263
0.29334,5.3558,37.339,129.37,0.88317,-4.9893e-5,9.8221,0.35722,16.966,-3.5645,0.23537,18137,6.5572,194.76,199.35,-0.44649,0.12278,7652839,2529,7.5968,0.66703,0.85614,0.42475,0.12033,0.12196,12.347,-5.4332,-0.0039783,0.93301,-0.81972,1.4405,101262
0.29461,5.403,37.504,129.38,0.89029,-5.3273e-5,9.8221,0.35619,17.301,-3.573,0.24324,18135,6.557,194.81,199.35,-0.44195,0.12322,7680722,2529,7.6528,0.6668,0.85619,0.42449,0.12034,0.12197,12.322,-5.2741,-0.0036704,0.94801,-0.81769,1.441,101262
0.29588,5.4501,37.668,129.39,0.89738,-5.6815e-5,9.8221,0.35517,17.635,-3.5813,0.25122,18133,6.5567,194.85,199.35,-0.43747,0.12367,7708399,2529,7.7085,0.66656,0.85624,0.42423,0.12034,0.12199,12.297,-5.1169,-0.0041324,0.96292,-0.81559,1.4415,101261
0.29713,5.497,37.83,129.4,0.90443,-6.0525e-5,9.8221,0.35417,17.97,-3.5893,0.2593,18132,6.5565,194.9,199.35,-0.43306,0.12411,7735876,2529,7.7639,0.66633,0.85628,0.42398,0.12035,0.122,12.273,-4.963,-0.0045545,0.97776,-0.81342,1.4419,101261
0.29838,5.5437,37.991,129.41,0.91144,-6.4407e-5,9.8221,0.35318,18.305,-3.597,0.26748,18130,6.5563,194.94,199.35,-0.4287,0.12455,7763160,2529,7.8191,0.6661,0.85631,0.42373,0.12036,0.12202,12.249,-4.8115,-0.0042374,0.99251,-0.81118,1.4424,101260
0.29962,5.5903,38.151,129.43,0.91842,-6.8466e-5,9.8221,0.35221,18.639,-3.6044,0.27577,18128,6.556,194.98,199.34,-0.4244,0.12498,7790257,2529,7.8741,0.66587,0.85634,0.42348,0.12036,0.12203,12.225,-4.6638,-0.0051928,1.0072,-0.80886,1.4429,101259
0.30085,5.6368,38.31,129.44,0.92537,-7.2708e-5,9.8221,0.35126,18.974,-3.6116,0.28416,18126,6.5558,195.02,199.34,-0.42015,0.12542,7817171,2529,7.9288,0.66565,0.85636,0.42323,0.12037,0.12204,12.202,-4.5182,-0.005491,1.0218,-0.80648,1.4433,101259
0.30207,5.6831,38.467,129.45,0.93229,-7.7137e-5,9.8221,0.35032,19.308,-3.6184,0.29265,18124,6.5556,195.06,199.34,-0.41596,0.12584,7843910,2529,7.9832,0.66542,0.85637,0.42299,0.12038,0.12206,12.18,-4.3752,-0.005209,1.0363,-0.80404,1.4438,101258
0.30328,5.7293,38.624,129.46,0.93919,-8.1759e-5,9.8221,0.34939,19.643,-3.625,0.30125,18123,6.5553,195.1,199.34,-0.41181,0.12627,7870478,2529,8.0375,0.66521,0.85638,0.42275,0.12038,0.12207,12.157,-4.2344,-0.0055869,1.0508,-0.80153,1.4443,101258
0.30448,5.7754,38.78,129.47,0.94605,-8.6579e-5,9.8221,0.34848,19.976,-3.6314,0.30994,18121,6.5551,195.14,199.34,-0.40772,0.1267,7896879,2529,8.0915,0.66499,0.85638,0.42251,0.12039,0.12209,12.123,-4.144,-0.0057462,1.0651,-0.79898,1.4447,101257
0.30569,5.8217,38.935,129.48,0.95292,-9.1632e-5,9.8221,0.34757,20.309,-3.6377,0.31878,18119,6.5549,195.18,199.33,-0.40365,0.12712,7923268,2529,8.1485,0.66501,0.85667,0.42251,0.1204,0.1221,12.082,-4.0805,-0.0060781,1.0793,-0.7964,1.4452,101257
0.30689,5.8682,39.091,129.49,0.95982,-9.6943e-5,9.8221,0.34667,20.642,-3.6438,0.3278,18118,6.5547,195.22,199.33,-0.3996,0.12754,7949725,2529,8.2058,0.66502,0.85696,0.4225,0.1204,0.12211,12.041,-4.018,-0.0061522,1.0934,-0.79379,1.4456,101256
0.3081,5.915,39.247,129.5,0.96676,-1.0252e-4,9.8221,0.34578,20.975,-3.6499,0.337,18116,6.5544,195.26,199.33,-0.39556,0.12797,7976252,2529,8.2634,0.66504,0.85724,0.4225,0.12041,0.12213,12.001,-3.9558,-0.0067549,1.1074,-0.79115,1.4461,101256
0.30931,5.9622,39.404,129.51,0.97372,-1.0839e-4,9.8221,0.34489,21.308,-3.6559,0.34637,18114,6.5542,195.3,199.33,-0.39154,0.1284,8002848,2529,8.3213,0.66505,0.85752,0.42249,0.12042,0.12214,11.961,-3.895,-0.0074151,1.1213,-0.78849,1.4466,101255
0.31053,6.0096,39.561,129.52,0.98072,-1.1454e-4,9.8221,0.34401,21.641,-3.6619,0.35592,18112,6.554,195.34,199.33,-0.38753,0.12883,8029514,2529,8.3795,0.66507,0.85779,0.42249,0.12042,0.12216,11.921,-3.834,-0.0075177,1.1351,-0.7858,1.447,101255
0.31174,6.0573,39.718,129.53,0.98776,-1.21e-4,9.8221,0.34313,21.974,-3.6677,0.36566,18111,6.5538,195.38,199.32,-0.38353,0.12926,8056252,2529,8.4381,0.66509,0.85806,0.42248,0.12043,0.12217,11.882,-3.774,-0.0078634,1.1488,-0.78307,1.4475,101254
0.31296,6.1054,39.876,129.55,0.99482,-1.2779e-4,9.8221,0.34226,22.307,-3.6735,0.37557,18109,6.5535,195.42,199.32,-0.37955,0.12969,8083061,2529,8.4969,0.6651,0.85832,0.42248,0.12044,0.12219,11.843,-3.7143,-0.008279,1.1624,-0.78032,1.448,101253
0.31419,6.1537,40.034,129.56,1.0019,-1.349e-4,9.8221,0.34139,22.64,-3.6791,0.38567,18107,6.5533,195.46,199.32,-0.37558,0.13012,8109943,2529,8.5561,0.66512,0.85857,0.42248,0.12045,0.1222,11.804,-3.656,-0.0086347,1.1759,-0.77754,1.4484,101253
0.31541,6.2023,40.192,129.57,1.009,-1.4237e-4,9.8221,0.34053,22.973,-3.6847,0.39595,18105,6.5531,195.5,199.32,-0.37163,0.13055,8136897,2529,8.6156,0.66514,0.85882,0.42247,0.12045,0.12222,11.765,-3.5974,-0.0093727,1.1893,-0.77473,1.4489,101252
0.31664,6.2513,40.351,129.58,1.0162,-1.502e-4,9.8221,0.33967,23.306,-3.6902,0.40641,18104,6.5528,195.54,199.31,-0.36768,0.13099,8163926,2529,8.6754,0.66516,0.85906,0.42247,0.12046,0.12223,11.727,-3.5397,-0.0094032,1.2026,-0.77189,1.4494,101252
0.31787,6.3006,40.511,129.59,1.0234,-1.5841e-4,9.8221,0.33882,23.639,-3.6955,0.41706,18102,6.5526,195.57,199.31,-0.36375,0.13142,8191028,2529,8.7356,0.66517,0.8593,0.42246,0.12047,0.12225,11.689,-3.4832,-0.0099741,1.2158,-0.76903,1.4499,101251
0.31911,6.3502,40.67,129.6,1.0306,-1.6701e-4,9.8221,0.33797,23.972,-3.7008,0.42789,18100,6.5524,195.61,199.31,-0.35984,0.13186,8218206,2529,8.796,0.66519,0.85954,0.42246,0.12047,0.12226,11.651,-3.4259,-0.0098676,1.2289,-0.76613,1.4503,101251
0.32034,6.4001,40.83,129.61,1.0379,-1.7602e-4,9.8221,0.33713,24.305,-3.706,0.43891,18098,6.5522,195.65,199.31,-0.35593,0.1323,8245459,2529,8.8568,0.66521,0.85976,0.42245,0.12048,0.12228,11.613,-3.3709,-0.011032,1.2419,-0.7632,1.4508,101250
0.32159,6.4503,40.991,129.62,1.0452,-1.8547e-4,9.8221,0.3363,24.638,-3.7111,0.45012,18097,6.5519,195.69,199.31,-0.35204,0.13273,8272788,2529,8.918,0.66523,0.85999,0.42245,0.12049,0.12229,11.576,-3.3155,-0.011502,1.2549,-0.76024,1.4513,101249
0.32283,6.5008,41.152,129.63,1.0525,-1.9536e-4,9.8221,0.33546,24.97,-3.716,0.46151,18095,6.5517,195.73,199.3,-0.34817,0.13317,8300195,2529,8.9795,0.66524,0.86021,0.42244,0.1205,0.12231,11.539,-3.2601,-0.011213,1.2677,-0.75725,1.4518,101249
0.32408,6.5517,41.313,129.64,1.0599,-2.0572e-4,9.8221,0.33464,25.303,-3.7209,0.4731,18093,6.5515,195.76,199.3,-0.3443,0.13362,8327679,2529,9.0413,0.66526,0.86042,0.42244,0.1205,0.12232,11.502,-3.2055,-0.012068,1.2804,-0.75422,1.4523,101248
0.32533,6.6029,41.475,129.65,1.0673,-2.1656e-4,9.8221,0.33382,25.636,-3.7257,0.48487,18091,6.5512,195.8,199.3,-0.34045,0.13406,8355242,2529,9.1035,0.66528,0.86063,0.42243,0.12051,0.12234,11.466,-3.1518,-0.012356,1.2931,-0.75117,1.4527,101248
0.32658,6.6545,41.637,129.66,1.0747,-2.2791e-4,9.8221,0.333,25.969,-3.7303,0.49684,18089,6.551,195.84,199.3,-0.33661,0.1345,8382883,2529,9.166,0.6653,0.86083,0.42243,0.12052,0.12235,11.429,-3.0994,-0.013388,1.3056,-0.74808,1.4532,101247
0.32784,6.7064,41.799,129.68,1.0822,-2.3978e-4,9.8221,0.33219,26.302,-3.7349,0.50899,18088,6.5508,195.88,199.3,-0.33278,0.13495,8410604,2529,9.2289,0.66531,0.86103,0.42242,0.12053,0.12237,11.393,-3.0462,-0.01394,1.3181,-0.74497,1.4537,101246
0.3291,6.7586,41.962,129.69,1.0897,-2.522e-4,9.8221,0.33138,26.635,-3.7393,0.52134,18086,6.5505,195.91,199.29,-0.32897,0.1354,8438406,2529,9.2922,0.66533,0.86123,0.42242,0.12053,0.12238,11.357,-2.9946,-0.01488,1.3304,-0.74182,1.4542,101246
0.33036,6.8112,42.126,129.7,1.0972,-2.6519e-4,9.8221,0.33057,26.968,-3.7436,0.53388,18084,6.5503,195.95,199.29,-0.32517,0.13584,8466289,2529,9.3558,0.66535,0.86142,0.42241,0.12054,0.1224,11.322,-2.9427,-0.015062,1.3427,-0.73864,1.4547,101245
0.33163,6.8641,42.29,129.71,1.1048,-2.7878e-4,9.8221,0.32978,27.301,-3.7478,0.54662,18082,6.55,195.99,199.29,-0.32137,0.13629,8494254,2529,9.4198,0.66537,0.8616,0.42241,0.12055,0.12241,11.286,-2.8912,-0.015358,1.3549,-0.73542,1.4552,101244
0.33289,6.9173,42.454,129.72,1.1124,-2.9298e-4,9.8221,0.32898,27.634,-3.7519,0.55955,18080,6.5498,196.02,199.29,-0.3176,0.13674,8522301,2529,9.4841,0.66539,0.86179,0.4224,0.12056,0.12243,11.251,-2.8408,-0.016429,1.367,-0.73218,1.4557,101244
0.33417,6.9709,42.619,129.73,1.12,-3.0783e-4,9.8221,0.32819,27.967,-3.7559,0.57268,18079,6.5496,196.06,199.29,-0.31383,0.1372,8550431,2529,9.5488,0.66541,0.86196,0.4224,0.12056,0.12245,11.216,-2.791,-0.016586,1.379,-0.7289,1.4562,101243
0.33544,7.0249,42.784,129.74,1.1277,-3.2334e-4,9.8221,0.32741,28.299,-3.7597,0.586,18077,6.5493,196.1,199.28,-0.31007,0.13765,8578645,2529,9.6139,0.66543,0.86214,0.42239,0.12057,0.12246,11.182,-2.7413,-0.017858,1.3909,-0.72558,1.4567,101243
0.33672,7.0792,42.949,129.75,1.1354,-3.3955e-4,9.8221,0.32662,28.632,-3.7634,0.59952,18075,6.5491,196.13,199.28,-0.30633,0.1381,8606944,2529,9.6793,0.66544,0.8623,0.42238,0.12058,0.12248,11.147,-2.6923,-0.018104,1.4027,-0.72223,1.4572,101242
0.33801,7.1339,43.116,129.76,1.1431,-3.5648e-4,9.8221,0.32585,28.965,-3.767,0.61324,18073,6.5489,196.17,199.28,-0.3026,0.13856,8635328,2529,9.7452,0.66546,0.86247,0.42238,0.12059,0.1225,11.113,-2.6442,-0.018795,1.4144,-0.71885,1.4577,101241
0.33929,7.189,43.282,129.78,1.1509,-3.7416e-4,9.8221,0.32507,29.298,-3.7704,0.62716,18071,6.5486,196.2,199.28,-0.29888,0.13902,8663798,2529,9.8114,0.66548,0.86263,0.42237,0.1206,0.12251,11.079,-2.5957,-0.019805,1.4261,-0.71544,1.4582,101241
0.34059,7.2444,43.449,129.79,1.1587,-3.9262e-4,9.8221,0.32431,29.631,-3.7737,0.64128,18069,6.5484,196.24,199.27,-0.29517,0.13948,8692355,2529,9.878,0.6655,0.86279,0.42237,0.1206,0.12253,11.045,-2.5484,-0.020332,1.4376,-0.71199,1.4587,101240
0.34188,7.3002,43.617,129.8,1.1666,-4.1189e-4,9.8221,0.32354,29.964,-3.7769,0.65559,18068,6.5481,196.28,199.27,-0.29147,0.13994,8720999,2529,9.945,0.66552,0.86294,0.42236,0.12061,0.12255,11.012,-2.5014,-0.021784,1.4491,-0.7085,1.4592,101239
0.34318,7.3563,43.785,129.81,1.1745,-4.3201e-4,9.8221,0.32278,30.297,-3.78,0.67011,18066,6.5479,196.31,199.27,-0.28779,0.1404,8749732,2529,10.012,0.66554,0.86309,0.42236,0.12062,0.12256,10.978,-2.4546,-0.022255,1.4604,-0.70498,1.4597,101239
0.34448,7.4129,43.953,129.82,1.1824,-4.53e-4,9.8221,0.32203,30.63,-3.7828,0.68483,18064,6.5476,196.35,199.27,-0.28411,0.14086,8778553,2529,10.08,0.66556,0.86323,0.42235,0.12063,0.12258,10.945,-2.4087,-0.022939,1.4717,-0.70143,1.4602,101238
0.34578,7.4698,44.122,129.83,1.1904,-4.749e-4,9.8221,0.32127,30.962,-3.7856,0.69975,18062,6.5474,196.38,199.27,-0.28044,0.14133,8807464,2529,10.148,0.66558,0.86337,0.42235,0.12064,0.1226,10.912,-2.3625,-0.023584,1.4829,-0.69783,1.4608,101237
0.34709,7.5271,44.292,129.84,1.1984,-4.9775e-4,9.8221,0.32053,31.295,-3.7882,0.71487,18060,6.5472,196.42,199.26,-0.27679,0.14179,8836465,2529,10.217,0.6656,0.86351,0.42234,0.12065,0.12261,10.88,-2.3167,-0.024844,1.4941,-0.69421,1.4613,101237
0.34841,7.5848,44.462,129.86,1.2064,-5.2158e-4,9.8221,0.31978,31.628,-3.7906,0.73019,18058,6.5469,196.45,199.26,-0.27315,0.14226,8865557,2529,10.286,0.66562,0.86364,0.42234,0.12065,0.12263,10.847,-2.2727,-0.02514,1.5051,-0.69055,1.4618,101236
0.34972,7.6429,44.632,129.87,1.2145,-5.4643e-4,9.8221,0.31904,31.961,-3.7929,0.74572,18056,6.5467,196.49,199.26,-0.26951,0.14273,8894741,2529,10.355,0.66564,0.86377,0.42233,0.12066,0.12265,10.815,-2.2279,-0.026374,1.516,-0.68685,1.4623,101235
0.35104,7.7013,44.803,129.88,1.2226,-5.7234e-4,9.8221,0.31831,32.294,-3.7951,0.76146,18055,6.5464,196.52,199.26,-0.26589,0.1432,8924018,2529,10.425,0.66566,0.8639,0.42232,0.12067,0.12267,10.783,-2.1834,-0.027613,1.5269,-0.68311,1.4628,101235
0.35237,7.7602,44.974,129.89,1.2308,-5.9935e-4,9.8221,0.31757,32.627,-3.797,0.77739,18053,6.5462,196.56,199.25,-0.26228,0.14367,8953387,2529,10.496,0.66568,0.86402,0.42232,0.12068,0.12268,10.751,-2.1405,-0.028595,1.5377,-0.67934,1.4633,101234
0.35369,7.8195,45.146,129.9,1.2389,-6.275e-4,9.8221,0.31684,32.96,-3.7989,0.79353,18051,6.5459,196.59,199.25,-0.25867,0.14414,8982851,2529,10.566,0.6657,0.86414,0.42231,0.12069,0.1227,10.719,-2.0976,-0.029651,1.5484,-0.67553,1.4639,101233
0.35503,7.8792,45.319,129.91,1.2472,-6.5683e-4,9.8221,0.31612,33.292,-3.8005,0.80988,18049,6.5457,196.63,199.25,-0.25508,0.14462,9012409,2529,10.637,0.66572,0.86426,0.42231,0.1207,0.12272,10.688,-2.0547,-0.030422,1.559,-0.67168,1.4644,101233
0.35636,7.9392,45.492,129.93,1.2554,-6.8739e-4,9.8221,0.3154,33.625,-3.802,0.82644,18047,6.5454,196.66,199.25,-0.2515,0.1451,9042062,2529,10.709,0.66574,0.86437,0.4223,0.12071,0.12274,10.656,-2.0126,-0.031452,1.5695,-0.6678,1.4649,101232
0.3577,7.9997,45.665,129.94,1.2637,-7.1923e-4,9.8221,0.31468,33.958,-3.8033,0.84319,18045,6.5452,196.7,199.25,-0.24792,0.14557,9071812,2529,10.781,0.66576,0.86448,0.42229,0.12071,0.12275,10.625,-1.9707,-0.03253,1.5799,-0.66388,1.4654,101231
0.35904,8.0607,45.839,129.95,1.2721,-7.5239e-4,9.8221,0.31397,34.291,-3.8044,0.86016,18043,6.5449,196.73,199.24,-0.24436,0.14605,9101659,2529,10.853,0.66579,0.86458,0.42229,0.12072,0.12277,10.594,-1.9289,-0.033375,1.5903,-0.65992,1.466,101230
0.36039,8.122,46.014,129.96,1.2804,-7.8692e-4,9.8221,0.31326,34.624,-3.8054,0.87733,18041,6.5447,196.77,199.24,-0.2408,0.14654,9131603,2529,10.926,0.66581,0.86469,0.42228,0.12073,0.12279,10.563,-1.8881,-0.035029,1.6006,-0.65592,1.4665,101230
0.36174,8.1837,46.189,129.97,1.2889,-8.2287e-4,9.8221,0.31255,34.957,-3.8062,0.89471,18039,6.5444,196.8,199.24,-0.23726,0.14702,9161645,2529,10.999,0.66583,0.86479,0.42228,0.12074,0.12281,10.533,-1.8468,-0.036055,1.6108,-0.65188,1.467,101229
0.3631,8.2459,46.365,129.99,1.2973,-8.603e-4,9.8221,0.31184,35.289,-3.8068,0.9123,18037,6.5442,196.83,199.24,-0.23372,0.1475,9191786,2529,11.073,0.66585,0.86488,0.42227,0.12075,0.12283,10.502,-1.8064,-0.037403,1.6209,-0.64781,1.4676,101228
0.36446,8.3085,46.541,130,1.3058,-8.9926e-4,9.8221,0.31114,35.622,-3.8072,0.93009,18035,6.5439,196.87,199.23,-0.23019,0.14799,9222027,2529,11.147,0.66587,0.86498,0.42226,0.12076,0.12285,10.472,-1.7664,-0.03854,1.6309,-0.6437,1.4681,101228
0.36583,8.3716,46.718,130.01,1.3143,-9.398e-4,9.8221,0.31045,35.955,-3.8074,0.9481,18033,6.5437,196.9,199.23,-0.22668,0.14848,9252369,2529,11.222,0.66589,0.86507,0.42226,0.12077,0.12287,10.442,-1.7269,-0.039212,1.6409,-0.63955,1.4686,101227
0.36719,8.4351,46.895,130.02,1.3229,-9.8199e-4,9.8221,0.30975,36.288,-3.8074,0.9663,18031,6.5434,196.94,199.23,-0.22316,0.14897,9282812,2529,11.297,0.66591,0.86515,0.42225,0.12078,0.12288,10.412,-1.6879,-0.040929,1.6508,-0.63536,1.4692,101226
0.36857,8.499,47.073,130.03,1.3315,-0.0010259,9.8221,0.30906,36.621,-3.8072,0.98472,18029,6.5432,196.97,199.23,-0.21966,0.14946,9313357,2529,11.373,0.66594,0.86524,0.42225,0.12079,0.1229,10.382,-1.6497,-0.042048,1.6605,-0.63113,1.4697,101225
0.36994,8.5634,47.252,130.05,1.3402,-0.0010715,9.8221,0.30837,36.954,-3.8068,1.0033,18028,6.5429,197,199.23,-0.21617,0.14995,9344004,2529,11.449,0.66596,0.86532,0.42224,0.1208,0.12292,10.353,-1.6114,-0.04403,1.6703,-0.62686,1.4702,101225
0.37133,8.6282,47.431,130.06,1.3488,-0.001119,9.8221,0.30769,37.286,-3.8062,1.0222,18026,6.5426,197.04,199.22,-0.21268,0.15044,9374755,2529,11.525,0.66598,0.86539,0.42223,0.12081,0.12294,10.323,-1.5734,-0.045264,1.6799,-0.62255,1.4708,101224
0.37271,8.6934,47.61,130.07,1.3576,-0.0011684,9.8221,0.30701,37.619,-3.8054,1.0412,18024,6.5424,197.07,199.22,-0.2092,0.15094,9405610,2529,11.603,0.666,0.86547,0.42223,0.12081,0.12296,10.294,-1.5354,-0.046524,1.6894,-0.6182,1.4713,101223
0.3741,8.7592,47.79,130.08,1.3663,-0.0012198,9.8221,0.30633,37.952,-3.8044,1.0605,18022,6.5421,197.1,199.22,-0.20573,0.15144,9436570,2529,11.68,0.66603,0.86554,0.42222,0.12082,0.12298,10.265,-1.4983,-0.047953,1.6989,-0.61381,1.4719,101222
0.3755,8.8254,47.971,130.1,1.3751,-0.0012732,9.8221,0.30566,38.285,-3.8031,1.0799,18020,6.5419,197.14,199.22,-0.20227,0.15194,9467636,2529,11.758,0.66605,0.86561,0.42221,0.12083,0.123,10.236,-1.4605,-0.049144,1.7083,-0.60939,1.4724,101221
0.37689,8.892,48.152,130.11,1.384,-0.0013287,9.8221,0.30498,38.618,-3.8016,1.0996,18018,6.5416,197.17,199.21,-0.19881,0.15244,9498808,2529,11.837,0.66607,0.86568,0.42221,0.12084,0.12302,10.207,-1.4246,-0.050699,1.7176,-0.60492,1.4729,101221
0.3783,8.9591,48.334,130.12,1.3929,-0.0013863,9.8221,0.30431,38.95,-3.7999,1.1195,18016,6.5413,197.2,199.21,-0.19537,0.15294,9530087,2529,11.916,0.6661,0.86574,0.4222,0.12085,0.12304,10.178,-1.3876,-0.052364,1.7269,-0.60041,1.4735,101220
0.37971,9.0267,48.517,130.13,1.4018,-0.0014463,9.8221,0.30365,39.283,-3.798,1.1395,18014,6.5411,197.24,199.21,-0.19192,0.15345,9561474,2529,11.995,0.66612,0.8658,0.4222,0.12086,0.12306,10.15,-1.352,-0.053583,1.7361,-0.59587,1.474,101219
0.38112,9.0948,48.7,130.15,1.4108,-0.0015085,9.8221,0.30298,39.616,-3.7959,1.1598,18012,6.5408,197.27,199.21,-0.18849,0.15395,9592969,2529,12.075,0.66614,0.86586,0.42219,0.12087,0.12308,10.121,-1.3165,-0.055102,1.7451,-0.59128,1.4746,101218
0.38254,9.1634,48.884,130.16,1.4198,-0.0015732,9.8221,0.30232,39.949,-3.7935,1.1803,18010,6.5405,197.3,199.2,-0.18506,0.15446,9624574,2529,12.156,0.66617,0.86592,0.42218,0.12088,0.1231,10.093,-1.2811,-0.056952,1.7542,-0.58665,1.4751,101218
0.38396,9.2324,49.068,130.17,1.4288,-0.0016404,9.8221,0.30166,40.282,-3.7908,1.201,18007,6.5403,197.33,199.2,-0.18164,0.15497,9656288,2529,12.237,0.66619,0.86597,0.42218,0.12089,0.12312,10.065,-1.2465,-0.057934,1.7631,-0.58199,1.4757,101217
0.38538,9.302,49.253,130.18,1.4379,-0.0017103,9.8221,0.30101,40.614,-3.7879,1.2219,18005,6.54,197.37,199.2,-0.17822,0.15548,9688113,2529,12.318,0.66621,0.86602,0.42217,0.1209,0.12314,10.037,-1.2117,-0.060453,1.772,-0.57728,1.4762,101216
0.38682,9.372,49.439,130.2,1.447,-0.0017827,9.8221,0.30035,40.947,-3.7848,1.243,18003,6.5397,197.4,199.2,-0.17481,0.156,9.72e6,2529,12.4,0.66624,0.86607,0.42216,0.12091,0.12316,10.009,-1.1772,-0.061314,1.7807,-0.57254,1.4768,101215
0.38825,9.4425,49.625,130.21,1.4562,-0.001858,9.8221,0.2997,41.28,-3.7814,1.2643,18001,6.5395,197.43,199.19,-0.17141,0.15651,9752098,2529,12.483,0.66626,0.86611,0.42216,0.12092,0.12318,9.9816,-1.1436,-0.063824,1.7895,-0.56775,1.4773,101214
0.38969,9.5135,49.812,130.22,1.4654,-0.0019362,9.8221,0.29906,41.613,-3.7777,1.2858,17999,6.5392,197.46,199.19,-0.16801,0.15703,9784260,2529,12.566,0.66629,0.86616,0.42215,0.12093,0.12321,9.9541,-1.1096,-0.065316,1.7981,-0.56292,1.4778,101213
0.39114,9.5851,49.999,130.24,1.4747,-0.0020173,9.8221,0.29841,41.946,-3.7737,1.3075,17997,6.5389,197.5,199.19,-0.16461,0.15755,9816534,2529,12.65,0.66631,0.8662,0.42214,0.12094,0.12323,9.9266,-1.0763,-0.066949,1.8067,-0.55806,1.4784,101213
0.39259,9.6571,50.187,130.25,1.484,-0.0021015,9.8221,0.29777,42.278,-3.7695,1.3295,17995,6.5387,197.53,199.19,-0.16122,0.15807,9848924,2529,12.734,0.66634,0.86623,0.42213,0.12095,0.12325,9.8993,-1.0429,-0.068381,1.8151,-0.55315,1.4789,101212
0.39404,9.7297,50.376,130.26,1.4933,-0.0021889,9.8221,0.29713,42.611,-3.7651,1.3516,17993,6.5384,197.56,199.18,-0.15784,0.15859,9881427,2529,12.819,0.66636,0.86627,0.42213,0.12096,0.12327,9.8721,-1.0099,-0.070679,1.8236,-0.5482,1.4795,101211
0.3955,9.8027,50.565,130.27,1.5027,-0.0022795,9.8221,0.29649,42.944,-3.7603,1.3739,17991,6.5381,197.59,199.18,-0.15446,0.15911,9914047,2529,12.904,0.66639,0.8663,0.42212,0.12097,0.12329,9.8451,-0.97743,-0.072575,1.8319,-0.54322,1.48,101210
0.39697,9.8763,50.755,130.29,1.5121,-0.0023736,9.8221,0.29585,43.277,-3.7552,1.3964,17989,6.5378,197.63,199.18,-0.15108,0.15964,9946783,2529,12.99,0.66641,0.86633,0.42211,0.12099,0.12331,9.8181,-0.94566,-0.074904,1.8402,-0.53819,1.4806,101209
0.39844,9.9505,50.946,130.3,1.5215,-0.0024712,9.8221,0.29521,43.61,-3.7499,1.4191,17987,6.5376,197.66,199.18,-0.14771,0.16017,9979636,2529,13.076,0.66644,0.86635,0.42211,0.121,0.12334,9.7912,-0.91283,-0.075862,1.8484,-0.53313,1.4811,101208
0.39991,10.025,51.137,130.31,1.531,-0.0025724,9.8221,0.29458,43.942,-3.7443,1.442,17985,6.5373,197.69,199.17,-0.14434,0.1607,10012606,2529,13.163,0.66646,0.86637,0.4221,0.12101,0.12336,9.7645,-0.88128,-0.078398,1.8565,-0.52803,1.4817,101207
0.40139,10.1,51.329,130.33,1.5406,-0.0026774,9.8221,0.29395,44.275,-3.7383,1.4651,17983,6.537,197.72,199.17,-0.14098,0.16123,10045695,2529,13.251,0.66649,0.86638,0.42209,0.12102,0.12338,9.7379,-0.85035,-0.079889,1.8645,-0.52289,1.4822,101207
0.40287,10.176,51.522,130.34,1.5502,-0.0027863,9.8221,0.29332,44.608,-3.7321,1.4884,17980,6.5367,197.76,199.17,-0.13762,0.16177,10078902,2529,13.338,0.66651,0.86639,0.42208,0.12103,0.1234,9.7113,-0.81835,-0.081918,1.8725,-0.5177,1.4828,101206
0.40436,10.252,51.715,130.35,1.5598,-0.0028992,9.8221,0.29269,44.941,-3.7255,1.5119,17978,6.5365,197.79,199.17,-0.13426,0.1623,10112230,2529,13.427,0.66654,0.86639,0.42208,0.12104,0.12342,9.6849,-0.78823,-0.08478,1.8804,-0.51249,1.4833,101205
0.40586,10.329,51.909,130.37,1.5694,-0.0030163,9.8221,0.29207,45.273,-3.7186,1.5355,17976,6.5362,197.82,199.16,-0.1309,0.16284,10145677,2529,13.516,0.66657,0.86639,0.42207,0.12105,0.12345,9.6586,-0.75685,-0.086069,1.8883,-0.50723,1.4838,101204
0.40736,10.407,52.104,130.38,1.5791,-0.0031376,9.8221,0.29145,45.606,-3.7114,1.5594,17974,6.5359,197.85,199.16,-0.12755,0.16338,10179246,2529,13.605,0.66659,0.86639,0.42206,0.12106,0.12347,9.6324,-0.727,-0.088442,1.896,-0.50193,1.4844,101203
0.40886,10.485,52.299,130.39,1.5889,-0.0032634,9.8221,0.29082,45.939,-3.7039,1.5835,17972,6.5356,197.88,199.16,-0.1242,0.16392,10212936,2529,13.696,0.66662,0.86637,0.42205,0.12107,0.12349,9.6062,-0.69654,-0.09043,1.9037,-0.4966,1.4849,101202
0.41037,10.563,52.495,130.41,1.5987,-0.0033938,9.8221,0.2902,46.272,-3.6961,1.6077,17970,6.5353,197.91,199.16,-0.12085,0.16447,10246748,2529,13.786,0.66665,0.86636,0.42205,0.12108,0.12352,9.5802,-0.66629,-0.092885,1.9113,-0.49123,1.4854,101201
0.41189,10.642,52.691,130.42,1.6085,-0.0035289,9.8221,0.28958,46.604,-3.6879,1.6321,17968,6.535,197.95,199.15,-0.1175,0.16501,10280684,2529,13.877,0.66667,0.86634,0.42204,0.1211,0.12354,9.5542,-0.63662,-0.095439,1.9189,-0.48583,1.486,101200
0.41341,10.722,52.889,130.44,1.6184,-0.0036689,9.8221,0.28897,46.937,-3.6793,1.6567,17965,6.5348,197.98,199.15,-0.11415,0.16556,10314742,2529,13.969,0.6667,0.86631,0.42203,0.12111,0.12356,9.5283,-0.60773,-0.097053,1.9264,-0.48039,1.4865,101199
0.41493,10.802,53.087,130.45,1.6283,-0.0038139,9.8221,0.28835,47.27,-3.6704,1.6815,17963,6.5345,198.01,199.15,-0.11081,0.16611,10348925,2529,14.061,0.66673,0.86628,0.42202,0.12112,0.12359,9.5025,-0.57822,-0.099544,1.9338,-0.47491,1.487,101198
0.41647,10.883,53.285,130.46,1.6382,-0.0039641,9.8221,0.28774,47.603,-3.6612,1.7064,17961,6.5342,198.04,199.15,-0.10746,0.16666,10383233,2529,14.154,0.66676,0.86625,0.42202,0.12113,0.12361,9.4768,-0.54936,-0.10166,1.9412,-0.4694,1.4876,101197
0.418,10.964,53.485,130.48,1.6482,-0.0041197,9.8221,0.28712,47.936,-3.6516,1.7315,17959,6.5339,198.07,199.14,-0.10412,0.16721,10417666,2529,14.248,0.66678,0.86621,0.42201,0.12114,0.12363,9.4511,-0.52016,-0.10411,1.9484,-0.46385,1.4881,101196
0.41954,11.046,53.685,130.49,1.6583,-0.0042809,9.8221,0.28651,48.268,-3.6416,1.7568,17957,6.5336,198.11,199.14,-0.10077,0.16777,10452224,2529,14.342,0.66681,0.86616,0.422,0.12115,0.12366,9.4256,-0.49112,-0.10656,1.9557,-0.45827,1.4886,101195
0.42109,11.129,53.886,130.5,1.6683,-0.0044478,9.8221,0.2859,48.601,-3.6312,1.7823,17954,6.5333,198.14,199.14,-0.097423,0.16833,10486909,2529,14.436,0.66684,0.86612,0.42199,0.12117,0.12368,9.4001,-0.46344,-0.1086,1.9628,-0.45265,1.4891,101194
0.42264,11.212,54.087,130.52,1.6784,-0.0046206,9.8221,0.28529,48.934,-3.6205,1.8079,17952,6.533,198.17,199.14,-0.094075,0.16889,10521722,2529,14.532,0.66687,0.86607,0.42198,0.12118,0.12371,9.3746,-0.43482,-0.11109,1.9699,-0.447,1.4897,101194
0.4242,11.296,54.29,130.53,1.6886,-0.0047995,9.8221,0.28468,49.267,-3.6094,1.8337,17950,6.5327,198.2,199.13,-0.090726,0.16945,10556662,2529,14.627,0.6669,0.86601,0.42198,0.12119,0.12373,9.3492,-0.40718,-0.11349,1.9769,-0.44132,1.4902,101193
0.42576,11.38,54.493,130.55,1.6988,-0.0049847,9.8221,0.28407,49.599,-3.5979,1.8596,17948,6.5324,198.23,199.13,-0.087376,0.17001,10591730,2529,14.724,0.66693,0.86595,0.42197,0.1212,0.12376,9.3239,-0.3792,-0.11597,1.9838,-0.43561,1.4907,101192
0.42733,11.465,54.696,130.56,1.709,-0.0051764,9.8221,0.28347,49.932,-3.586,1.8858,17946,6.5322,198.26,199.13,-0.084023,0.17058,10626927,2529,14.821,0.66696,0.86588,0.42196,0.12121,0.12378,9.2986,-0.35115,-0.11849,1.9907,-0.42987,1.4912,101191
0.42891,11.551,54.901,130.58,1.7193,-0.0053749,9.8221,0.28286,50.265,-3.5737,1.912,17943,6.5319,198.3,199.13,-0.080668,0.17115,10662253,2529,14.918,0.66699,0.86581,0.42195,0.12123,0.12381,9.2734,-0.32355,-0.12117,1.9975,-0.42409,1.4917,101190
0.43048,11.637,55.106,130.59,1.7296,-0.0055802,9.8221,0.28225,50.598,-3.561,1.9384,17941,6.5316,198.33,199.12,-0.07731,0.17172,10697708,2529,15.017,0.66702,0.86574,0.42194,0.12124,0.12383,9.2483,-0.29677,-0.12348,2.0043,-0.41829,1.4922,101189
0.43207,11.724,55.311,130.6,1.74,-0.0057927,9.8221,0.28165,50.93,-3.5479,1.965,17939,6.5313,198.36,199.12,-0.073949,0.17229,10733294,2529,15.115,0.66704,0.86566,0.42194,0.12125,0.12386,9.2231,-0.26935,-0.12632,2.011,-0.41246,1.4927,101187
0.43366,11.811,55.518,130.62,1.7504,-0.0060125,9.8221,0.28104,51.263,-3.5343,1.9917,17937,6.531,198.39,199.12,-0.070584,0.17287,10769011,2529,15.215,0.66707,0.86558,0.42193,0.12126,0.12388,9.198,-0.24283,-0.12875,2.0176,-0.4066,1.4932,101186
0.43526,11.9,55.725,130.63,1.7608,-0.0062399,9.8221,0.28044,51.596,-3.5204,2.0185,17934,6.5307,198.42,199.11,-0.067215,0.17344,10804860,2529,15.315,0.6671,0.8655,0.42192,0.12128,0.12391,9.173,-0.21539,-0.13213,2.0241,-0.40071,1.4937,101185
0.43686,11.988,55.933,130.65,1.7713,-0.0064751,9.8221,0.27983,51.929,-3.5059,2.0455,17932,6.5304,198.46,199.11,-0.063841,0.17402,10840840,2529,15.415,0.66714,0.86541,0.42191,0.12129,0.12394,9.148,-0.18945,-0.13394,2.0306,-0.3948,1.4941,101184
0.43846,12.078,56.142,130.66,1.7818,-0.0067184,9.8221,0.27923,52.261,-3.4911,2.0726,17930,6.5301,198.49,199.11,-0.060463,0.1746,10876952,2529,15.517,0.66717,0.86531,0.4219,0.1213,0.12396,9.123,-0.16307,-0.13732,2.0371,-0.38886,1.4946,101183
0.44008,12.168,56.352,130.68,1.7924,-0.00697,9.8221,0.27863,52.594,-3.4758,2.0998,17927,6.5298,198.52,199.11,-0.057079,0.17519,10913197,2529,15.619,0.6672,0.86522,0.42189,0.12131,0.12399,9.0981,-0.13594,-0.13935,2.0434,-0.3829,1.4951,101182
0.44169,12.259,56.562,130.69,1.803,-0.0072302,9.8221,0.27802,52.927,-3.46,2.1272,17925,6.5295,198.55,199.1,-0.053689,0.17577,1.095e7,2529,15.721,0.66723,0.86511,0.42188,0.12133,0.12402,9.0731,-0.11012,-0.14253,2.0497,-0.37691,1.4955,101181
0.44332,12.35,56.773,130.71,1.8136,-0.0074992,9.8221,0.27742,53.26,-3.4438,2.1546,17923,6.5292,198.58,199.1,-0.050293,0.17636,10986086,2529,15.824,0.66726,0.86501,0.42188,0.12134,0.12404,9.0482,-0.083882,-0.14487,2.056,-0.37091,1.496,101180
0.44495,12.442,56.984,130.72,1.8243,-0.0077773,9.8221,0.27681,53.592,-3.4272,2.1822,17920,6.5288,198.62,199.1,-0.04689,0.17695,11022732,2529,15.928,0.66729,0.8649,0.42187,0.12135,0.12407,9.0233,-0.058409,-0.14777,2.0621,-0.36488,1.4964,101179
0.44658,12.535,57.197,130.74,1.835,-0.0080648,9.8221,0.27621,53.925,-3.41,2.2099,17918,6.5285,198.65,199.1,-0.04348,0.17754,1.106e7,2529,16.033,0.66732,0.86478,0.42186,0.12137,0.1241,8.9984,-0.03202,-0.15031,2.0682,-0.35883,1.4969,101178
0.44822,12.628,57.41,130.75,1.8458,-0.0083619,9.8221,0.2756,54.258,-3.3924,2.2377,17916,6.5282,198.68,199.09,-0.040061,0.17813,11096426,2529,16.138,0.66735,0.86467,0.42185,0.12138,0.12413,8.9736,-0.0063283,-0.15391,2.0743,-0.35277,1.4973,101177
0.44987,12.722,57.624,130.77,1.8566,-0.0086689,9.8221,0.275,54.591,-3.3742,2.2656,17913,6.5279,198.71,199.09,-0.036635,0.17873,11133476,2529,16.243,0.66739,0.86454,0.42184,0.12139,0.12415,8.9487,0.01855,-0.15637,2.0803,-0.34668,1.4977,101176
0.45152,12.817,57.839,130.78,1.8674,-0.0089863,9.8221,0.27439,54.923,-3.3556,2.2936,17911,6.5276,198.75,199.09,-0.033199,0.17933,11170662,2529,16.35,0.66742,0.86442,0.42183,0.12141,0.12418,8.9238,0.043845,-0.15863,2.0862,-0.34059,1.4982,101175
0.45318,12.913,58.054,130.8,1.8783,-0.0093141,9.8221,0.27379,55.256,-3.3365,2.3217,17909,6.5273,198.78,199.08,-0.029755,0.17993,11207983,2529,16.457,0.66745,0.86429,0.42182,0.12142,0.12421,8.899,0.069403,-0.16198,2.0921,-0.33447,1.4986,101174
0.45484,13.009,58.27,130.81,1.8892,-0.0096528,9.8221,0.27318,55.589,-3.3169,2.3498,17906,6.527,198.81,199.08,-0.0263,0.18053,11245440,2529,16.564,0.66748,0.86415,0.42181,0.12143,0.12424,8.8741,0.094994,-0.16439,2.0979,-0.32835,1.499,101172
0.45651,13.106,58.487,130.83,1.9002,-0.010003,9.8221,0.27257,55.922,-3.2968,2.3781,17904,6.5267,198.84,199.08,-0.022835,0.18114,11283034,2529,16.673,0.66752,0.86401,0.4218,0.12145,0.12427,8.8492,0.12051,-0.16731,2.1036,-0.32221,1.4993,101171
0.45819,13.203,58.705,130.84,1.9112,-0.010364,9.8221,0.27197,56.255,-3.2761,2.4064,17901,6.5264,198.88,199.08,-0.019359,0.18175,11320764,2529,16.782,0.66755,0.86387,0.42179,0.12146,0.12429,8.8243,0.14519,-0.17097,2.1093,-0.31606,1.4997,101170
0.45987,13.301,58.924,130.86,1.9222,-0.010737,9.8221,0.27136,56.587,-3.2549,2.4348,17899,6.526,198.91,199.07,-0.015871,0.18235,11358632,2529,16.892,0.66758,0.86372,0.42178,0.12148,0.12432,8.7994,0.17018,-0.17313,2.115,-0.30991,1.5001,101169
0.46156,13.4,59.143,130.87,1.9333,-0.011123,9.8221,0.27075,56.92,-3.2332,2.4632,17897,6.5257,198.94,199.07,-0.012371,0.18297,11396637,2529,17.002,0.66762,0.86357,0.42177,0.12149,0.12435,8.7744,0.19515,-0.1759,2.1205,-0.30375,1.5005,101168
0.46325,13.5,59.363,130.89,1.9444,-0.011521,9.8221,0.27013,57.253,-3.2109,2.4917,17894,6.5254,198.98,199.07,-0.008858,0.18358,11434780,2529,17.113,0.66765,0.86341,0.42177,0.1215,0.12438,8.7495,0.21968,-0.17883,2.1261,-0.29758,1.5008,101167
0.46495,13.6,59.584,130.91,1.9555,-0.011932,9.8221,0.26952,57.586,-3.1881,2.5202,17892,6.5251,199.01,199.06,-0.0053318,0.1842,11473060,2529,17.225,0.66769,0.86325,0.42176,0.12152,0.12441,8.7245,0.24469,-0.18257,2.1315,-0.29141,1.5011,101165
0.46665,13.701,59.805,130.92,1.9667,-0.012356,9.8221,0.26891,57.918,-3.1648,2.5488,17889,6.5248,199.04,199.06,-0.0017915,0.18481,11511479,2529,17.337,0.66772,0.86309,0.42175,0.12153,0.12444,8.6994,0.27013,-0.1848,2.1369,-0.28523,1.5015,101164
0.46836,13.803,60.028,130.94,1.9779,-0.012794,9.8221,0.26829,58.251,-3.1408,2.5774,17887,6.5245,199.08,199.06,0.0017634,0.18544,1.155e7,2529,17.45,0.66775,0.86292,0.42174,0.12155,0.12447,8.6743,0.29463,-0.18817,2.1422,-0.27906,1.5018,101163
0.47008,13.906,60.251,130.95,1.9891,-0.013245,9.8221,0.26767,58.584,-3.1163,2.606,17885,6.5241,199.11,199.06,0.0053335,0.18606,11588731,2529,17.564,0.66779,0.86275,0.42173,0.12156,0.1245,8.6492,0.31899,-0.19049,2.1475,-0.27289,1.5021,101162
0.4718,14.009,60.475,130.97,2.0004,-0.013712,9.8221,0.26705,58.917,-3.0913,2.6346,17882,6.5238,199.14,199.05,0.0089197,0.18668,11627565,2529,17.678,0.66782,0.86257,0.42172,0.12158,0.12453,8.624,0.34357,-0.19331,2.1528,-0.26672,1.5024,101161
0.47353,14.113,60.699,130.98,2.0117,-0.014193,9.8221,0.26643,59.25,-3.0656,2.6633,17880,6.5235,199.18,199.05,0.012522,0.18731,11666537,2529,17.793,0.66786,0.86238,0.42171,0.12159,0.12456,8.5988,0.3679,-0.19681,2.1579,-0.26056,1.5026,101159
0.47526,14.218,60.925,131,2.0231,-0.014689,9.8221,0.26581,59.582,-3.0394,2.6919,17877,6.5232,199.21,199.05,0.016142,0.18794,11705649,2529,17.909,0.6679,0.8622,0.4217,0.12161,0.12459,8.5735,0.39329,-0.19952,2.1631,-0.2544,1.5029,101158
0.477,14.323,61.151,131.02,2.0345,-0.015201,9.8221,0.26518,59.915,-3.0125,2.7205,17875,6.5228,199.25,199.04,0.01978,0.18857,11744899,2529,18.025,0.66793,0.862,0.42169,0.12162,0.12462,8.5481,0.4171,-0.20223,2.1681,-0.24826,1.5032,101157
0.47874,14.43,61.378,131.03,2.0459,-0.015729,9.8221,0.26455,60.248,-2.9851,2.7491,17872,6.5225,199.28,199.04,0.023437,0.18921,11784289,2529,18.142,0.66797,0.86181,0.42168,0.12164,0.12465,8.5227,0.44194,-0.20532,2.1731,-0.24212,1.5034,101156
0.48049,14.537,61.605,131.05,2.0574,-0.016274,9.8221,0.26392,60.581,-2.957,2.7777,17870,6.5222,199.32,199.04,0.027113,0.18984,11823817,2529,18.26,0.668,0.86161,0.42167,0.12165,0.12469,8.4972,0.46611,-0.20816,2.1781,-0.236,1.5036,101155
0.48225,14.645,61.834,131.07,2.0689,-0.016836,9.8221,0.26329,60.913,-2.9284,2.8063,17867,6.5218,199.35,199.03,0.030809,0.19048,11863485,2529,18.378,0.66804,0.8614,0.42166,0.12167,0.12472,8.4716,0.49079,-0.21134,2.183,-0.2299,1.5038,101153
0.48401,14.753,62.063,131.08,2.0804,-0.017415,9.8221,0.26265,61.246,-2.8991,2.8348,17865,6.5215,199.39,199.03,0.034527,0.19112,11903293,2529,18.497,0.66808,0.86119,0.42165,0.12168,0.12475,8.446,0.51512,-0.21409,2.1878,-0.22381,1.504,101152
0.48578,14.862,62.293,131.1,2.0919,-0.018012,9.8221,0.26202,61.579,-2.8691,2.8633,17862,6.5212,199.42,199.03,0.038265,0.19177,11943239,2529,18.617,0.66811,0.86097,0.42164,0.1217,0.12478,8.4202,0.5399,-0.21685,2.1926,-0.21775,1.5042,101151
0.48755,14.973,62.524,131.11,2.1035,-0.018628,9.8221,0.26138,61.912,-2.8386,2.8917,17860,6.5208,199.46,199.03,0.042026,0.19241,11983325,2529,18.738,0.66815,0.86075,0.42162,0.12171,0.12481,8.3944,0.56461,-0.22003,2.1974,-0.21171,1.5043,101149
0.48933,15.083,62.755,131.13,2.1151,-0.019263,9.8221,0.26073,62.245,-2.8073,2.92,17857,6.5205,199.49,199.02,0.045811,0.19306,12023550,2529,18.859,0.66819,0.86052,0.42161,0.12173,0.12485,8.3684,0.58923,-0.2224,2.202,-0.20569,1.5045,101148
0.49112,15.195,62.988,131.15,2.1268,-0.019917,9.8221,0.26008,62.577,-2.7755,2.9483,17854,6.5202,199.53,199.02,0.049619,0.19371,12063915,2529,18.981,0.66823,0.86029,0.4216,0.12175,0.12488,8.3424,0.61361,-0.22563,2.2067,-0.1997,1.5046,101147
0.49291,15.307,63.221,131.16,2.1385,-0.02059,9.8221,0.25943,62.91,-2.7429,2.9765,17852,6.5198,199.57,199.02,0.053452,0.19436,12104418,2529,19.103,0.66827,0.86005,0.42159,0.12176,0.12491,8.3163,0.63777,-0.22791,2.2113,-0.19374,1.5047,101145
0.49471,15.421,63.455,131.18,2.1502,-0.021285,9.8221,0.25878,63.243,-2.7097,3.0045,17849,6.5195,199.6,199.01,0.05731,0.19502,12145061,2529,19.226,0.6683,0.85981,0.42158,0.12178,0.12494,8.29,0.66321,-0.23065,2.2158,-0.18781,1.5048,101144
0.49651,15.535,63.689,131.2,2.1619,-0.022,9.8221,0.25812,63.576,-2.6759,3.0325,17847,6.5192,199.64,199.01,0.061195,0.19567,12185843,2529,19.35,0.66834,0.85956,0.42157,0.12179,0.12498,8.2636,0.68806,-0.2338,2.2203,-0.18192,1.5048,101143
0.49832,15.649,63.925,131.21,2.1737,-0.022737,9.8221,0.25746,63.909,-2.6413,3.0603,17844,6.5188,199.68,199.01,0.065108,0.19633,12226764,2529,19.475,0.66838,0.8593,0.42156,0.12181,0.12501,8.2371,0.71279,-0.23613,2.2247,-0.17607,1.5049,101141
0.50013,15.765,64.161,131.23,2.1855,-0.023496,9.8221,0.2568,64.241,-2.6061,3.088,17842,6.5185,199.71,199,0.069048,0.19699,12267824,2529,19.6,0.66842,0.85904,0.42155,0.12183,0.12504,8.2105,0.73669,-0.23864,2.2291,-0.17025,1.5049,101140
0.50195,15.881,64.398,131.25,2.1973,-0.024278,9.8221,0.25613,64.574,-2.5702,3.1156,17839,6.5181,199.75,199,0.073017,0.19766,12309022,2529,19.726,0.66846,0.85877,0.42154,0.12184,0.12508,8.1838,0.76242,-0.24187,2.2334,-0.16448,1.5049,101139
0.50378,15.999,64.635,131.26,2.2092,-0.025083,9.8221,0.25545,64.907,-2.5335,3.143,17836,6.5178,199.79,199,0.077016,0.19832,1.235e7,2529,19.852,0.6685,0.8585,0.42153,0.12186,0.12511,8.1569,0.78728,-0.24478,2.2377,-0.15875,1.5049,101137
0.50561,16.117,64.874,131.28,2.2211,-0.025912,9.8221,0.25478,65.24,-2.4962,3.1702,17834,6.5174,199.83,198.99,0.081047,0.19899,12391835,2529,19.979,0.66854,0.85822,0.42152,0.12188,0.12515,8.1298,0.81202,-0.24658,2.2419,-0.15308,1.5049,101136
0.50744,16.235,65.113,131.3,2.233,-0.026765,9.8221,0.2541,65.573,-2.4582,3.1973,17831,6.5171,199.87,198.99,0.085108,0.19966,12433448,2529,20.107,0.66858,0.85793,0.4215,0.12189,0.12518,8.1027,0.83738,-0.2495,2.2461,-0.14745,1.5048,101135
0.50929,16.355,65.353,131.31,2.2449,-0.027644,9.8221,0.25341,65.906,-2.4194,3.2241,17829,6.5168,199.9,198.99,0.089203,0.20033,12475200,2529,20.236,0.66862,0.85764,0.42149,0.12191,0.12522,8.0753,0.86263,-0.25246,2.2503,-0.14188,1.5047,101133
0.51114,16.475,65.593,131.33,2.2569,-0.028548,9.8221,0.25272,66.238,-2.3799,3.2508,17826,6.5164,199.94,198.98,0.093331,0.20101,12517089,2529,20.365,0.66866,0.85734,0.42148,0.12193,0.12525,8.0478,0.88784,-0.25421,2.2544,-0.13637,1.5047,101132
